# LAS format log file from PETREL
# Project units are specified as depth units
#==================================================================
~Version information
VERS.   2.0:
WRAP.   NO:
#==================================================================
~Well
STRT.m   1482.0000                                 :START DEPTH    
STOP.m   3862.0597                                 :STOP DEPTH     
STEP.    0.1524                                    :STEP           
NULL.    -999.25                                   :NULL VALUE     
COMP.    New Zealnd Overseas Petroleum             :COMPANY        
WELL.    Pateke-2                                  :WELL           
FLD .                                              :FIELD          
LOC .    LAT -39.3797121  LON 173.1938696          :LOCATION       
LATI.    -39.3797121                               :SURF. LATITUDE 
LONG.    173.1938696                               :SURF. LONGITUDE
EKB .m   25.000                                    :KB ELEVATION   
EGL .m   -124.000                                  :GROUND LEVEL   
CTRY.                                              :COUNTRY        
SRVC.                                              :SERVICE COMPANY
DATE.    --                                        :LOG DATE       
UWI .                                              :UNIQUE WELL ID 
#==================================================================
~Curve
DEPT .m                   : DEPTH
BHC .us/ft                : BHC
GRI .gAPI                 : GRI
~Parameter
#==================================================================
~Ascii
 1482.0000000  -999.250000  -999.250000
 1482.1524000  -999.250000  -999.250000
 1482.3048000  -999.250000  -999.250000
 1482.4572000  -999.250000  -999.250000
 1482.6096000 59.701000214  -999.250000
 1482.7620000 59.701000214  -999.250000
 1482.9144000 59.889999390  -999.250000
 1483.0668000 59.984001160  -999.250000
 1483.2192000 59.984001160  -999.250000
 1483.3716000 59.984001160  -999.250000
 1483.5240000 68.002998352  -999.250000
 1483.6764000 91.290000916  -999.250000
 1483.8288000 117.22399902  -999.250000
 1483.9812000 131.30999756  -999.250000
 1484.1336000 134.72900391  -999.250000
 1484.2860000 134.89700317  -999.250000
 1484.4384000 118.70300293  -999.250000
 1484.5908000 86.651000977  -999.250000
 1484.7432000 72.040000916  -999.250000
 1484.8956000 69.901000977  -999.250000
 1485.0480000 63.758998871  -999.250000
 1485.2004000 61.861000061  -999.250000
 1485.3528000 63.020000458  -999.250000
 1485.5052000 61.883998871  -999.250000
 1485.6576000 59.710994720  -999.250000
 1485.8100000 58.886001587  -999.250000
 1485.9624000 59.257999420  -999.250000
 1486.1148000 59.895996094  -999.250000
 1486.2673000 61.090999603  -999.250000
 1486.4197000 61.584999084  -999.250000
 1486.5721000 60.145999908  -999.250000
 1486.7245000 59.064002991  -999.250000
 1486.8769000 59.064002991  -999.250000
 1487.0293000 66.551002502  -999.250000
 1487.1817000 96.171997070  -999.250000
 1487.3341000 132.65800476  -999.250000
 1487.4865000 146.71899414  -999.250000
 1487.6389000 131.99699402  -999.250000
 1487.7913000 96.111999512  -999.250000
 1487.9437000 67.232002258  -999.250000
 1488.0961000 59.405002594  -999.250000
 1488.2485000 59.155994415  -999.250000
 1488.4009000 59.019001007  -999.250000
 1488.5533000 58.289001465  -999.250000
 1488.7057000 57.867000580  -999.250000
 1488.8581000 57.881999969  -999.250000
 1489.0105000 70.272003174  -999.250000
 1489.1629000 82.670997620  -999.250000
 1489.3153000 70.296997070  -999.250000
 1489.4677000 57.914001465  -999.250000
 1489.6201000 57.914001465  -999.250000
 1489.7725000 80.307998657  -999.250000
 1489.9249000 125.09700012  -999.250000
 1490.0773000 125.51000214  -999.250000
 1490.2297000 80.980003357  -999.250000
 1490.3821000 77.589996338  -999.250000
 1490.5345000 116.16600037  -999.250000
 1490.6869000 125.93100739  -999.250000
 1490.8393000 98.473999023  -999.250000
 1490.9917000 72.212997437  -999.250000
 1491.1441000 63.756000519  -999.250000
 1491.2965000 63.756000519  -999.250000
 1491.4489000 63.756000519  -999.250000
 1491.6013000 63.756000519  -999.250000
 1491.7537000 63.756000519  -999.250000
 1491.9061000 63.756000519  -999.250000
 1492.0585000 63.756000519  -999.250000
 1492.2109000 63.756000519  -999.250000
 1492.3633000 63.756000519  -999.250000
 1492.5157000 63.756000519  -999.250000
 1492.6681000 65.016998291  -999.250000
 1492.8205000 68.791000366  -999.250000
 1492.9729000 72.557998657  -999.250000
 1493.1253000 73.810997009  -999.250000
 1493.2777000 73.028999329  -999.250000
 1493.4301000 69.537002563  -999.250000
 1493.5825000 64.816001892  -999.250000
 1493.7349000 62.671001434  -999.250000
 1493.8873000 62.486999512  -999.250000
 1494.0397000 69.623001099  -999.250000
 1494.1921000 85.864006042  -999.250000
 1494.3445000 93.320999146  -999.250000
 1494.4970000 81.904998779  -999.250000
 1494.6494000 65.991996765  -999.250000
 1494.8018000 60.159000397  -999.250000
 1494.9542000 60.419998169  -999.250000
 1495.1066000 60.419998169  -999.250000
 1495.2590000 60.419998169  -999.250000
 1495.4114000 64.122001648  -999.250000
 1495.5638000 86.586997986  -999.250000
 1495.7162000 120.82299805  -999.250000
 1495.8686000 135.82499695  -999.250000
 1496.0210000 134.71699524  -999.250000
 1496.1734000 137.53300476  -999.250000
 1496.3258000 144.19799805  -999.250000
 1496.4782000 131.38499451  -999.250000
 1496.6306000 101.31300354  -999.250000
 1496.7830000 89.242996216  -999.250000
 1496.9354000 92.808998108  -999.250000
 1497.0878000 97.575996399  -999.250000
 1497.2402000 102.34200287  -999.250000
 1497.3926000 103.93099976  -999.250000
 1497.5450000 112.25199890  -999.250000
 1497.6974000 128.89300537  -999.250000
 1497.8498000 126.20499420  -999.250000
 1498.0022000 103.51899719  -999.250000
 1498.1546000 90.501998901  -999.250000
 1498.3070000 88.402999878  -999.250000
 1498.4594000 87.656005859  -999.250000
 1498.6118000 88.294998169 59.951198578
 1498.7642000 91.705001831 59.951198578
 1498.9166000 96.263008118 59.951198578
 1499.0690000 98.353996277 59.951198578
 1499.2214000 98.335998535 59.951198578
 1499.3738000 94.704002380 59.951198578
 1499.5262000 89.583999634 60.319000244
 1499.6786000 87.996994019 58.207401276
 1499.8310000 88.714996338 55.531299591
 1499.9834000 90.250000000 51.942699432
 1500.1358000 92.266998291 51.212699890
 1500.2882000 92.950996399 51.171699524
 1500.4406000 91.302001953 52.313400269
 1500.5930000 88.885002136 53.848499298
 1500.7454000 87.540000916 55.685199738
 1500.8978000 87.517997742 55.519298553
 1501.0502000 89.215003967 49.465198517
 1501.2026000 92.805000305 44.945701599
 1501.3550000 94.638999939 44.317298889
 1501.5074000 92.153999329 53.906700134
 1501.6598000 89.296997070 61.495700836
 1501.8122000 89.581001282 68.229400635
 1501.9646000 91.084999084 72.554397583
 1502.1170000 91.280990601 78.398498535
 1502.2694000 90.403999329 81.651000977
 1502.4218000 88.691001892 80.729499817
 1502.5742000 86.791999817 79.978103638
 1502.7267000 85.844001770 78.174697876
 1502.8791000 86.005996704 81.191398621
 1503.0315000 86.900001526 83.155197144
 1503.1839000 87.558998108 85.108100891
 1503.3363000 88.086997986 87.694198608
 1503.4887000 89.433998108 90.689498901
 1503.6411000 90.984001160 89.899497986
 1503.7935000 91.288002014 86.089599609
 1503.9459000 90.727996826 79.476699829
 1504.0983000 90.525993347 82.200599670
 1504.2507000 90.473999023 83.641403198
 1504.4031000 90.163002014 87.577400208
 1504.5555000 88.640991211 88.556900024
 1504.7079000 86.558998108 88.757202148
 1504.8603000 86.248001099 87.995399475
 1505.0127000 87.601997375 88.815399170
 1505.1651000 89.457000732 88.866302490
 1505.3175000 90.374000549 87.045196533
 1505.4699000 90.361999512 85.867500305
 1505.6223000 89.748008728 85.179496765
 1505.7747000 88.028991699 89.722602844
 1505.9271000 86.271003723 89.937301636
 1506.0795000 85.058998108 91.393798828
 1506.2319000 84.222999573 89.744102478
 1506.3843000 97.457000732 87.669197083
 1506.5367000 123.38099670 90.929199219
 1506.6891000 135.61199951 90.336898804
 1506.8415000 135.41499329 92.051101685
 1506.9939000 133.88699341 91.460800171
 1507.1463000 132.94700623 91.671501160
 1507.2987000 136.97200012 91.731498718
 1507.4511000 143.82200623 86.757400513
 1507.6035000 141.00100708 85.458396912
 1507.7559000 120.47499847 82.093902588
 1507.9083000 98.986999512 80.327003479
 1508.0607000 91.823997498 79.593902588
 1508.2131000 91.823997498 80.593002319
 1508.3655000 91.857002258 83.129302979
 1508.5179000 91.924003601 81.175003052
 1508.6703000 91.379989624 80.488197327
 1508.8227000 90.072998047 80.216796875
 1508.9751000 89.274002075 84.531799316
 1509.1275000 91.166000366 87.007797241
 1509.2799000 93.156997681 88.650100708
 1509.4323000 91.343002319 88.496597290
 1509.5847000 89.499000549 90.685600281
 1509.7371000 101.09799957 92.031196594
 1509.8895000 126.02700043 95.208602905
 1510.0419000 141.08900452 93.545501709
 1510.1943000 143.19000244 91.971702576
 1510.3467000 143.35899353 89.696296692
 1510.4991000 135.08700562 92.073196411
 1510.6515000 111.05999756 95.431800842
 1510.8039000 86.655998230 97.720901489
 1510.9564000 85.761993408 99.741600037
 1511.1088000 102.49900055 99.072998047
 1511.2612000 113.30299377 100.38369751
 1511.4136000 107.10501099 100.57740021
 1511.5660000 101.40799713 100.59059906
 1511.7184000 109.51500702 98.276199341
 1511.8708000 107.55899811 95.287597656
 1512.0232000 87.718002319 96.028999329
 1512.1756000 68.042999268 97.047401428
 1512.3280000 60.030998230 99.337799072
