# LAS format log file from PETREL
# Project units are specified as depth units
#==================================================================
~Version information
VERS.   2.0:
WRAP.   NO:
#==================================================================
~Well
STRT.m   1482.0000                                 :START DEPTH    
STOP.m   3862.0597                                 :STOP DEPTH     
STEP.    0.1524                                    :STEP           
NULL.    -999.25                                   :NULL VALUE     
COMP.    New Zealnd Overseas Petroleum             :COMPANY        
WELL.    Pateke-2                                  :WELL           
FLD .                                              :FIELD          
LOC .    LAT -39.3797121  LON 173.1938696          :LOCATION       
LATI.    -39.3797121                               :SURF. LATITUDE 
LONG.    173.1938696                               :SURF. LONGITUDE
EKB .m   25.000                                    :KB ELEVATION   
EGL .m   -124.000                                  :GROUND LEVEL   
CTRY.                                              :COUNTRY        
SRVC.                                              :SERVICE COMPANY
DATE.    --                                        :LOG DATE       
UWI .                                              :UNIQUE WELL ID 
#==================================================================
~Curve
DEPT .m                   : DEPTH
BHC .us/ft                : BHC
GRI .gAPI                 : GRI
~Parameter
#==================================================================
~Ascii
# ...
 3036.4989000 102.25400543 88.592399597
 3036.6513000 100.75901031 90.420898438
 3036.8037000 98.578002930 86.875000000
 3036.9561000 95.477996826 84.127799988
 3037.1085000 93.583999634 82.086097717
 3037.2609000 94.742996216 87.052902222
 3037.4133000 96.875007629 92.486801147
 3037.5657000 97.586997986 97.008102417
 3037.7181000 96.589996338 96.525199890
 3037.8705000 97.713996887 95.608802795
 3038.0229000 103.40699768 95.158500671
 3038.1753000 107.44799805 95.986000061
 3038.3277000 106.55799866 94.813796997
 3038.4801000 105.54199982 94.106697083
 3038.6325000 101.80400085 91.518302917
 3038.7849000 92.651000977 89.549400330
 3038.9373000 85.926002502 86.942703247
 3039.0897000 85.249008179 83.735099792
 3039.2421000 92.906997681 81.075599670
 3039.3945000 108.44499969 77.691703796
 3039.5469000 118.66500092 76.112197876
 3039.6993000 117.49300385 76.460800171
 3039.8517000 110.84500122 78.711898804
 3040.0041000 103.76399994 88.035697937
 3040.1565000 99.539001465 94.104301453
 3040.3089000 98.220001221 98.741302490
 3040.4613000 98.303001404 96.654602051
 3040.6137000 97.741996765 98.319503784
 3040.7661000 101.05799866 101.34310150
 3040.9185000 115.38200378 101.89099884
 3041.0709000 127.54499817 98.632896423
 3041.2233000 127.55599976 95.065803528
 3041.3757000 117.90699768 94.383399963
 3041.5281000 104.62200165 96.620903015
 3041.6805000 99.209007263 99.889503479
 3041.8329000 97.123001099 103.02449799
 3041.9853000 96.867996216 103.89009857
 3042.1377000 102.26699829 105.45819855
 3042.2901000 106.96800232 105.57800293
 3042.4425000 108.91100311 105.13860321
 3042.5949000 111.74699402 102.77429962
 3042.7473000 107.79900360 100.91089630
 3042.8997000 100.35500336 99.804901123
 3043.0521000 104.43299866 95.134002686
 3043.2045000 107.83100128 91.592903137
 3043.3569000 106.87000275 88.805198669
 3043.5094000 109.64499664 91.505798340
 3043.6618000 110.95400238 95.480201721
 3043.8142000 111.69799805 99.267997742
 3043.9666000 116.71500397 98.529197693
 3044.1190000 116.47100067 97.270698547
 3044.2714000 104.43699646 98.226097107
 3044.4238000 92.060997009 102.75869751
 3044.5762000 86.736000061 105.40740204
 3044.7286000 86.433998108 105.80799866
 3044.8810000 89.329002380 104.73819733
 3045.0334000 95.347999573 104.19159698
 3045.1858000 98.587997437 105.05069733
 3045.3382000 96.063003540 106.97949982
 3045.4906000 93.531997681 107.96489716
 3045.6430000 94.192001343 107.05729675
 3045.7954000 98.471000671 105.75520325
 3045.9478000 100.73100281 100.20690155
 3046.1002000 97.497001648 90.672897339
 3046.2526000 97.245010376 84.039398193
 3046.4050000 101.93699646 89.107902527
 3046.5574000 104.74501038 97.737396240
 3046.7098000 104.26200104 102.67369843
 3046.8622000 102.97599792 92.242797852
 3047.0146000 103.41300201 83.806098938
 3047.1670000 103.99199677 81.968498230
 3047.3194000 103.13899994 95.540702820
 3047.4718000 102.51300049 109.01969910
 3047.6242000 100.74600220 115.27100372
 3047.7766000 97.300003052 114.44539642
 3047.9290000 97.493003845 112.75340271
 3048.0814000 102.21399689 114.74990082
 3048.2338000 105.38999939 116.42259979
 3048.3862000 104.16100311 116.33589935
 3048.5386000 100.20200348 114.37660217
 3048.6910000 97.299003601 112.24949646
 3048.8434000 94.801002502 111.74340057
 3048.9958000 90.417999268 111.14009857
 3049.1482000 91.252998352 110.95580292
 3049.3006000 100.54199982 113.94229889
 3049.4530000 108.20500183 114.55069733
 3049.6054000 109.84799957 114.97840118
 3049.7578000 109.66999817 112.82879639
 3049.9102000 109.24099731 114.37670135
 3050.0626000 108.50700378 117.32569885
 3050.2150000 107.93399811 116.82939911
 3050.3674000 108.42099762 115.44930267
 3050.5198000 107.82900238 116.73049927
 3050.6722000 103.41699982 121.44730377
 3050.8246000 100.37000275 122.07689667
 3050.9770000 102.44599915 116.08679962
 3051.1294000 105.41000366 110.66989899
 3051.2818000 109.18598938 108.05590057
 3051.4342000 115.98500061 110.05770111
 3051.5866000 121.90799713 108.90650177
 3051.7391000 124.59799957 111.57769775
 3051.8915000 126.91799927 110.90650177
 3052.0439000 125.66400146 112.39089966
 3052.1963000 118.73000336 110.99880219
 3052.3487000 114.22799683 110.69180298
 3052.5011000 114.63600159 110.79499817
 3052.6535000 117.69300079 110.31099701
 3052.8059000 118.26100159 109.89150238
 3052.9583000 111.59500122 109.77880096
 3053.1107000 103.63499451 111.80850220
 3053.2631000 99.143997192 114.91200256
 3053.4155000 98.126998901 117.59380341
 3053.5679000 99.147003174 119.94989777
 3053.7203000 100.14600372 121.11560059
 3053.8727000 100.96499634 121.22339630
 3054.0251000 101.66500092 120.10160065
 3054.1775000 102.24800873 118.71679688
 3054.3299000 102.90599823 117.95030212
 3054.4823000 103.36799622 115.71790314
 3054.6347000 103.18901062 113.22059631
 3054.7871000 102.56400299 112.11180115
 3054.9395000 102.48700714 113.02220154
 3055.0919000 103.62500000 114.00430298
 3055.2443000 104.90299988 111.30239868
 3055.3967000 104.86499786 107.76229858
 3055.5491000 102.84799957 107.96949768
 3055.7015000 99.625999451 109.90840149
 3055.8539000 97.460990906 112.50129700
 3056.0063000 96.731002808 109.72789764
 3056.1587000 95.938003540 107.48169708
 3056.3111000 96.079002380 103.68029785
 3056.4635000 99.259002686 101.83850098
 3056.6159000 102.44599915 99.054298401
 3056.7683000 102.42300415 97.456100464
 3056.9207000 102.06400299 98.623397827
 3057.0731000 102.84600067 100.58940125
 3057.2255000 102.89099884 103.22290039
 3057.3779000 102.08199310 103.50749969
 3057.5303000 101.74900055 103.95829773
 3057.6827000 101.71099854 105.88330078
 3057.8351000 101.10600281 109.16860199
 3057.9875000 100.46800232 110.91190338
 3058.1399000 100.14199829 108.84909821
 3058.2923000 99.892997742 105.69170380
 3058.4447000 99.892997742 105.17880249
 3058.5971000 100.31700134 107.19750214
 3058.7495000 101.73200226 109.15309906
 3058.9019000 104.19799805 112.79499817
 3059.0543000 106.08100128 115.59290314
 3059.2067000 105.94699860 117.35540009
 3059.3591000 104.38899994 116.44439697
 3059.5115000 103.21299744 114.60520172
 3059.6639000 102.90299988 113.23580170
 3059.8163000 102.94899750 112.28250122
 3059.9688000 102.12000275 110.30180359
 3060.1212000 99.609001160 107.10160065
 3060.2736000 97.464996338 103.38379669
 3060.4260000 97.247001648 101.08779907
 3060.5784000 97.685997009 99.508003235
 3060.7308000 99.694999695 98.184196472
 3060.8832000 102.70600128 98.196403503
 3061.0356000 102.05400085 99.806602478
 3061.1880000 98.467002869 100.42880249
 3061.3404000 95.780998230 101.33670044
 3061.4928000 94.541999817 103.98570251
 3061.6452000 93.737007141 105.65409851
 3061.7976000 93.737007141 105.58070374
 3061.9500000 95.078002930 101.77960205
 3062.1024000 100.23600006 101.51809692
 3062.2548000 108.34899902 102.52890015
 3062.4072000 109.24600220 103.03880310
 3062.5596000 102.33000183 100.26149750
 3062.7120000 100.04000092 96.495201111
 3062.8644000 106.15100098 98.483703613
 3063.0168000 112.82299805 100.79560089
 3063.1692000 111.54600525 102.87180328
 3063.3216000 103.88500214 100.35829926
 3063.4740000 99.700996399 100.67700195
 3063.6264000 100.08499908 103.75990295
 3063.7788000 100.47100067 107.06880188
 3063.9312000 100.01200104 106.23960114
 3064.0836000 98.519996643 104.46829987
 3064.2360000 97.513000488 103.26460266
 3064.3884000 98.239997864 105.01719666
 3064.5408000 98.696998596 105.43740082
 3064.6932000 98.656997681 107.65339661
 3064.8456000 99.075996399 108.37339783
 3064.9980000 99.509010315 109.90000153
 3065.1504000 100.27400208 110.47129822
 3065.3028000 101.45800018 111.51129913
 3065.4552000 101.90399933 112.23500061
 3065.6076000 101.41200256 112.26889801
 3065.7600000 100.41400146 116.20809937
 3065.9124000 98.831001282 118.66819763
 3066.0648000 108.64299774 119.65859985
 3066.2172000 126.46800232 117.25700378
 3066.3696000 126.21800232 111.76229858
 3066.5220000 111.27400208 110.26560211
 3066.6744000 100.81800079 108.20890045
 3066.8268000 98.926002502 108.78260040
