# LAS format log file from PETREL
# Project units are specified as depth units
#==================================================================
~Version information
VERS.   2.0:
WRAP.   NO:
#==================================================================
~Well
STRT.m   1482.0000                                 :START DEPTH    
STOP.m   3862.0597                                 :STOP DEPTH     
STEP.    0.1524                                    :STEP           
NULL.    -999.25                                   :NULL VALUE     
COMP.    New Zealnd Overseas Petroleum             :COMPANY        
WELL.    Pateke-2                                  :WELL           
FLD .                                              :FIELD          
LOC .    LAT -39.3797121  LON 173.1938696          :LOCATION       
LATI.    -39.3797121                               :SURF. LATITUDE 
LONG.    173.1938696                               :SURF. LONGITUDE
EKB .m   25.000                                    :KB ELEVATION   
EGL .m   -124.000                                  :GROUND LEVEL   
CTRY.                                              :COUNTRY        
SRVC.                                              :SERVICE COMPANY
DATE.    --                                        :LOG DATE       
UWI .                                              :UNIQUE WELL ID 
#==================================================================
~Curve
DEPT .m                   : DEPTH
BHC .us/ft                : BHC
GRI .gAPI                 : GRI
~Parameter
#==================================================================
~Ascii
# ...
 3646.1063000 117.65300751 81.026298523
 3646.2587000 118.28099823 80.554000854
 3646.4111000 116.83999634 82.473602295
 3646.5635000 113.48699951 81.575996399
 3646.7159000 108.14199829 80.891601563
 3646.8683000 104.84700775 78.859901428
 3647.0207000 105.64600372 79.483703613
 3647.1731000 108.51599884 81.401100159
 3647.3255000 114.34599304 80.472702026
 3647.4779000 119.62100220 78.191703796
 3647.6303000 119.18399811 75.627502441
 3647.7827000 113.50199890 76.893096924
 3647.9351000 107.43699646 78.831497192
 3648.0875000 105.34799957 76.667297363
 3648.2399000 104.74700165 78.208702087
 3648.3923000 102.76000214 77.742202759
 3648.5447000 100.63200378 80.700401306
 3648.6971000 100.49500275 77.916099548
 3648.8495000 102.56099701 78.212097168
 3649.0019000 104.37500763 77.317100525
 3649.1543000 103.07900238 75.540496826
 3649.3067000 98.751998901 73.630599976
 3649.4591000 99.057998657 70.861602783
 3649.6115000 107.42099762 71.310501099
 3649.7639000 114.27900696 69.765998840
 3649.9163000 113.43000031 71.446899414
 3650.0687000 108.44699860 68.816398621
 3650.2211000 103.48600006 70.833602905
 3650.3735000 99.165000916 70.761703491
 3650.5259000 96.182998657 76.836097717
 3650.6783000 96.347999573 75.112602234
 3650.8307000 99.722999573 74.014801025
 3650.9831000 104.00799561 70.103302002
 3651.1355000 106.53500366 71.946899414
 3651.2879000 117.30699921 76.618202209
 3651.4403000 136.61099243 81.772003174
 3651.5927000 135.98199463 80.184097290
 3651.7451000 116.95100403 76.932296753
 3651.8975000 106.52500153 73.819099426
 3652.0499000 109.26200104 80.107299805
 3652.2023000 118.94200134 84.909301758
 3652.3547000 125.08799744 83.689498901
 3652.5071000 126.04100037 76.610397339
 3652.6595000 122.03299713 73.334999084
 3652.8119000 111.80300140 75.218902588
 3652.9643000 106.16700745 74.334899902
 3653.1167000 106.46701050 71.620903015
 3653.2692000 105.98200226 69.813903809
 3653.4216000 105.28999329 78.774597168
 3653.5740000 107.19699860 83.170600891
 3653.7264000 110.57700348 87.356201172
 3653.8788000 113.37799835 80.940002441
 3654.0312000 117.91200256 77.572502136
 3654.1836000 126.91799927 73.306701660
 3654.3360000 125.91600037 71.152000427
 3654.4884000 110.52600861 72.935997009
 3654.6408000 103.83699799 71.917297363
 3654.7932000 106.30399323 73.197303772
 3654.9456000 105.87699890 70.834297180
 3655.0980000 104.77999878 74.416397095
 3655.2504000 104.74800873 75.398597717
 3655.4028000 105.86599731 77.919502258
 3655.5552000 107.85500336 75.705299377
 3655.7076000 109.96299744 75.324096680
 3655.8600000 108.06100464 76.412101746
 3656.0124000 101.52700043 76.598098755
 3656.1648000 99.305999756 79.452301025
 3656.3172000 102.24400330 78.839500427
 3656.4696000 105.93400574 81.501602173
 3656.6220000 111.07599640 81.233398438
 3656.7744000 119.13200378 79.809898376
 3656.9268000 123.85600281 77.630401611
 3657.0792000 119.15599823 75.876701355
 3657.2316000 113.38099670 76.093597412
 3657.3840000 110.64199829 80.784202576
 3657.5364000 107.89099884 81.078796387
 3657.6888000 106.58399963 80.860099792
 3657.8412000 107.84700012 76.100402832
 3657.9936000 108.86000061 76.434501648
 3658.1460000 107.35399628 77.019401550
 3658.2984000 106.80699921 79.609397888
 3658.4508000 110.02600098 82.370796204
 3658.6032000 112.19799805 83.616096497
 3658.7556000 109.32199860 84.378700256
 3658.9080000 104.67099762 80.089302063
 3659.0604000 102.22599792 79.527702332
 3659.2128000 102.53299713 78.637901306
 3659.3652000 103.82299805 81.453598022
 3659.5176000 104.16000366 82.639701843
 3659.6700000 103.93000031 83.100196838
 3659.8224000 105.00299835 79.501296997
 3659.9748000 106.55200195 74.103302002
 3660.1272000 105.81800079 66.120399475
 3660.2796000 102.74900055 63.318199158
 3660.4320000 101.22299957 62.906398773
 3660.5844000 101.85099792 66.908699036
 3660.7368000 107.09799957 69.514297485
 3660.8892000 115.12799835 72.301300049
 3661.0416000 116.21499634 75.856002808
 3661.1940000 112.98699951 78.045303345
 3661.3464000 111.25900269 77.487800598
 3661.4989000 113.49600220 75.293899536
 3661.6513000 114.47699738 74.666397095
 3661.8037000 109.16200256 77.561996460
 3661.9561000 104.79699707 80.268501282
 3662.1085000 103.52300262 79.252197266
 3662.2609000 103.92700195 78.227996826
 3662.4133000 104.86900330 75.900001526
 3662.5657000 104.38800049 75.439002991
 3662.7181000 109.63999939 72.753700256
 3662.8705000 118.50900269 72.185096741
 3663.0229000 116.66300201 70.354103088
 3663.1753000 110.41100311 72.191902161
 3663.3277000 108.10198975 72.445602417
 3663.4801000 105.00900269 73.820297241
 3663.6325000 103.23999786 72.668701172
 3663.7849000 103.76599884 74.274497986
 3663.9373000 103.30999756 75.352203369
 3664.0897000 104.27700043 76.503799438
 3664.2421000 107.22299957 74.523002625
 3664.3945000 108.12800598 74.760002136
 3664.5469000 109.38800049 71.814300537
 3664.6993000 111.87599945 71.824897766
 3664.8517000 110.45600891 71.966300964
 3665.0041000 106.68199921 74.111396790
 3665.1565000 103.09799957 76.301399231
 3665.3089000 101.61900330 77.020401001
 3665.4613000 104.77101135 79.330398560
 3665.6137000 107.21399689 74.853698730
 3665.7661000 107.44999695 72.766098022
 3665.9185000 108.96701050 70.088897705
 3666.0709000 108.10198975 72.834602356
 3666.2233000 103.56799316 77.148696899
 3666.3757000 104.22499847 80.859298706
 3666.5281000 111.58899689 81.898803711
 3666.6805000 114.92700195 81.060096741
 3666.8329000 111.90599823 80.104896545
 3666.9853000 111.90699768 79.285301208
 3667.1377000 118.25599670 78.133003235
 3667.2901000 119.99600220 77.543296814
 3667.4425000 111.77200317 78.998001099
 3667.5949000 106.07800293 79.907699585
 3667.7473000 110.13200378 80.198196411
 3667.8997000 114.02799988 81.267601013
 3668.0521000 113.08300018 82.606399536
 3668.2045000 111.63900757 83.499801636
 3668.3569000 110.91500092 80.024299622
 3668.5093000 109.68800354 78.443901062
 3668.6617000 108.16899109 75.375900269
 3668.8141000 108.56999969 78.714599609
 3668.9665000 110.08000946 79.293998718
 3669.1189000 109.35399628 81.812896729
 3669.2713000 105.06600189 82.656501770
 3669.4237000 98.563003540 80.117897034
 3669.5761000 95.430999756 77.625198364
 3669.7286000 100.74900055 74.458702087
 3669.8810000 109.98799896 75.681999207
 3670.0334000 116.01100159 75.892501831
 3670.1858000 116.64700317 75.139701843
 3670.3382000 113.85500336 74.486999512
 3670.4906000 112.43399811 74.950202942
 3670.6430000 112.97000122 76.271896362
 3670.7954000 106.70301056 76.206100464
 3670.9478000 94.597999573 79.787597656
 3671.1002000 88.989997864 81.716796875
 3671.2526000 97.900001526 85.325798035
 3671.4050000 116.02400208 83.620201111
 3671.5574000 123.28199768 80.406799316
 3671.7098000 116.62500000 77.655097961
 3671.8622000 107.93598938 79.209899902
 3672.0146000 99.864997864 79.700996399
 3672.1670000 93.254997253 79.970001221
 3672.3194000 90.724998474 76.663398743
 3672.4718000 94.867996216 88.121498108
 3672.6242000 104.44400024 98.115699768
 3672.7766000 108.87300110 106.60040283
 3672.9290000 108.20999908 107.21420288
 3673.0814000 112.14700317 108.36589813
 3673.2338000 116.08000183 110.10430145
 3673.3862000 118.66799927 106.41850281
 3673.5386000 124.78899384 103.83920288
 3673.6910000 131.48899841 104.48539734
 3673.8434000 135.29100037 106.56490326
 3673.9958000 135.33299255 105.30290222
 3674.1482000 127.12000275 102.73049927
 3674.3006000 113.96399689 96.906402588
 3674.4530000 110.78399658 85.373100281
 3674.6054000 114.82199860 73.855300903
 3674.7578000 116.16799927 66.457099915
 3674.9102000 116.16799927 67.705200195
 3675.0626000 105.59400177 68.588699341
 3675.2150000 84.382003784 67.975097656
 3675.3674000 73.552001953 68.340797424
 3675.5198000 73.164001465 68.511001587
 3675.6722000 72.866996765 69.638198853
 3675.8246000 90.928009033 67.909599304
 3675.9770000 111.95100403 68.685997009
 3676.1294000 99.697998047 69.735603333
 3676.2818000 84.811996460 73.617202759
 3676.4342000 80.149002075 75.538597107
