# LAS format log file from PETREL
# Project units are specified as depth units
#==================================================================
~Version information
VERS.   2.0:
WRAP.   NO:
#==================================================================
~Well
STRT.m   1482.0000                                 :START DEPTH    
STOP.m   3862.0597                                 :STOP DEPTH     
STEP.    0.1524                                    :STEP           
NULL.    -999.25                                   :NULL VALUE     
COMP.    New Zealnd Overseas Petroleum             :COMPANY        
WELL.    Pateke-2                                  :WELL           
FLD .                                              :FIELD          
LOC .    LAT -39.3797121  LON 173.1938696          :LOCATION       
LATI.    -39.3797121                               :SURF. LATITUDE 
LONG.    173.1938696                               :SURF. LONGITUDE
EKB .m   25.000                                    :KB ELEVATION   
EGL .m   -124.000                                  :GROUND LEVEL   
CTRY.                                              :COUNTRY        
SRVC.                                              :SERVICE COMPANY
DATE.    --                                        :LOG DATE       
UWI .                                              :UNIQUE WELL ID 
#==================================================================
~Curve
DEPT .m                   : DEPTH
BHC .us/ft                : BHC
GRI .gAPI                 : GRI
~Parameter
#==================================================================
~Ascii
# ...
 1634.4018000 130.93400574 105.48780060
 1634.5543000 131.58000183 102.36740112
 1634.7067000 132.34800720 102.12190247
 1634.8591000 131.41200256 104.99520111
 1635.0115000 128.21400452 105.83059692
 1635.1639000 126.73100281 102.40409851
 1635.3163000 126.39800262 98.072303772
 1635.4687000 123.22000122 95.883399963
 1635.6211000 119.44500732 97.662399292
 1635.7735000 118.18699646 98.604202271
 1635.9259000 118.53399658 97.008903503
 1636.0783000 119.15599823 93.029296875
 1636.2307000 114.20999908 88.651397705
 1636.3831000 102.58100128 88.562599182
 1636.5355000 94.383003235 90.924003601
 1636.6879000 91.806999207 97.186698914
 1636.8403000 90.768997192 101.59950256
 1636.9927000 90.515998840 106.10230255
 1637.1451000 96.166000366 109.38569641
 1637.2975000 105.98999786 112.66919708
 1637.4499000 108.96600342 111.20110321
 1637.6023000 108.32599640 106.05319977
 1637.7547000 108.86399841 102.16819763
 1637.9071000 105.51799774 103.95950317
 1638.0595000 99.166000366 108.81970215
 1638.2119000 96.521003723 112.55879974
 1638.3643000 97.283996582 112.13780212
 1638.5167000 97.666000366 107.05539703
 1638.6691000 100.58499908 99.584197998
 1638.8215000 107.81099701 94.479103088
 1638.9739000 113.42501068 94.041397095
 1639.1263000 113.90100098 98.698196411
 1639.2787000 112.17299652 103.27880096
 1639.4311000 111.34400177 106.12629700
 1639.5835000 121.02700043 107.22309875
 1639.7359000 138.97099304 107.67179871
 1639.8883000 145.12500000 107.45819855
 1640.0407000 141.03399658 108.18039703
 1640.1931000 137.32299805 111.19909668
 1640.3455000 134.84300232 114.04399872
 1640.4979000 131.44700623 114.24960327
 1640.6503000 122.78399658 112.38230133
 1640.8027000 112.72200012 110.72280121
 1640.9551000 107.48700714 109.24299622
 1641.1075000 106.35900116 108.87719727
 1641.2599000 112.57499695 109.57309723
 1641.4123000 121.57299805 110.92800140
 1641.5647000 121.30599976 110.83630371
 1641.7171000 121.06499481 113.42500305
 1641.8695000 125.51699829 115.55010223
 1642.0219000 125.72499847 115.45390320
 1642.1743000 119.98200226 112.97730255
 1642.3267000 112.74600220 109.68260193
 1642.4791000 110.49600220 106.98860168
 1642.6315000 113.53899384 104.96920013
 1642.7840000 120.71800232 107.84619904
 1642.9364000 126.58200073 113.15290070
 1643.0888000 125.90000153 116.80120087
 1643.2412000 122.70400238 115.91110229
 1643.3936000 119.46299744 115.66699982
 1643.5460000 118.33699799 116.06950378
 1643.6984000 120.49699402 115.79060364
 1643.8508000 118.70999908 114.53070068
 1644.0032000 111.55000305 112.19270325
 1644.1556000 106.87500763 111.07489777
 1644.3080000 103.15499878 111.37909698
 1644.4604000 93.758003235 112.09549713
 1644.6128000 91.307998657 113.04260254
 1644.7652000 103.36400604 115.30770111
 1644.9176000 111.38200378 117.70819855
 1645.0700000 111.38200378 118.88300323
 1645.2224000 112.82599640 118.25620270
 1645.3748000 115.71399689 116.60179901
 1645.5272000 112.56300354 115.86889648
 1645.6796000 104.28399658 114.94309998
 1645.8320000 101.50900269 115.58660126
 1645.9844000 102.41899872 114.51219940
 1646.1368000 110.72499847 112.47270203
 1646.2892000 128.35499573 109.18099976
 1646.4416000 139.16299438 108.69680023
 1646.5940000 132.86399841 110.20659637
 1646.7464000 116.85900116 112.35169983
 1646.8988000 108.66300201 112.28839874
 1647.0512000 106.41100311 110.14089966
 1647.2036000 99.720001221 108.30190277
 1647.3560000 93.174003601 108.66069794
 1647.5084000 87.890998840 109.29979706
 1647.6608000 80.943000793 109.83979797
 1647.8132000 76.502998352 109.46510315
 1647.9656000 78.732002258 109.40280151
 1648.1180000 84.476997375 109.40390015
 1648.2704000 92.008003235 110.72699738
 1648.4228000 101.93499756 113.23590088
 1648.5752000 108.21099854 111.21869659
 1648.7276000 109.19999695 106.44020081
 1648.8800000 110.32099915 101.45300293
 1649.0324000 113.51699829 102.96240234
 1649.1848000 115.83999634 105.69069672
 1649.3372000 115.72699738 106.97090149
 1649.4896000 117.07800293 106.21730042
 1649.6420000 120.58899689 105.38529968
 1649.7944000 122.26200104 103.07499695
 1649.9468000 122.15599823 99.453796387
 1650.0992000 121.99500275 95.441299438
 1650.2516000 120.76300049 93.294601440
 1650.4040000 117.47100067 94.224700928
 1650.5564000 113.77700043 95.915100098
 1650.7088000 112.22798920 97.545600891
 1650.8612000 113.76399994 96.984199524
 1651.0137000 118.43499756 97.035003662
 1651.1661000 123.02100372 98.301101685
 1651.3185000 124.54900360 98.976699829
 1651.4709000 124.54900360 98.114196777
 1651.6233000 124.54900360 96.803199768
 1651.7757000 124.64099884 96.593299866
 1651.9281000 124.92000580 97.532203674
 1652.0805000 125.20300293 98.303497314
 1652.2329000 125.29799652 97.727302551
 1652.3853000 125.29799652 96.619300842
 1652.5377000 125.29799652 95.906898499
 1652.6901000 125.29799652 95.808296204
 1652.8425000 126.45700073 97.477401733
 1652.9949000 131.09399414 98.736999512
 1653.1473000 125.80699921 100.28320313
 1653.2997000 107.45799255 100.36250305
 1653.4521000 100.05699158 98.846702576
 1653.6045000 107.49500275 97.791999817
 1653.7569000 117.91999817 96.030403137
 1653.9093000 124.20200348 95.174598694
 1654.0617000 125.82899475 94.190101624
 1654.2141000 120.27999878 94.120697021
 1654.3665000 110.21900177 93.788299561
 1654.5189000 107.20500183 94.834701538
 1654.6713000 106.02899933 97.336997986
 1654.8237000 101.82399750 100.94400024
 1654.9761000 98.813003540 103.21430206
 1655.1285000 104.92400360 102.98000336
 1655.2809000 119.24800110 100.30460358
 1655.4333000 121.47000885 96.168403625
 1655.5857000 112.63899994 92.872596741
 1655.7381000 110.21299744 92.419097900
 1655.8905000 111.52600098 93.680999756
 1656.0429000 111.35199738 94.003601074
 1656.1953000 111.19000244 93.330902100
 1656.3477000 111.13600159 91.198402405
 1656.5001000 115.30400085 90.123596191
 1656.6525000 124.04799652 89.139602661
 1656.8049000 129.44099426 88.527297974
 1656.9573000 130.63600159 87.704803467
 1657.1097000 129.52900696 87.562202454
 1657.2621000 125.13300323 90.368202209
 1657.4145000 120.76699829 93.265998840
 1657.5669000 119.31199646 94.776298523
 1657.7193000 119.31199646 94.090103149
 1657.8717000 118.76000214 92.207901001
 1658.0241000 121.91699982 90.996398926
 1658.1765000 132.20700073 89.399597168
 1658.3289000 135.54100037 90.518997192
 1658.4813000 128.40699768 91.326499939
 1658.6337000 125.67600250 92.887603760
 1658.7861000 123.83100128 93.684501648
 1658.9385000 119.14299774 96.847297668
 1659.0909000 122.16699982 101.24919891
 1659.2434000 127.89600372 104.64320374
 1659.3958000 122.53600311 104.50990295
 1659.5482000 113.82599640 101.13320160
 1659.7006000 113.77799225 99.611503601
 1659.8530000 119.31699371 99.875503540
 1660.0054000 126.83200073 99.541603088
 1660.1578000 133.22099304 96.453598022
 1660.3102000 124.99700165 94.991600037
 1660.4626000 106.74099731 96.115898132
 1660.6150000 101.28800201 96.944801331
 1660.7674000 103.73799896 95.184700012
 1660.9198000 103.73799896 94.203498840
 1661.0722000 106.68699646 96.531997681
 1661.2246000 112.58200073 98.213699341
 1661.3770000 115.10299683 98.616096497
 1661.5294000 115.90599823 94.430801392
 1661.6818000 118.67199707 92.701698303
 1661.8342000 119.32499695 91.900299072
 1661.9866000 117.52400208 95.724899292
 1662.1390000 117.53299713 96.921501160
 1662.2914000 117.95999908 97.180900574
 1662.4438000 116.40699768 94.375701904
 1662.5962000 100.32399750 93.041496277
 1662.7486000 83.944999695 93.186401367
 1662.9010000 99.902999878 94.451797485
 1663.0534000 118.91000366 94.378097534
 1663.2058000 119.21099854 94.006698608
 1663.3582000 117.85600281 95.080398560
 1663.5106000 115.85199738 95.901298523
 1663.6630000 111.76300049 96.231101990
 1663.8154000 111.78299713 93.848701477
 1663.9678000 113.74800110 91.112800598
 1664.1202000 110.14099884 90.576797485
 1664.2726000 104.85900116 91.663497925
 1664.4250000 106.10700226 96.467300415
 1664.5774000 110.76000214 98.693901062
 1664.7298000 110.19499969 100.05960083
