# LAS format log file from PETREL
# Project units are specified as depth units
#==================================================================
~Version information
VERS.   2.0:
WRAP.   NO:
#==================================================================
~Well
STRT.m   1482.0000                                 :START DEPTH    
STOP.m   3862.0597                                 :STOP DEPTH     
STEP.    0.1524                                    :STEP           
NULL.    -999.25                                   :NULL VALUE     
COMP.    New Zealnd Overseas Petroleum             :COMPANY        
WELL.    Pateke-2                                  :WELL           
FLD .                                              :FIELD          
LOC .    LAT -39.3797121  LON 173.1938696          :LOCATION       
LATI.    -39.3797121                               :SURF. LATITUDE 
LONG.    173.1938696                               :SURF. LONGITUDE
EKB .m   25.000                                    :KB ELEVATION   
EGL .m   -124.000                                  :GROUND LEVEL   
CTRY.                                              :COUNTRY        
SRVC.                                              :SERVICE COMPANY
DATE.    --                                        :LOG DATE       
UWI .                                              :UNIQUE WELL ID 
#==================================================================
~Curve
DEPT .m                   : DEPTH
BHC .us/ft                : BHC
GRI .gAPI                 : GRI
~Parameter
#==================================================================
~Ascii
# ...
 2548.8129000 137.15600586 84.227401733
 2548.9653000 133.88000488 88.424896240
 2549.1178000 114.83100128 88.347198486
 2549.2702000 78.509002686 86.573799133
 2549.4226000 67.402999878 83.782302856
 2549.5750000 89.879997253 80.605598450
 2549.7274000 112.51399994 77.399002075
 2549.8798000 115.01999664 73.730598450
 2550.0322000 94.617996216 72.410499573
 2550.1846000 68.747001648 72.817100525
 2550.3370000 66.277000427 75.264701843
 2550.4894000 79.764999390 77.451599121
 2550.6418000 81.308998108 77.911697388
 2550.7942000 77.283996582 75.835899353
 2550.9466000 78.587997437 72.726898193
 2551.0990000 88.291007996 69.394401550
 2551.2514000 108.14399719 68.036697388
 2551.4038000 123.87899780 66.687500000
 2551.5562000 123.77600098 65.243698120
 2551.7086000 111.11699677 65.724998474
 2551.8610000 90.180999756 69.047203064
 2552.0134000 69.794998169 73.745300293
 2552.1658000 62.145999908 77.197502136
 2552.3182000 61.323001862 77.318298340
 2552.4706000 59.339000702 75.145301819
 2552.6230000 60.194999695 72.292999268
 2552.7754000 67.300003052 66.509101868
 2552.9278000 76.181999207 61.805301666
 2553.0802000 79.735000610 56.011398315
 2553.2326000 96.811996460 54.365699768
 2553.3850000 121.26399994 52.350399017
 2553.5374000 118.60600281 52.160598755
 2553.6898000 108.23999786 52.604301453
 2553.8422000 107.90799713 54.320899963
 2553.9946000 102.97799683 56.289600372
 2554.1470000 88.992996216 57.979198456
 2554.2994000 75.662994385 58.921398163
 2554.4518000 71.089996338 57.953098297
 2554.6042000 70.643997192 55.028999329
 2554.7566000 70.495002747 49.505500793
 2554.9090000 70.495002747 45.327301025
 2555.0614000 70.495002747 44.383598328
 2555.2138000 70.495002747 46.169700623
 2555.3662000 70.495002747 48.158401489
 2555.5186000 70.495002747 48.189800262
 2555.6710000 68.125000000 49.080898285
 2555.8234000 64.807998657 48.279201508
 2555.9758000 65.676002502 48.539798737
 2556.1282000 65.987998962 48.538600922
 2556.2806000 64.848999023 50.348999023
 2556.4330000 68.147003174 51.820701599
 2556.5854000 69.096000671 50.357799530
 2556.7378000 63.366001129 48.151699066
 2556.8902000 57.438999176 46.548099518
 2557.0426000 59.892997742 47.150798798
 2557.1950000 69.189002991 46.757999420
 2557.3475000 71.725997925 46.655601501
 2557.4999000 66.415000916 47.157600403
 2557.6523000 64.664001465 47.659099579
 2557.8047000 69.063003540 46.039501190
 2557.9571000 70.227996826 43.815498352
 2558.1095000 68.365997314 43.236499786
 2558.2619000 70.577003479 45.129199982
 2558.4143000 78.663002014 48.736099243
 2558.5667000 89.149002075 51.236999512
 2558.7191000 85.582000732 51.174800873
 2558.8715000 70.094001770 48.998500824
 2559.0239000 63.690998077 47.645698547
 2559.1763000 64.228996277 47.347000122
 2559.3287000 63.777004242 48.797298431
 2559.4811000 65.107002258 49.466598511
 2559.6335000 69.934997559 50.602798462
 2559.7859000 75.153007507 49.063701630
 2559.9383000 77.023002625 47.364498138
 2560.0907000 77.023002625 45.157299042
 2560.2431000 74.763000488 44.276000977
 2560.3955000 70.467002869 44.558101654
 2560.5479000 67.782997131 45.570301056
 2560.7003000 63.770000458 46.582599640
 2560.8527000 57.646999359 47.055400848
 2561.0051000 54.342998505 46.583400726
 2561.1575000 53.527000427 46.523998260
 2561.3099000 53.255001068 46.292499542
 2561.4623000 57.084999084 46.582199097
 2561.6147000 69.414001465 47.066898346
 2561.7671000 83.035003662 47.796798706
 2561.9195000 88.388999939 47.558898926
 2562.0719000 88.355010986 45.838100433
 2562.2243000 82.928001404 43.958099365
 2562.3767000 73.223999023 44.076198578
 2562.5291000 66.930999756 44.795299530
 2562.6815000 61.569999695 45.403099060
 2562.8339000 56.348999023 45.236598969
 2562.9863000 54.416999817 45.460399628
 2563.1387000 56.328002930 46.167598724
 2563.2911000 63.028999329 46.618499756
 2563.4435000 70.763000488 47.354698181
 2563.5959000 76.698997498 44.919200897
 2563.7483000 81.214996338 42.811199188
 2563.9007000 80.292991638 42.199501038
 2564.0531000 71.555000305 44.587898254
 2564.2055000 63.256996155 46.648899078
 2564.3579000 74.041999817 47.213901520
 2564.5103000 99.409996033 48.269798279
 2564.6627000 99.661003113 49.011398315
 2564.8151000 75.458000183 49.351699829
 2564.9675000 62.443000793 48.840198517
 2565.1199000 61.222999573 49.429901123
 2565.2723000 74.915000916 49.735298157
 2565.4247000 103.11499786 49.507099152
 2565.5772000 117.21399689 49.628200531
 2565.7296000 103.97499847 50.309898376
 2565.8820000 76.958000183 50.673301697
 2566.0344000 64.200996399 50.280799866
 2566.1868000 68.907997131 49.571498871
 2566.3392000 75.008003235 47.850101471
 2566.4916000 77.708000183 46.166099548
 2566.6440000 76.724998474 45.480800629
 2566.7964000 75.154998779 45.942699432
 2566.9488000 75.525001526 45.946300507
 2567.1012000 70.390998840 47.113700867
 2567.2536000 58.833000183 47.967201233
 2567.4060000 52.825000763 52.486400604
 2567.5584000 57.144001007 53.479900360
 2567.7108000 61.953998566 54.142700195
 2567.8632000 57.859001160 50.276298523
 2568.0156000 63.098999023 47.265701294
 2568.1680000 79.353996277 45.642898560
 2568.3204000 80.249008179 44.748001099
 2568.4728000 72.829002380 45.018798828
 2568.6252000 73.712997437 45.727500916
 2568.7776000 78.833007813 46.264301300
 2568.9300000 85.888999939 45.629901886
 2569.0824000 96.567001343 45.644500732
 2569.2348000 102.58499908 47.442901611
 2569.3872000 98.957000732 48.426498413
 2569.5396000 93.489997864 48.574501038
 2569.6920000 88.478996277 47.281799316
 2569.8444000 81.527000427 47.357398987
 2569.9968000 71.589996338 47.901199341
 2570.1492000 62.675998688 46.479698181
 2570.3016000 57.493000031 47.108001709
 2570.4540000 53.044998169 47.404701233
 2570.6064000 59.743999481 50.157699585
 2570.7588000 77.418998718 49.505199432
 2570.9112000 83.091003418 49.552799225
 2571.0636000 76.666999817 47.705299377
 2571.2160000 71.370002747 48.112201691
 2571.3684000 68.180000305 48.656600952
 2571.5208000 67.169998169 49.070999146
 2571.6732000 67.402999878 49.052799225
 2571.8256000 67.402999878 48.087600708
 2571.9780000 67.809997559 48.006401062
 2572.1304000 69.190002441 46.691398621
 2572.2828000 71.652999878 45.764198303
 2572.4352000 74.578994751 46.245201111
 2572.5876000 77.054000854 48.380298615
 2572.7400000 86.790000916 49.119499207
 2572.8924000 103.67300415 50.307201385
 2573.0448000 111.85500336 48.979301453
 2573.1972000 111.85500336 48.282901764
 2573.3496000 111.85500336 48.127601624
 2573.5020000 108.32899475 49.377700806
 2573.6544000 98.392997742 49.075199127
 2573.8069000 87.633003235 47.757701874
 2573.9593000 80.347999573 47.237201691
 2574.1117000 88.283996582 47.641101837
 2574.2641000 114.57700348 46.524200439
 2574.4165000 136.17500305 43.666698456
 2574.5689000 134.17500305 44.865001678
 2574.7213000 105.27899933 47.791698456
 2574.8737000 75.097999573 50.043701172
 2575.0261000 66.290000916 47.605201721
 2575.1785000 69.619003296 43.871700287
 2575.3309000 74.022003174 42.759998322
 2575.4833000 70.325996399 43.250099182
 2575.6357000 64.065002441 43.744998932
 2575.7881000 67.444999695 43.271999359
 2575.9405000 71.000999451 43.568401337
 2576.0929000 69.733001709 46.637298584
 2576.2453000 66.901000977 48.955600739
 2576.3977000 82.560997009 50.658401489
 2576.5501000 100.90299988 49.682399750
 2576.7025000 83.608001709 47.107398987
 2576.8549000 67.092002869 46.596099854
 2577.0073000 68.014999390 45.898101807
 2577.1597000 65.532997131 47.738201141
 2577.3121000 61.193996429 47.795299530
 2577.4645000 80.529998779 47.044498444
 2577.6169000 124.09799957 47.539299011
 2577.7693000 146.60200500 45.496101379
 2577.9217000 144.91099548 44.246498108
 2578.0741000 131.03399658 43.852901459
 2578.2265000 99.481002808 46.538101196
 2578.3789000 89.898002625 48.258300781
 2578.5313000 118.62500000 49.261199951
 2578.6837000 134.80499268 48.638000488
 2578.8361000 124.95999908 51.208400726
 2578.9885000 110.77300262 52.166400909
 2579.1409000 104.22899628 53.769901276
