# LAS format log file from PETREL
# Project units are specified as depth units
#==================================================================
~Version information
VERS.   2.0:
WRAP.   NO:
#==================================================================
~Well
STRT.m   1482.0000                                 :START DEPTH    
STOP.m   3862.0597                                 :STOP DEPTH     
STEP.    0.1524                                    :STEP           
NULL.    -999.25                                   :NULL VALUE     
COMP.    New Zealnd Overseas Petroleum             :COMPANY        
WELL.    Pateke-2                                  :WELL           
FLD .                                              :FIELD          
LOC .    LAT -39.3797121  LON 173.1938696          :LOCATION       
LATI.    -39.3797121                               :SURF. LATITUDE 
LONG.    173.1938696                               :SURF. LONGITUDE
EKB .m   25.000                                    :KB ELEVATION   
EGL .m   -124.000                                  :GROUND LEVEL   
CTRY.                                              :COUNTRY        
SRVC.                                              :SERVICE COMPANY
DATE.    --                                        :LOG DATE       
UWI .                                              :UNIQUE WELL ID 
#==================================================================
~Curve
DEPT .m                   : DEPTH
BHC .us/ft                : BHC
GRI .gAPI                 : GRI
~Parameter
#==================================================================
~Ascii
# ...
 2244.0092000 114.65699768 101.43949890
 2244.1616000 111.27400208 104.24449921
 2244.3141000 111.24000549 105.51210022
 2244.4665000 116.23899841 109.47429657
 2244.6189000 121.00100708 107.54570007
 2244.7713000 122.75199890 108.80539703
 2244.9237000 121.51799774 104.70359802
 2245.0761000 120.89599609 103.84140015
 2245.2285000 121.84799957 99.474403381
 2245.3809000 121.15200043 100.43229675
 2245.5333000 118.03200531 100.20249939
 2245.6857000 114.58699799 103.93879700
 2245.8381000 113.51799774 104.76879883
 2245.9905000 114.73799896 102.75229645
 2246.1429000 118.12699890 97.621498108
 2246.2953000 119.65899658 94.399299622
 2246.4477000 118.93900299 94.552803040
 2246.6001000 122.47399902 96.663497925
 2246.7525000 125.77700043 98.543197632
 2246.9049000 126.53399658 99.878799438
 2247.0573000 126.99400330 102.55110168
 2247.2097000 124.93900299 106.47820282
 2247.3621000 122.14800262 109.78500366
 2247.5145000 120.98999786 111.07340240
 2247.6669000 120.77400208 108.55570221
 2247.8193000 120.71800232 104.56320190
 2247.9717000 120.71800232 99.656898499
 2248.1241000 108.98899841 96.522796631
 2248.2765000 86.603996277 93.277496338
 2248.4289000 77.021003723 92.954101563
 2248.5813000 88.619003296 94.696601868
 2248.7337000 109.66600037 101.17510223
 2248.8861000 120.19000244 104.23429871
 2249.0385000 122.58100128 104.20629883
 2249.1909000 125.26899719 101.69450378
 2249.3433000 114.03600311 102.80690002
 2249.4957000 102.89800262 105.60720062
 2249.6481000 115.43699646 107.41770172
 2249.8005000 126.90999603 106.24089813
 2249.9529000 121.97799683 104.08039856
 2250.1053000 117.09700012 103.85820007
 2250.2577000 119.01799774 106.36080170
 2250.4101000 123.08499908 108.47570038
 2250.5625000 123.87799835 105.66349792
 2250.7149000 123.20700073 101.32389832
 2250.8673000 123.77899933 101.65720367
 2251.0197000 124.37300110 107.02890015
 2251.1721000 126.31600189 112.31800079
 2251.3245000 130.44700623 114.77380371
 2251.4769000 133.17399597 114.75559998
 2251.6293000 132.85899353 111.31430054
 2251.7817000 129.43699646 107.62169647
 2251.9341000 118.47399902 103.22799683
 2252.0865000 100.43499756 103.07350159
 2252.2389000 84.216003418 102.87319946
 2252.3913000 69.760002136 104.35800171
 2252.5438000 79.578002930 104.91840363
 2252.6962000 98.055999756 106.26699829
 2252.8486000 77.753997803 107.94589996
 2253.0010000 58.376998901 109.45610046
 2253.1534000 59.025001526 107.21829987
 2253.3058000 70.684997559 105.11560059
 2253.4582000 96.963996887 103.26059723
 2253.6106000 111.62000275 104.95379639
 2253.7630000 112.77300262 108.15290070
 2253.9154000 111.27300262 109.66249847
 2254.0678000 116.01899719 106.96980286
 2254.2202000 129.09700012 100.30870056
 2254.3726000 136.09399414 98.079902649
 2254.5250000 136.39999390 95.731399536
 2254.6774000 136.39999390 96.525398254
 2254.8298000 136.39999390 97.251602173
 2254.9822000 136.39999390 98.542701721
 2255.1346000 125.91300201 96.801696777
 2255.2870000 102.19499969 93.146499634
 2255.4394000 83.473999023 94.543296814
 2255.5918000 76.074996948 100.25399780
 2255.7442000 74.049003601 104.26470184
 2255.8966000 88.292999268 101.93699646
 2256.0490000 118.40399933 98.632896423
 2256.2014000 134.92300415 98.388900757
 2256.3538000 136.36900330 103.83999634
 2256.5062000 117.71499634 107.78720093
 2256.6586000 99.500000000 111.57800293
 2256.8110000 121.44699097 109.78009796
 2256.9634000 142.38000488 107.94309998
 2257.1158000 124.90499878 103.78459930
 2257.2682000 89.552001953 102.41439819
 2257.4206000 71.477996826 103.52919769
 2257.5730000 79.176994324 108.06410217
 2257.7254000 99.321998596 109.18219757
 2257.8778000 116.02899933 107.75090027
 2258.0302000 105.51200104 103.68090057
 2258.1826000 74.424003601 101.44170380
 2258.3350000 58.077999115 98.899696350
 2258.4874000 57.819000244 95.904502869
 2258.6398000 58.407001495 96.736198425
 2258.7922000 78.033996582 100.16320038
 2258.9446000 115.78800201 102.49829865
 2259.0970000 131.76199341 103.08260345
 2259.2494000 125.41999817 101.60079956
 2259.4018000 122.59600067 101.28970337
 2259.5542000 127.17299652 101.67819977
 2259.7066000 129.92999268 101.06469727
 2259.8590000 125.65399933 99.482002258
 2260.0114000 120.57598877 100.76609802
 2260.1638000 116.64099884 103.90370178
 2260.3162000 113.91300201 107.73390198
 2260.4686000 113.67800140 108.37079620
 2260.6210000 114.26200104 108.49320221
 2260.7735000 118.43900299 108.50389862
 2260.9259000 126.01100159 108.86979675
 2261.0783000 129.66700745 108.72940063
 2261.2307000 117.84200287 108.17150116
 2261.3831000 96.939010620 105.50920105
 2261.5355000 93.356002808 105.25769806
 2261.6879000 104.34700012 106.96620178
 2261.8403000 112.64499664 109.95929718
 2261.9927000 110.28600311 109.20330048
 2262.1451000 94.691001892 106.44550323
 2262.2975000 80.318000793 103.60150146
 2262.4499000 75.689010620 102.03459930
 2262.6023000 73.683998108 99.999496460
 2262.7547000 72.365997314 100.17729950
 2262.9071000 79.741996765 102.29119873
 2263.0595000 98.846000671 103.71929932
 2263.2119000 117.91300201 103.13829803
 2263.3643000 127.73000336 100.81939697
 2263.5167000 131.76300049 99.157402039
 2263.6691000 136.68200684 94.440597534
 2263.8215000 141.30099487 90.593299866
 2263.9739000 142.97599792 87.699501038
 2264.1263000 143.39500427 91.827697754
 2264.2787000 143.60400391 98.227401733
 2264.4311000 137.91400146 105.13050079
 2264.5835000 126.96600342 108.45600128
 2264.7359000 123.61799622 107.42440033
 2264.8883000 125.89800262 107.41310120
 2265.0407000 126.30899811 106.01049805
 2265.1931000 126.34400177 103.86219788
 2265.3455000 125.56399536 101.51119995
 2265.4979000 123.05899811 102.17839813
 2265.6503000 120.66899109 103.90950012
 2265.8027000 119.86299896 103.83260345
 2265.9551000 120.45500183 103.01470184
 2266.1075000 121.17099762 107.18560028
 2266.2599000 120.67198944 108.25730133
 2266.4123000 118.30100250 105.99089813
 2266.5647000 116.68399811 103.76370239
 2266.7171000 118.41899872 104.09919739
 2266.8695000 117.83000183 108.10579681
 2267.0219000 112.37100220 105.91339874
 2267.1743000 110.34799957 104.98190308
 2267.3267000 113.11100006 101.41510010
 2267.4791000 116.12200165 100.75039673
 2267.6315000 118.42501068 99.676002502
 2267.7839000 118.60800171 100.05020142
 2267.9363000 116.83100128 99.992599487
 2268.0887000 115.39399719 100.23670197
 2268.2411000 116.31000519 103.89340210
 2268.3935000 117.89299774 106.12969971
 2268.5459000 116.30700684 106.28829956
 2268.6983000 113.57299805 102.53440094
 2268.8507000 114.00700378 101.49169922
 2269.0032000 115.10800171 101.08750153
 2269.1556000 112.94000244 101.15219879
 2269.3080000 109.31600189 101.47599792
 2269.4604000 109.50499725 102.29340363
 2269.6128000 113.64499664 101.56269836
 2269.7652000 115.81800079 99.491699219
 2269.9176000 115.18000031 99.657501221
 2270.0700000 114.10399628 102.57479858
 2270.2224000 113.36000061 105.47270203
 2270.3748000 114.72299957 106.87370300
 2270.5272000 116.51200104 105.81970215
 2270.6796000 114.26799774 106.12850189
 2270.8320000 110.24400330 106.44219971
 2270.9844000 109.53299713 107.97010040
 2271.1368000 112.41500092 106.61190033
 2271.2892000 115.05200195 106.73729706
 2271.4416000 115.01200104 105.78869629
 2271.5940000 113.12300110 105.46839905
 2271.7464000 112.27500153 104.74279785
 2271.8988000 113.68099976 103.79669952
 2272.0512000 113.25000000 103.75340271
 2272.2036000 114.21700287 102.63330078
 2272.3560000 118.95999908 103.07129669
 2272.5084000 120.23300171 102.65769958
 2272.6608000 121.40200043 103.36419678
 2272.8132000 127.58600616 106.53620148
 2272.9656000 133.81300354 110.07769775
 2273.1180000 135.19000244 112.29479980
 2273.2704000 126.55899811 111.40129852
 2273.4228000 116.00100708 109.42379761
 2273.5752000 118.51399994 107.32109833
 2273.7276000 126.62300110 105.45600128
 2273.8800000 129.75900269 105.47989655
 2274.0324000 129.38000488 106.99060059
 2274.1848000 127.25100708 107.83830261
 2274.3372000 124.01998901 108.16970062
