# LAS format log file from PETREL
# Project units are specified as depth units
#==================================================================
~Version information
VERS.   2.0:
WRAP.   NO:
#==================================================================
~Well
STRT.m   1482.0000                                 :START DEPTH    
STOP.m   3862.0597                                 :STOP DEPTH     
STEP.    0.1524                                    :STEP           
NULL.    -999.25                                   :NULL VALUE     
COMP.    New Zealnd Overseas Petroleum             :COMPANY        
WELL.    Pateke-2                                  :WELL           
FLD .                                              :FIELD          
LOC .    LAT -39.3797121  LON 173.1938696          :LOCATION       
LATI.    -39.3797121                               :SURF. LATITUDE 
LONG.    173.1938696                               :SURF. LONGITUDE
EKB .m   25.000                                    :KB ELEVATION   
EGL .m   -124.000                                  :GROUND LEVEL   
CTRY.                                              :COUNTRY        
SRVC.                                              :SERVICE COMPANY
DATE.    --                                        :LOG DATE       
UWI .                                              :UNIQUE WELL ID 
#==================================================================
~Curve
DEPT .m                   : DEPTH
BHC .us/ft                : BHC
GRI .gAPI                 : GRI
~Parameter
#==================================================================
~Ascii
# ...
 3188.9007000 116.40000916 85.614501953
 3189.0531000 114.48599243 87.839202881
 3189.2055000 112.52100372 88.569297791
 3189.3579000 112.33100128 87.738899231
 3189.5103000 115.99700165 85.017898560
 3189.6627000 118.76599884 83.435798645
 3189.8151000 118.09999847 84.314598083
 3189.9675000 117.08499146 85.719398499
 3190.1199000 117.96299744 86.850601196
 3190.2723000 119.51999664 86.206398010
 3190.4247000 120.15900421 86.376296997
 3190.5771000 122.56099701 85.124496460
 3190.7295000 125.58399963 84.859497070
 3190.8819000 126.69300079 83.254096985
 3191.0343000 125.64299774 84.723701477
 3191.1867000 123.03500366 87.357101440
 3191.3391000 120.27899933 89.990402222
 3191.4915000 117.48799896 91.021003723
 3191.6439000 116.03199768 90.162803650
 3191.7964000 116.17000580 89.304603577
 3191.9488000 115.91600037 85.028999329
 3192.1012000 114.81199646 80.462799072
 3192.2536000 109.79000092 76.666801453
 3192.4060000 103.87599945 81.227798462
 3192.5584000 106.90399933 87.097999573
 3192.7108000 116.85700226 90.009101868
 3192.8632000 123.78398895 86.670898438
 3193.0156000 122.74199677 83.141700745
 3193.1680000 118.18000031 80.833900452
 3193.3204000 114.66200256 81.890197754
 3193.4728000 112.63200378 82.559600830
 3193.6252000 112.20700073 84.196502686
 3193.7776000 112.35700226 84.345199585
 3193.9300000 114.04699707 83.998199463
 3194.0824000 116.31099701 85.048896790
 3194.2348000 116.00400543 85.116996765
 3194.3872000 114.78700256 86.328201294
 3194.5396000 114.05300140 85.843696594
 3194.6920000 112.59100342 83.174400330
 3194.8444000 110.52799988 80.071701050
 3194.9968000 109.54599762 77.817497253
 3195.1492000 111.22299957 79.317298889
 3195.3016000 115.15900421 81.298103333
 3195.4540000 119.02200317 81.785598755
 3195.6064000 120.49600220 80.564796448
 3195.7588000 119.83200073 80.308998108
 3195.9112000 121.30101013 79.590896606
 3196.0636000 125.85600281 79.672798157
 3196.2160000 128.55999756 77.613998413
 3196.3684000 127.36000061 81.860298157
 3196.5208000 123.62999725 85.765899658
 3196.6732000 119.52500153 90.325202942
 3196.8256000 115.34500122 87.573501587
 3196.9780000 110.45099640 83.250602722
 3197.1304000 105.57900238 80.462799072
 3197.2828000 102.03299713 82.981903076
 3197.4352000 100.56300354 87.602996826
 3197.5876000 105.73699951 88.568000793
 3197.7400000 116.79699707 86.433296204
 3197.8924000 122.52100372 81.296798706
 3198.0448000 124.22799683 78.706100464
 3198.1972000 128.18299866 76.830497742
 3198.3496000 129.05299377 79.510101318
 3198.5020000 126.41100311 81.233596802
 3198.6544000 125.14600372 81.125602722
 3198.8068000 126.01200104 80.191398621
 3198.9592000 126.81399536 80.014801025
 3199.1116000 123.59799957 82.379096985
 3199.2640000 119.29901123 83.825798035
 3199.4164000 118.51799774 81.818199158
 3199.5688000 120.23100281 80.692901611
 3199.7212000 121.66300201 78.324401855
 3199.8736000 121.85299683 78.220596313
 3200.0261000 122.10600281 78.137702942
 3200.1785000 122.58399963 79.224800110
 3200.3309000 123.15100098 81.275299072
 3200.4833000 121.81399536 79.906600952
 3200.6357000 116.04000092 81.187698364
 3200.7881000 109.61299896 83.623596191
 3200.9405000 105.83399963 85.673599243
 3201.0929000 105.34600067 85.147300720
 3201.2453000 107.76000214 83.726196289
 3201.3977000 109.56500244 84.796699524
 3201.5501000 111.95200348 84.984298706
 3201.7025000 112.80999756 86.184402466
 3201.8549000 109.66100311 85.269302368
 3202.0073000 109.12000275 84.262702942
 3202.1597000 111.64500427 84.253997803
 3202.3121000 113.02900696 85.470199585
 3202.4645000 112.84400177 85.125503540
 3202.6169000 110.65299988 82.520698547
 3202.7693000 107.94799805 79.996101379
 3202.9217000 107.06900024 80.023002625
 3203.0741000 107.64299774 81.467399597
 3203.2265000 110.21399689 82.472602844
 3203.3789000 115.47499847 81.537200928
 3203.5313000 119.09300232 79.047500610
 3203.6837000 118.55699921 76.404502869
 3203.8361000 116.72100067 78.165802002
 3203.9885000 114.54399872 79.847602844
 3204.1409000 113.48899841 83.591598511
 3204.2933000 114.47799683 83.770896912
 3204.4457000 114.90200043 83.647399902
 3204.5981000 114.52200317 81.055496216
 3204.7505000 114.67800903 80.045997620
 3204.9029000 112.84899902 80.793998718
 3205.0553000 108.46399689 82.600303650
 3205.2077000 106.38700104 83.286102295
 3205.3601000 106.84999847 82.993499756
 3205.5125000 111.77700043 85.673797607
 3205.6649000 119.23200226 88.153198242
 3205.8173000 119.56700134 90.361701965
 3205.9697000 115.11000061 89.180000305
 3206.1221000 111.19599915 84.571998596
 3206.2745000 108.02100372 75.689399719
 3206.4269000 106.16700745 68.661300659
 3206.5793000 105.84799957 69.614097595
 3206.7317000 105.72299957 74.508697510
 3206.8841000 106.91599274 77.906799316
 3207.0365000 112.42800140 79.643600464
 3207.1889000 119.29299927 80.697898865
 3207.3413000 121.44899750 83.567199707
 3207.4937000 117.27700043 82.264503479
 3207.6461000 110.80999756 81.718299866
 3207.7985000 106.85399628 80.401496887
 3207.9509000 106.86499786 80.819396973
 3208.1033000 109.40399933 82.787597656
 3208.2558000 113.27300262 83.988296509
 3208.4082000 115.27999878 86.457397461
 3208.5606000 112.47399902 87.581802368
 3208.7130000 108.51599884 88.365600586
 3208.8654000 104.35099792 86.491401672
 3209.0178000 97.541999817 84.785400391
 3209.1702000 94.711997986 84.426902771
 3209.3226000 100.15799713 85.714599609
 3209.4750000 107.81800079 85.201202393
 3209.6274000 118.01599884 82.092201233
 3209.7798000 130.39799500 77.449996948
 3209.9322000 129.67100525 75.222198486
 3210.0846000 115.58999634 73.929199219
 3210.2370000 106.55100250 76.143898010
 3210.3894000 104.90899658 78.887298584
 3210.5418000 107.05599213 81.610702515
 3210.6942000 113.09299469 82.711303711
 3210.8466000 117.61100006 86.107398987
 3210.9990000 118.47899628 92.376403809
 3211.1514000 118.90200043 98.404800415
 3211.3038000 120.44999695 100.45870209
 3211.4562000 122.27600098 99.018699646
 3211.6086000 125.25499725 97.250198364
 3211.7610000 130.24699402 98.047096252
 3211.9134000 132.04400635 99.779296875
 3212.0658000 128.30299377 101.07409668
 3212.2182000 123.95600128 98.610900879
 3212.3706000 121.11100006 93.140197754
 3212.5230000 118.54000092 88.574996948
 3212.6754000 115.18299866 88.949203491
 3212.8278000 111.94500732 89.530296326
 3212.9802000 109.75700378 89.334999084
 3213.1326000 108.25599670 85.593399048
 3213.2850000 109.23200226 85.966903687
 3213.4374000 114.01000214 88.246902466
 3213.5898000 120.16100311 89.497001648
 3213.7422000 122.30500031 89.063598633
 3213.8946000 117.44000244 77.773200989
 3214.0470000 112.10501099 68.176803589
 3214.1994000 111.06999969 67.252799988
 3214.3518000 109.40899658 75.916198730
 3214.5042000 106.06099701 87.270698547
 3214.6566000 106.33200073 91.529403687
 3214.8090000 109.08000183 95.788002014
 3214.9614000 111.66899872 96.875099182
 3215.1138000 115.76699829 97.197998047
 3215.2662000 117.35300446 98.061996460
 3215.4186000 115.53500366 97.932098389
 3215.5710000 114.42600250 96.109497070
 3215.7234000 113.30400085 93.524902344
 3215.8758000 111.11299896 91.972099304
 3216.0282000 108.61900330 91.394302368
 3216.1806000 106.31500244 93.206596375
 3216.3330000 104.58999634 96.480003357
 3216.4855000 108.91400146 99.690002441
 3216.6379000 118.91200256 99.864799500
 3216.7903000 123.43499756 94.954399109
 3216.9427000 122.54799652 89.689697266
 3217.0951000 120.74900055 85.528701782
 3217.2475000 118.78099060 85.610298157
 3217.3999000 120.50099945 86.466697693
 3217.5523000 124.01799774 89.630599976
 3217.7047000 124.73999786 91.940299988
 3217.8571000 124.40299988 91.624900818
 3218.0095000 121.68699646 90.134803772
 3218.1619000 115.33799744 88.880401611
 3218.3143000 112.16100311 88.588600159
 3218.4667000 116.17700195 86.575897217
 3218.6191000 123.50100708 83.684997559
 3218.7715000 125.88999939 85.395896912
 3218.9239000 122.01200867 86.982200623
 3219.0763000 118.09700012 85.069198608
 3219.2287000 117.15000153 81.878501892
