# LAS format log file from PETREL
# Project units are specified as depth units
#==================================================================
~Version information
VERS.   2.0:
WRAP.   NO:
#==================================================================
~Well
STRT.m   1482.0000                                 :START DEPTH    
STOP.m   3862.0597                                 :STOP DEPTH     
STEP.    0.1524                                    :STEP           
NULL.    -999.25                                   :NULL VALUE     
COMP.    New Zealnd Overseas Petroleum             :COMPANY        
WELL.    Pateke-2                                  :WELL           
FLD .                                              :FIELD          
LOC .    LAT -39.3797121  LON 173.1938696          :LOCATION       
LATI.    -39.3797121                               :SURF. LATITUDE 
LONG.    173.1938696                               :SURF. LONGITUDE
EKB .m   25.000                                    :KB ELEVATION   
EGL .m   -124.000                                  :GROUND LEVEL   
CTRY.                                              :COUNTRY        
SRVC.                                              :SERVICE COMPANY
DATE.    --                                        :LOG DATE       
UWI .                                              :UNIQUE WELL ID 
#==================================================================
~Curve
DEPT .m                   : DEPTH
BHC .us/ft                : BHC
GRI .gAPI                 : GRI
~Parameter
#==================================================================
~Ascii
# ...
 1786.8037000 86.279998779 111.05729675
 1786.9561000 86.279998779 110.22280121
 1787.1085000 86.279998779 107.56600189
 1787.2609000 86.279998779 106.15029907
 1787.4133000 86.279998779 107.13980103
 1787.5657000 86.279998779 108.91179657
 1787.7181000 95.608001709 111.61779785
 1787.8705000 114.84899902 109.32959747
 1788.0229000 123.61399841 106.31649780
 1788.1753000 120.71199799 106.97149658
 1788.3277000 121.93800354 109.39320374
 1788.4801000 129.23300171 111.92890167
 1788.6325000 136.34700012 115.32099915
 1788.7849000 139.45599365 115.62770081
 1788.9373000 137.40600586 114.73449707
 1789.0897000 134.17700195 111.66600037
 1789.2421000 133.62100220 110.26909637
 1789.3945000 133.93400574 109.28160095
 1789.5469000 133.93400574 109.50389862
 1789.6993000 129.44900513 109.47109985
 1789.8517000 119.96398926 111.81629944
 1790.0041000 114.47299957 113.48750305
 1790.1565000 114.00399780 117.94249725
 1790.3089000 112.96299744 123.70030212
 1790.4613000 111.53600311 124.39610291
 1790.6137000 111.14299774 120.53440094
 1790.7661000 109.05699921 115.46109772
 1790.9185000 101.46099854 113.08560181
 1791.0710000 91.529998779 115.57209778
 1791.2234000 87.620002747 117.88459778
 1791.3758000 92.942001343 118.26119995
 1791.5282000 101.79599762 116.26999664
 1791.6806000 105.62500763 114.54309845
 1791.8330000 105.44300079 111.37729645
 1791.9854000 105.44300079 109.51589966
 1792.1378000 105.44300079 107.53250122
 1792.2902000 105.44300079 111.36820221
 1792.4426000 105.44300079 112.16799927
 1792.5950000 106.27999878 109.30560303
 1792.7474000 112.27999878 104.44400024
 1792.8998000 122.44400024 108.77069855
 1793.0522000 117.50299835 115.68789673
 1793.2046000 96.271995544 123.56580353
 1793.3570000 83.646003723 118.99810028
 1793.5094000 81.861000061 115.70420074
 1793.6618000 81.415000916 109.44239807
 1793.8142000 81.192001343 108.92649841
 1793.9666000 86.917999268 109.76390076
 1794.1190000 98.583999634 114.77899933
 1794.2714000 103.05100250 119.49279785
 1794.4238000 100.65100098 121.82890320
 1794.5762000 99.237998962 120.49829865
 1794.7286000 99.087997437 119.08519745
 1794.8810000 96.587997437 114.58699799
 1795.0334000 102.24199677 119.39859772
 1795.1858000 118.22100067 120.80439758
 1795.3382000 119.11100006 124.15950012
 1795.4906000 101.16101074 119.02690125
 1795.6430000 82.932991028 115.66750336
 1795.7954000 76.444999695 114.85070038
 1795.9478000 74.642997742 115.14920044
 1796.1002000 70.829002380 118.53240204
 1796.2526000 69.807998657 116.37539673
 1796.4050000 68.910003662 115.66010284
 1796.5574000 66.346000671 112.04879761
 1796.7098000 64.406997681 113.26490021
 1796.8622000 72.703002930 113.58999634
 1797.0146000 100.11000061 115.67240143
 1797.1670000 109.01599884 117.50599670
 1797.3194000 80.351997375 117.30370331
 1797.4718000 61.022998810 119.38580322
 1797.6242000 60.341999054 118.57109833
 1797.7766000 59.804004669 116.90950012
 1797.9290000 75.678001404 116.31220245
 1798.0814000 107.37799835 117.82550049
 1798.2338000 124.14600372 119.57360077
 1798.3862000 125.28099823 117.41120148
 1798.5386000 123.08499908 113.43740082
 1798.6910000 119.44300079 110.56250000
 1798.8434000 118.26200867 108.45939636
 1798.9958000 111.47000885 107.39219666
 1799.1482000 97.509002686 108.44529724
 1799.3007000 92.042999268 107.46320343
 1799.4531000 95.330001831 111.21910095
 1799.6055000 98.533996582 112.95780182
 1799.7579000 103.88999939 117.31729889
 1799.9103000 108.84999847 120.10500336
 1800.0627000 109.44200897 124.12259674
 1800.2151000 109.13700104 125.61679840
 1800.3675000 108.86299896 123.70110321
 1800.5199000 109.25099945 120.78780365
 1800.6723000 110.41300201 117.06079865
 1800.8247000 113.23299408 114.65239716
 1800.9771000 120.08999634 112.38559723
 1801.1295000 117.41000366 113.88069916
 1801.2819000 101.50599670 114.34909821
 1801.4343000 97.124000549 112.08660126
 1801.5867000 105.63100433 110.66290283
 1801.7391000 109.21299744 110.23819733
 1801.8915000 108.91000366 112.20020294
 1802.0439000 102.69300079 114.79119873
 1802.1963000 86.107002258 115.64109802
 1802.3487000 71.434997559 115.26809692
 1802.5011000 71.788002014 109.57430267
 1802.6535000 84.489997864 108.11879730
 1802.8059000 97.331001282 109.86049652
 1802.9583000 103.91400146 114.73310089
 1803.1107000 105.55999756 113.96700287
 1803.2631000 106.38200378 114.78820038
 1803.4155000 105.35399628 115.74109650
 1803.5679000 99.800003052 115.92960358
 1803.7203000 85.870002747 113.38569641
 1803.8727000 66.703002930 108.97480011
 1804.0251000 63.480998993 108.36460114
 1804.1775000 78.117996216 108.18109894
 1804.3299000 92.305000305 107.78199768
 1804.4823000 97.999000549 108.31020355
 1804.6347000 94.391998291 108.90149689
 1804.7871000 88.083999634 112.19170380
 1804.9395000 87.233001709 112.25209808
 1805.0919000 90.910003662 111.52420044
 1805.2443000 93.867996216 108.05030060
 1805.3967000 94.693000793 109.80719757
 1805.5491000 97.719001770 108.54260254
 1805.7015000 102.09799957 109.84349823
 1805.8539000 100.25700378 105.94049835
 1806.0063000 95.050003052 103.20339966
 1806.1587000 93.670005798 98.573898315
 1806.3111000 95.486999512 95.832603455
 1806.4635000 100.53500366 93.647499084
 1806.6159000 107.32800293 93.151603699
 1806.7683000 110.22300720 94.560203552
 1806.9207000 107.51100159 95.124702454
 1807.0731000 98.816001892 95.813201904
 1807.2255000 90.657997131 92.530296326
 1807.3779000 91.847999573 92.532302856
 1807.5304000 97.796997070 91.599899292
 1807.6828000 102.64900208 91.050697327
 1807.8352000 103.96099854 90.784698486
 1807.9876000 102.10501099 88.562896729
 1808.1400000 100.77999878 90.888099670
 1808.2924000 99.738998413 86.415901184
 1808.4448000 105.77700043 87.830001831
 1808.5972000 113.67700195 86.274002075
 1808.7496000 108.46700287 89.738296509
 1808.9020000 101.44099426 90.995300293
 1809.0544000 100.68699646 91.560600281
 1809.2068000 99.236000061 93.435600281
 1809.3592000 97.478996277 91.348503113
 1809.5116000 99.022003174 90.093597412
 1809.6640000 102.17900085 86.419799805
 1809.8164000 104.13301086 85.793601990
 1809.9688000 106.20199585 83.227500916
 1810.1212000 108.45200348 82.620002747
 1810.2736000 107.83399963 83.122200012
 1810.4260000 103.78900146 85.732597351
 1810.5784000 100.86599731 86.799201965
 1810.7308000 102.12300110 86.234298706
 1810.8832000 104.57199860 86.242897034
 1811.0356000 107.35700226 85.681098938
 1811.1880000 112.48500061 84.445899963
 1811.3404000 114.77100372 82.159797668
 1811.4928000 107.10399628 80.380203247
 1811.6452000 95.901992798 80.502601624
 1811.7976000 91.805007935 81.708702087
 1811.9500000 92.136001587 85.452003479
 1812.1024000 91.743995667 86.441902161
 1812.2548000 90.316009521 87.107597351
 1812.4072000 88.437004089 86.873199463
 1812.5596000 87.516006470 89.554298401
 1812.7120000 92.730003357 92.256599426
 1812.8644000 101.83300018 93.828498840
 1813.0168000 105.55000305 95.466697693
 1813.1692000 107.56800079 97.024902344
 1813.3216000 111.11299896 98.443801880
 1813.4740000 111.27899933 97.090896606
 1813.6264000 105.81800079 95.514701843
 1813.7788000 99.530998230 92.946098328
 1813.9312000 97.185997009 91.389099121
 1814.0836000 96.525001526 89.802398682
 1814.2360000 96.119003296 89.307998657
 1814.3884000 96.119003296 89.407096863
 1814.5408000 102.27500153 89.380096436
 1814.6932000 115.77899933 89.002296448
 1814.8456000 126.70400238 88.921997070
 1814.9980000 132.66499329 89.231201172
 1815.1504000 125.60600281 87.464897156
 1815.3028000 106.11799622 83.536598206
 1815.4552000 96.440994263 81.198097229
 1815.6076000 98.607002258 82.052200317
 1815.7601000 102.15798950 84.433097839
 1815.9125000 105.10700226 85.149299622
 1816.0649000 107.12200165 84.809997559
 1816.2173000 109.55599213 83.768798828
 1816.3697000 113.88200378 82.913002014
 1816.5221000 118.23200226 81.682098389
 1816.6745000 119.87200165 79.995697021
 1816.8269000 115.59700012 78.001998901
 1816.9793000 104.91000366 77.664596558
 1817.1317000 96.359001160 78.015403748
