# LAS format log file from PETREL
# Project units are specified as depth units
#==================================================================
~Version information
VERS.   2.0:
WRAP.   NO:
#==================================================================
~Well
STRT.m   1482.0000                                 :START DEPTH    
STOP.m   3862.0597                                 :STOP DEPTH     
STEP.    0.1524                                    :STEP           
NULL.    -999.25                                   :NULL VALUE     
COMP.    New Zealnd Overseas Petroleum             :COMPANY        
WELL.    Pateke-2                                  :WELL           
FLD .                                              :FIELD          
LOC .    LAT -39.3797121  LON 173.1938696          :LOCATION       
LATI.    -39.3797121                               :SURF. LATITUDE 
LONG.    173.1938696                               :SURF. LONGITUDE
EKB .m   25.000                                    :KB ELEVATION   
EGL .m   -124.000                                  :GROUND LEVEL   
CTRY.                                              :COUNTRY        
SRVC.                                              :SERVICE COMPANY
DATE.    --                                        :LOG DATE       
UWI .                                              :UNIQUE WELL ID 
#==================================================================
~Curve
DEPT .m                   : DEPTH
BHC .us/ft                : BHC
GRI .gAPI                 : GRI
~Parameter
#==================================================================
~Ascii
# ...
 3341.3026000 100.88200378 84.230201721
 3341.4550000 103.90100098 86.218902588
 3341.6074000 106.77900696 85.146400452
 3341.7598000 107.44699860 85.595397949
 3341.9122000 106.79901123 85.437103271
 3342.0646000 104.94200134 84.572502136
 3342.2170000 101.67199707 83.118202209
 3342.3694000 106.06799316 82.211601257
 3342.5218000 118.13600159 81.079498291
 3342.6742000 121.52400208 82.904800415
 3342.8266000 119.28399658 84.632896423
 3342.9790000 117.99600220 87.598899841
 3343.1314000 113.80899811 88.994300842
 3343.2838000 107.69200134 89.428703308
 3343.4362000 103.72699738 89.863098145
 3343.5886000 106.00700378 86.763298035
 3343.7410000 113.35700226 84.613800049
 3343.8934000 119.68499756 83.346099854
 3344.0458000 122.34799957 84.604896545
 3344.1982000 122.89099884 85.723503113
 3344.3506000 120.90899658 84.006103516
 3344.5030000 116.67299652 84.513496399
 3344.6554000 116.40900421 84.573501587
 3344.8078000 120.94599915 86.431503296
 3344.9602000 115.15200043 86.732498169
 3345.1126000 99.663002014 89.436500549
 3345.2650000 94.145004272 90.008796692
 3345.4174000 99.685997009 89.026397705
 3345.5698000 106.28199768 80.538696289
 3345.7222000 110.18000031 74.514396667
 3345.8746000 114.89199829 72.294998169
 3346.0270000 121.50499725 75.177803040
 3346.1794000 123.88300323 77.226196289
 3346.3318000 122.15499115 76.722702026
 3346.4842000 118.69999695 79.952400208
 3346.6366000 113.46700287 83.643798828
 3346.7890000 109.69100189 85.241302490
 3346.9414000 108.90200043 81.431800842
 3347.0938000 107.90899658 79.041198730
 3347.2462000 105.61299896 80.976699829
 3347.3986000 104.73500061 82.064002991
 3347.5510000 106.08899689 81.554603577
 3347.7034000 109.97100067 80.760498047
 3347.8558000 114.49900055 83.077400208
 3348.0082000 115.16400146 85.769302368
 3348.1606000 109.18499756 85.942901611
 3348.3131000 98.119010925 85.527603149
 3348.4655000 90.867996216 81.673500061
 3348.6179000 89.699996948 81.210197449
 3348.7703000 90.948997498 81.481002808
 3348.9227000 96.577003479 82.761703491
 3349.0751000 100.26599884 85.661102295
 3349.2275000 103.55999756 86.317596436
 3349.3799000 114.65599823 87.318397522
 3349.5323000 120.58100128 85.278503418
 3349.6847000 116.43799591 84.208396912
 3349.8371000 109.69100189 85.692901611
 3349.9895000 103.99500275 86.002700806
 3350.1419000 103.80200195 86.389900208
 3350.2943000 106.28600311 84.555702209
 3350.4467000 107.11199951 82.480102539
 3350.5991000 107.29199219 82.571701050
 3350.7515000 105.68499756 87.467102051
 3350.9039000 102.86100006 90.103599548
 3351.0563000 101.42900085 91.481597900
 3351.2087000 101.07199860 84.749000549
 3351.3611000 100.89299774 78.764503479
 3351.5135000 97.439002991 65.111701965
 3351.6659000 94.819000244 58.479499817
 3351.8183000 99.009002686 56.704700470
 3351.9707000 103.14700317 65.883003235
 3352.1231000 98.969001770 73.099296570
 3352.2755000 88.164001465 78.540603638
 3352.4279000 92.119003296 80.615600586
 3352.5803000 112.12699890 82.690597534
 3352.7327000 121.74900055 84.786499023
 3352.8851000 116.51599884 88.547500610
 3353.0375000 106.97699738 89.437797546
 3353.1899000 102.07199860 87.560096741
 3353.3423000 105.18499756 82.622398376
 3353.4947000 113.54599762 79.402198792
 3353.6471000 120.49600220 76.106796265
 3353.7995000 121.63600922 78.305297852
 3353.9519000 118.44400024 81.639099121
 3354.1043000 114.25598907 88.893203735
 3354.2567000 111.87500763 90.404502869
 3354.4091000 110.79499817 91.536697388
 3354.5615000 110.72999573 89.861801147
 3354.7139000 110.52400208 91.010101318
 3354.8663000 110.07599640 93.662101746
 3355.0187000 112.73000336 95.315902710
 3355.1711000 119.48400116 96.120201111
 3355.3235000 128.83700562 93.781196594
 3355.4759000 131.84599304 91.160697937
 3355.6283000 124.47399902 84.880500793
 3355.7807000 118.10299683 73.525596619
 3355.9331000 116.01799774 68.005401611
 3356.0855000 113.15799713 71.632797241
 3356.2379000 110.41999817 80.657600403
 3356.3903000 110.15300751 85.127296448
 3356.5428000 111.80200958 85.645202637
 3356.6952000 112.82500458 87.877403259
 3356.8476000 113.41400146 86.222999573
 3357.0000000 115.30400085 83.770401001
 3357.1524000 116.76899719 81.705703735
 3357.3048000 116.55500031 84.906799316
 3357.4572000 114.13400269 85.067398071
 3357.6096000 112.18900299 85.189102173
 3357.7620000 113.61900330 85.539703369
 3357.9144000 113.95099640 83.012397766
 3358.0668000 111.28600311 79.454696655
 3358.2192000 114.33499908 73.043098450
 3358.3716000 126.86499786 75.090499878
 3358.5240000 134.38800049 80.667198181
 3358.6764000 126.82800293 85.282600403
 3358.8288000 115.31400299 87.291702271
 3358.9812000 111.63099670 87.804702759
 3359.1336000 111.01399994 88.796798706
 3359.2860000 107.69099426 88.420700073
 3359.4384000 108.27700043 86.372497559
 3359.5908000 115.56700134 87.183197021
 3359.7432000 120.08799744 88.597801208
 3359.8956000 117.29000092 86.472396851
 3360.0480000 112.46398926 86.346603394
 3360.2004000 109.47999573 82.782501221
 3360.3528000 107.37500000 83.525703430
 3360.5052000 106.02101135 81.045898438
 3360.6576000 106.35900116 84.445899963
 3360.8100000 105.64299774 86.115501404
 3360.9624000 104.23200226 87.877799988
 3361.1148000 104.35099792 83.918899536
 3361.2672000 104.39600372 82.494697571
 3361.4196000 104.46700287 83.102600098
 3361.5720000 106.70099640 87.474899292
 3361.7244000 110.05000305 88.582000732
 3361.8768000 111.93399811 87.277496338
 3362.0292000 112.87400055 85.377700806
 3362.1816000 113.70099640 84.696800232
 3362.3340000 111.73500061 84.289001465
 3362.4864000 109.98101044 84.028900146
 3362.6388000 113.32899475 84.320701599
 3362.7912000 116.24300385 84.583602905
 3362.9436000 115.67400360 84.154701233
 3363.0960000 114.27500153 87.930702209
 3363.2484000 113.21299744 91.238098145
 3363.4008000 112.38899994 92.988403320
 3363.5532000 111.71900177 89.414802551
 3363.7056000 110.77700043 84.981399536
 3363.8580000 107.92999268 85.857200623
 3364.0104000 107.02899933 88.524200439
 3364.1628000 109.09500122 89.657897949
 3364.3152000 107.54799652 87.090400696
 3364.4676000 103.32599640 83.741798401
 3364.6200000 100.85501099 85.237503052
 3364.7725000 100.66699982 85.138298035
 3364.9249000 102.82200623 85.933197021
 3365.0773000 105.15799713 84.955101013
 3365.2297000 105.50099945 81.358596802
 3365.3821000 104.61000061 82.454498291
 3365.5345000 104.02300262 82.805297852
 3365.6869000 106.39299774 86.323898315
 3365.8393000 109.37500763 84.622703552
 3365.9917000 107.91999817 83.528999329
 3366.1441000 105.99299622 85.181701660
 3366.2965000 106.82700348 85.856300354
 3366.4489000 108.15399933 84.760299683
 3366.6013000 109.50000000 81.963401794
 3366.7537000 109.30899811 79.885101318
 3366.9061000 106.84599304 82.637100220
 3367.0585000 105.28999329 85.388999939
 3367.2109000 108.79000092 87.994003296
 3367.3633000 115.23100281 87.426696777
 3367.5157000 113.96499634 87.563400269
 3367.6681000 105.83699799 88.091796875
 3367.8205000 100.73699951 87.201599121
 3367.9729000 102.12100220 85.607398987
 3368.1253000 107.62399292 86.592498779
 3368.2777000 110.30300140 87.255699158
 3368.4301000 112.14399719 86.309997559
 3368.5825000 119.18800354 83.138099670
 3368.7349000 125.58799744 84.665702820
 3368.8873000 123.92099762 85.222198486
 3369.0397000 118.94998932 87.570800781
 3369.1921000 117.35600281 83.043899536
 3369.3445000 116.93199921 80.967102051
 3369.4969000 116.70200348 74.265899658
 3369.6493000 117.54399872 69.610099792
 3369.8017000 115.87400055 64.974098206
 3369.9541000 111.44499969 64.958198547
 3370.1065000 108.31500244 70.201698303
 3370.2589000 108.44400024 76.984199524
 3370.4113000 111.43799591 81.876403809
 3370.5637000 114.94699860 85.111297607
 3370.7161000 116.32499695 87.338096619
 3370.8685000 114.34100342 88.866798401
 3371.0209000 111.31900024 88.678596497
 3371.1733000 110.87699890 87.155899048
 3371.3257000 112.36599731 87.897903442
 3371.4781000 112.97699738 88.801498413
 3371.6305000 113.76100159 91.424598694
