# LAS format log file from PETREL
# Project units are specified as depth units
#==================================================================
~Version information
VERS.   2.0:
WRAP.   NO:
#==================================================================
~Well
STRT.m   1482.0000                                 :START DEPTH    
STOP.m   3862.0597                                 :STOP DEPTH     
STEP.    0.1524                                    :STEP           
NULL.    -999.25                                   :NULL VALUE     
COMP.    New Zealnd Overseas Petroleum             :COMPANY        
WELL.    Pateke-2                                  :WELL           
FLD .                                              :FIELD          
LOC .    LAT -39.3797121  LON 173.1938696          :LOCATION       
LATI.    -39.3797121                               :SURF. LATITUDE 
LONG.    173.1938696                               :SURF. LONGITUDE
EKB .m   25.000                                    :KB ELEVATION   
EGL .m   -124.000                                  :GROUND LEVEL   
CTRY.                                              :COUNTRY        
SRVC.                                              :SERVICE COMPANY
DATE.    --                                        :LOG DATE       
UWI .                                              :UNIQUE WELL ID 
#==================================================================
~Curve
DEPT .m                   : DEPTH
BHC .us/ft                : BHC
GRI .gAPI                 : GRI
~Parameter
#==================================================================
~Ascii
# ...
 2396.4111000 100.69200897 106.45390320
 2396.5635000 108.76799774 103.75060272
 2396.7159000 99.251998901 105.20390320
 2396.8683000 78.102996826 108.23339844
 2397.0207000 79.237998962 110.10289764
 2397.1731000 80.755996704 109.37339783
 2397.3255000 66.477996826 108.60220337
 2397.4779000 58.993999481 108.22709656
 2397.6303000 58.993999481 107.74279785
 2397.7827000 58.993999481 107.66300201
 2397.9351000 58.993999481 108.49909973
 2398.0875000 67.503997803 110.21610260
 2398.2399000 93.875000000 109.52950287
 2398.3923000 121.93000031 108.94409943
 2398.5447000 130.18400574 108.64559937
 2398.6971000 125.46299744 111.91529846
 2398.8495000 123.32099915 112.36199951
 2399.0019000 124.70500183 113.49880219
 2399.1543000 125.65999603 113.65239716
 2399.3067000 128.51899719 115.11479950
 2399.4591000 135.03399658 116.79940033
 2399.6115000 140.75000000 118.62709808
 2399.7639000 142.33500671 119.83769989
 2399.9163000 137.72000122 119.65910339
 2400.0687000 128.16400146 116.65239716
 2400.2211000 115.70600128 117.60590363
 2400.3735000 98.867996216 116.34290314
 2400.5259000 85.179000854 116.11689758
 2400.6783000 79.689002991 114.63659668
 2400.8308000 77.126998901 115.89920044
 2400.9832000 75.419998169 116.81310272
 2401.1356000 74.283996582 110.57489777
 2401.2880000 69.915000916 102.12280273
 2401.4404000 64.319000244 94.280998230
 2401.5928000 85.236000061 89.513801575
 2401.7452000 128.74299622 87.555900574
 2401.8976000 140.52699280 85.798698425
 2402.0500000 113.71499634 85.076301575
 2402.2024000 88.732002258 88.570198059
 2402.3548000 86.535003662 91.990898132
 2402.5072000 104.26799774 95.079399109
 2402.6596000 126.65799713 92.024902344
 2402.8120000 136.26499939 90.236198425
 2402.9644000 137.78100586 90.896797180
 2403.1168000 140.81199646 91.860099792
 2403.2692000 142.32800293 92.916198730
 2403.4216000 142.32800293 93.448303223
 2403.5740000 137.90400696 95.118598938
 2403.7264000 125.16799927 95.370201111
 2403.8788000 118.64499664 93.585197449
 2404.0312000 125.78399658 90.638198853
 2404.1836000 130.17799377 88.077102661
 2404.3360000 127.06198883 88.556198120
 2404.4884000 123.48899841 90.281097412
 2404.6408000 121.88700104 92.639999390
 2404.7932000 121.71200562 94.540901184
 2404.9456000 122.39499664 94.914802551
 2405.0980000 116.08499908 94.796203613
 2405.2504000 98.306999207 95.049499512
 2405.4028000 82.877998352 98.330200195
 2405.5552000 76.283996582 98.774803162
 2405.7076000 72.664001465 96.245697021
 2405.8600000 79.387001038 95.238403320
 2406.0124000 96.611000061 98.520599365
 2406.1648000 105.13400269 103.99970245
 2406.3172000 104.85700226 104.60150146
 2406.4696000 104.93699646 97.395301819
 2406.6220000 105.27999878 90.244201660
 2406.7744000 110.24099731 85.291999817
 2406.9268000 119.97299957 91.461898804
 2407.0792000 126.50700378 100.33239746
 2407.2316000 129.09100342 106.28450012
 2407.3840000 130.72900391 109.72689819
 2407.5364000 130.37100220 102.90740204
 2407.6888000 129.97300720 95.470802307
 2407.8412000 117.02500153 87.298599243
 2407.9936000 88.870002747 83.028198242
 2408.1460000 74.189002991 83.511398315
 2408.2984000 88.903999329 81.745498657
 2408.4508000 117.77200317 83.228202820
 2408.6032000 130.87600708 83.994903564
 2408.7556000 128.48199463 84.185897827
 2408.9080000 126.17000580 83.272102356
 2409.0605000 124.59200287 83.521896362
 2409.2129000 123.70799255 88.388198853
 2409.3653000 122.68399811 99.789398193
 2409.5177000 119.80599976 108.10449982
 2409.6701000 117.12999725 111.64830017
 2409.8225000 117.86699677 108.81140137
 2409.9749000 119.21200562 109.85150146
 2410.1273000 118.64600372 112.92449951
 2410.2797000 119.35399628 115.74030304
 2410.4321000 125.55500031 114.54609680
 2410.5845000 132.92599487 113.68199921
 2410.7369000 131.68400574 116.93340302
 2410.8893000 123.95899963 117.12560272
 2411.0417000 119.46800232 116.33660126
 2411.1941000 103.34500122 114.06749725
 2411.3465000 73.121002197 111.07389832
 2411.4989000 58.938999176 108.13400269
 2411.6513000 71.073997498 101.98300171
 2411.8037000 96.324996948 97.129600525
 2411.9561000 111.41200256 87.784797668
 2412.1085000 113.84300232 80.573898315
 2412.2609000 117.07800293 78.959602356
 2412.4133000 121.60600281 82.775398254
 2412.5657000 124.12999725 91.159698486
 2412.7181000 122.35199738 99.389801025
 2412.8705000 123.33100128 107.54309845
 2413.0229000 130.00700378 114.27899933
 2413.1753000 134.27999878 118.05909729
 2413.3277000 137.06199646 119.58419800
 2413.4801000 141.71800232 117.33029938
 2413.6325000 142.17300415 115.30999756
 2413.7849000 133.02400208 116.89520264
 2413.9373000 121.83699799 119.18080139
 2414.0897000 116.56199646 119.03240204
 2414.2421000 114.91700745 117.48739624
 2414.3945000 114.52200317 115.11460114
 2414.5469000 112.98000336 117.74069977
 2414.6993000 109.02700043 119.15940094
 2414.8517000 109.20301056 119.14540100
 2415.0041000 114.92400360 117.97760010
 2415.1565000 117.75599670 119.00229645
 2415.3089000 116.09200287 118.61959839
 2415.4613000 112.85199738 114.69439697
 2415.6137000 109.91300201 113.14600372
 2415.7661000 110.45400238 113.92479706
 2415.9185000 113.95999908 116.67919922
 2416.0709000 117.12400055 115.90290070
 2416.2233000 118.92099762 115.69779968
 2416.3757000 118.85600281 116.88310242
 2416.5281000 116.23101044 115.57050323
 2416.6805000 111.30399323 112.95570374
 2416.8329000 109.99700165 110.03859711
 2416.9853000 114.25099945 109.85990143
 2417.1377000 118.16599274 109.62310028
 2417.2902000 119.32598877 109.26450348
 2417.4426000 121.03899384 108.91850281
 2417.5950000 127.47899628 111.20919800
 2417.7474000 129.72799683 107.41290283
 2417.8998000 123.02900696 103.10250092
 2418.0522000 116.17600250 99.706199646
 2418.2046000 113.18299866 102.32189941
 2418.3570000 114.07700348 103.72740173
 2418.5094000 116.49199677 103.08460236
 2418.6618000 116.73899841 106.57599640
 2418.8142000 115.20999908 110.16709900
 2418.9666000 114.42700195 110.25730133
 2419.1190000 114.73000336 105.36769867
 2419.2714000 115.64600372 103.87409973
 2419.4238000 117.09600067 106.08080292
 2419.5762000 119.53500366 109.86869812
 2419.7286000 124.78599548 111.08149719
 2419.8810000 130.66499329 108.58039856
 2420.0334000 129.17399597 107.21800232
 2420.1858000 121.58100128 105.66609955
 2420.3382000 116.85198975 106.69689941
 2420.4906000 115.48200226 105.56520081
 2420.6430000 114.99800110 104.56870270
 2420.7954000 116.52899933 106.63410187
 2420.9478000 118.67000580 110.37819672
 2421.1002000 118.11299896 110.55210114
 2421.2526000 114.89900208 106.55400085
 2421.4050000 110.58000183 99.364700317
 2421.5574000 107.24501038 94.571701050
 2421.7098000 106.62699890 91.289703369
 2421.8622000 107.76000214 89.787696838
 2422.0146000 108.89600372 89.020103455
 2422.1670000 110.05099487 90.922698975
 2422.3194000 111.70200348 93.906196594
 2422.4718000 112.79000854 98.588096619
 2422.6242000 112.16300201 100.25869751
 2422.7766000 110.51699829 102.17960358
 2422.9290000 108.52700043 102.88710022
 2423.0814000 105.78900146 104.14630127
 2423.2338000 104.00399780 100.40229797
 2423.3862000 105.87300110 95.503501892
 2423.5386000 108.43499756 88.534599304
 2423.6910000 110.74900055 83.643699646
 2423.8434000 115.60500336 79.948600769
 2423.9958000 119.41799927 78.613197327
 2424.1482000 120.23200226 80.457901001
 2424.3006000 119.39700317 85.404602051
 2424.4530000 115.26099396 91.491798401
 2424.6054000 109.75199890 97.807998657
 2424.7578000 108.86100006 99.625701904
 2424.9102000 112.91100311 97.579200745
 2425.0626000 116.57099915 93.182899475
 2425.2150000 116.25199890 93.756202698
 2425.3674000 113.33199310 96.531700134
 2425.5199000 110.44799805 98.436401367
 2425.6723000 110.86599731 97.109100342
 2425.8247000 115.55899811 94.695800781
 2425.9771000 119.00099945 94.456398010
 2426.1295000 118.51599884 93.278900146
 2426.2819000 118.13700104 92.568298340
 2426.4343000 119.37599945 89.846397400
 2426.5867000 117.55200195 91.479103088
 2426.7391000 111.32199860 99.625000000
