# LAS format log file from PETREL
# Project units are specified as depth units
#==================================================================
~Version information
VERS.   2.0:
WRAP.   NO:
#==================================================================
~Well
STRT.m   1482.0000                                 :START DEPTH    
STOP.m   3862.0597                                 :STOP DEPTH     
STEP.    0.1524                                    :STEP           
NULL.    -999.25                                   :NULL VALUE     
COMP.    New Zealnd Overseas Petroleum             :COMPANY        
WELL.    Pateke-2                                  :WELL           
FLD .                                              :FIELD          
LOC .    LAT -39.3797121  LON 173.1938696          :LOCATION       
LATI.    -39.3797121                               :SURF. LATITUDE 
LONG.    173.1938696                               :SURF. LONGITUDE
EKB .m   25.000                                    :KB ELEVATION   
EGL .m   -124.000                                  :GROUND LEVEL   
CTRY.                                              :COUNTRY        
SRVC.                                              :SERVICE COMPANY
DATE.    --                                        :LOG DATE       
UWI .                                              :UNIQUE WELL ID 
#==================================================================
~Curve
DEPT .m                   : DEPTH
BHC .us/ft                : BHC
GRI .gAPI                 : GRI
~Parameter
#==================================================================
~Ascii
# ...
 2091.6074000 77.404998779 101.49130249
 2091.7598000 74.370002747 101.57759857
 2091.9122000 65.263999939 101.98410034
 2092.0646000 79.233001709 103.37580109
 2092.2170000 122.34700775 106.56150055
 2092.3694000 145.42199707 108.13269806
 2092.5218000 123.72699738 108.21179962
 2092.6742000 81.269996643 107.28050232
 2092.8266000 60.976001740 108.04989624
 2092.9790000 60.513999939 108.68280029
 2093.1314000 59.337001801 109.60690308
 2093.2838000 59.307998657 109.12809753
 2093.4362000 59.525001526 107.99600220
 2093.5886000 60.192001343 106.12989807
 2093.7410000 61.860000610 105.04100037
 2093.8934000 63.194000244 104.69529724
 2094.0458000 75.691001892 104.14160156
 2094.1982000 99.741996765 102.81120300
 2094.3506000 97.206001282 99.891601563
 2094.5030000 68.398002625 96.972000122
 2094.6554000 53.157001495 93.031196594
 2094.8078000 58.091999054 87.752998352
 2094.9602000 70.296997070 82.474800110
 2095.1126000 76.709007263 79.562400818
 2095.2650000 77.486000061 83.797897339
 2095.4174000 77.552001953 88.896301270
 2095.5698000 75.313011169 92.078399658
 2095.7222000 81.186996460 90.597000122
 2095.8747000 99.149002075 86.512397766
 2096.0271000 112.82800293 83.567703247
 2096.1795000 115.94699860 83.495796204
 2096.3319000 115.94699860 87.450897217
 2096.4843000 115.94699860 91.804801941
 2096.6367000 110.02499390 91.876701355
 2096.7891000 95.219001770 83.294601440
 2096.9415000 84.501998901 74.522399902
 2097.0939000 83.842002869 69.179298401
 2097.2463000 84.367996216 71.275001526
 2097.3987000 82.336997986 76.430999756
 2097.5511000 79.303001404 80.911102295
 2097.7035000 76.696998596 84.171897888
 2097.8559000 75.739997864 82.262100220
 2098.0083000 82.992996216 82.459800720
 2098.1607000 93.257003784 82.805397034
 2098.3131000 92.002998352 84.631698608
 2098.4655000 87.687995911 83.359100342
 2098.6179000 85.305000305 82.118598938
 2098.7703000 79.496002197 81.540000916
 2098.9227000 72.810997009 81.503799438
 2099.0751000 67.066001892 81.024902344
 2099.2275000 64.689002991 80.251800537
 2099.3799000 66.143997192 79.579498291
 2099.5323000 67.431999207 81.799102783
 2099.6847000 66.759002686 86.221702576
 2099.8371000 65.135002136 91.812797546
 2099.9895000 61.779998779 93.342697144
 2100.1419000 57.682994843 92.041099548
 2100.2943000 57.956001282 88.614501953
 2100.4467000 64.415000916 87.011497498
 2100.5991000 71.212997437 85.375503540
 2100.7515000 74.760002136 82.243698120
 2100.9039000 76.613998413 80.119400024
 2101.0563000 78.112998962 78.918502808
 2101.2087000 81.806999207 80.767303467
 2101.3611000 87.307998657 81.565498352
 2101.5135000 91.581001282 83.197898865
 2101.6659000 90.413002014 83.470199585
 2101.8183000 83.850997925 83.441398621
 2101.9707000 78.593002319 82.233299255
 2102.1231000 76.725997925 81.173301697
 2102.2755000 76.417999268 80.213600159
 2102.4279000 75.511001587 80.468902588
 2102.5803000 73.482002258 81.040298462
 2102.7327000 72.051002502 83.158203125
 2102.8851000 71.075996399 85.524200439
 2103.0375000 70.648002625 88.601997375
 2103.1899000 72.543998718 91.880699158
 2103.3423000 72.783996582 95.501296997
 2103.4947000 69.289001465 98.312400818
 2103.6471000 68.999000549 98.693496704
 2103.7995000 73.124000549 95.791999817
 2103.9519000 75.917999268 92.732597351
 2104.1044000 73.750000000 90.355598450
 2104.2568000 70.925003052 88.449996948
 2104.4092000 72.430000305 87.680801392
 2104.5616000 74.485992432 88.065498352
 2104.7140000 77.920997620 90.373901367
 2104.8664000 84.386001587 92.685798645
 2105.0188000 87.117004395 92.531402588
 2105.1712000 80.141998291 90.981697083
 2105.3236000 66.914001465 87.882301331
 2105.4760000 61.613998413 84.017303467
 2105.6284000 64.744003296 81.331497192
 2105.7808000 67.189002991 80.885696411
 2105.9332000 69.941001892 82.618598938
 2106.0856000 73.726997375 85.923103333
 2106.2380000 78.723999023 88.586402893
 2106.3904000 84.007995605 90.330200195
 2106.5428000 87.773002625 87.949600220
 2106.6952000 92.897003174 82.587997437
 2106.8476000 98.426002502 77.615303040
 2107.0000000 100.44499969 76.350303650
 2107.1524000 99.785003662 78.243202209
 2107.3048000 96.221000671 80.382598877
 2107.4572000 91.264999390 80.290603638
 2107.6096000 89.811996460 78.579200745
 2107.7620000 90.150009155 77.309898376
 2107.9144000 89.914009094 75.957702637
 2108.0668000 90.400001526 75.849800110
 2108.2192000 90.167999268 75.483100891
 2108.3716000 88.137001038 75.578300476
 2108.5240000 82.176002502 75.236701965
 2108.6764000 85.634002686 74.338897705
 2108.8288000 106.12500000 74.443199158
 2108.9812000 118.51399994 74.863800049
 2109.1336000 117.13200378 77.537902832
 2109.2860000 114.36901093 80.320800781
 2109.4384000 112.98799896 82.632698059
 2109.5908000 105.21800232 81.748199463
 2109.7432000 89.285003662 79.148696899
 2109.8956000 78.567993164 77.031501770
 2110.0480000 74.668998718 76.596496582
 2110.2004000 74.956001282 77.106903076
 2110.3528000 78.219001770 77.730796814
 2110.5052000 81.483001709 77.597801208
 2110.6576000 83.657997131 78.957099915
 2110.8100000 84.202003479 81.468101501
 2110.9624000 84.473999023 85.117599487
 2111.1148000 86.841003418 89.155296326
 2111.2672000 93.125999451 90.917098999
 2111.4196000 99.417999268 90.999198914
 2111.5720000 102.57900238 86.936096191
 2111.7244000 93.787002563 83.556297302
 2111.8768000 74.993003845 82.118698120
 2112.0292000 69.959999084 83.082298279
 2112.1816000 76.339996338 82.089599609
 2112.3341000 79.313003540 79.098098755
 2112.4865000 79.776000977 75.930801392
 2112.6389000 79.132003784 74.471199036
 2112.7913000 77.541000366 76.024497986
 2112.9437000 76.127998352 77.616996765
 2113.0961000 77.792991638 78.223899841
 2113.2485000 76.627998352 76.426101685
 2113.4009000 73.410003662 74.592300415
 2113.5533000 76.958999634 73.927902222
 2113.7057000 78.605003357 73.899101257
 2113.8581000 76.739997864 73.402900696
 2114.0105000 76.739997864 73.215797424
 2114.1629000 77.986000061 72.839401245
 2114.3153000 81.722999573 73.892898560
 2114.4677000 83.641998291 76.021598816
 2114.6201000 81.117996216 76.678596497
 2114.7725000 81.057998657 76.265098572
 2114.9249000 84.039993286 73.762603760
 2115.0773000 83.889999390 72.360496521
 2115.2297000 82.047996521 71.905296326
 2115.3821000 82.750999451 73.641899109
 2115.5345000 86.320999146 74.429100037
 2115.6869000 89.442008972 74.471702576
 2115.8393000 89.918998718 73.353500366
 2115.9917000 88.361999512 72.530197144
 2116.1441000 85.684997559 72.285400391
 2116.2965000 82.514999390 73.935699463
 2116.4489000 80.120994568 76.837402344
 2116.6013000 78.216003418 78.997802734
 2116.7537000 90.166999817 78.091697693
 2116.9061000 117.62899780 76.944702148
 2117.0585000 131.96200562 75.513298035
 2117.2109000 116.70099640 74.200996399
 2117.3633000 87.444000244 73.021598816
 2117.5157000 75.976997375 75.253601074
 2117.6681000 79.771011353 82.020500183
 2117.8205000 82.123001099 90.110603333
 2117.9729000 84.019989014 95.512298584
 2118.1253000 84.275001526 97.518600464
 2118.2777000 75.305000305 94.210800171
 2118.4301000 60.098999023 90.406600952
 2118.5825000 59.665000916 83.876998901
 2118.7349000 76.037002563 81.203697205
 2118.8873000 89.072006226 76.421798706
 2119.0397000 91.609992981 74.016502380
 2119.1921000 90.549011230 72.669799805
 2119.3445000 87.879997253 74.319999695
 2119.4969000 83.510002136 77.056098938
 2119.6493000 77.361000061 79.109199524
 2119.8017000 70.921997070 82.046798706
 2119.9541000 66.392997742 84.477401733
 2120.1065000 64.432998657 86.113296509
 2120.2589000 69.903999329 85.871398926
 2120.4113000 80.655998230 83.954902649
 2120.5637000 89.454002380 82.721702576
 2120.7162000 92.996002197 81.108100891
 2120.8686000 90.008003235 81.471298218
 2121.0210000 86.372001648 81.057800293
 2121.1734000 86.154998779 80.842102051
 2121.3258000 87.481010437 78.145401001
 2121.4782000 88.974998474 75.685997009
 2121.6306000 89.665000916 72.006896973
 2121.7830000 89.275001526 69.561996460
 2121.9354000 87.000999451 69.260002136
