# LAS format log file from PETREL
# Project units are specified as depth units
#==================================================================
~Version information
VERS.   2.0:
WRAP.   NO:
#==================================================================
~Well
STRT.m   1482.0000                                 :START DEPTH    
STOP.m   3862.0597                                 :STOP DEPTH     
STEP.    0.1524                                    :STEP           
NULL.    -999.25                                   :NULL VALUE     
COMP.    New Zealnd Overseas Petroleum             :COMPANY        
WELL.    Pateke-2                                  :WELL           
FLD .                                              :FIELD          
LOC .    LAT -39.3797121  LON 173.1938696          :LOCATION       
LATI.    -39.3797121                               :SURF. LATITUDE 
LONG.    173.1938696                               :SURF. LONGITUDE
EKB .m   25.000                                    :KB ELEVATION   
EGL .m   -124.000                                  :GROUND LEVEL   
CTRY.                                              :COUNTRY        
SRVC.                                              :SERVICE COMPANY
DATE.    --                                        :LOG DATE       
UWI .                                              :UNIQUE WELL ID 
#==================================================================
~Curve
DEPT .m                   : DEPTH
BHC .us/ft                : BHC
GRI .gAPI                 : GRI
~Parameter
#==================================================================
~Ascii
# ...
 3493.7044000 93.521011353 88.274398804
 3493.8568000 108.26899719 88.770202637
 3494.0092000 111.04399872 88.678901672
 3494.1616000 99.055000305 89.288497925
 3494.3140000 86.483001709 89.810897827
 3494.4664000 80.238998413 88.972000122
 3494.6188000 78.383003235 87.439598083
 3494.7712000 87.999992371 84.553703308
 3494.9236000 106.65499878 83.700798035
 3495.0760000 113.58399963 80.953697205
 3495.2284000 112.41899872 81.456199646
 3495.3808000 109.55100250 82.425598145
 3495.5332000 97.864997864 83.650596619
 3495.6856000 88.308998108 85.487701416
 3495.8380000 90.549011230 84.250297546
 3495.9904000 97.411010742 88.332801819
 3496.1428000 104.15599823 89.621902466
 3496.2952000 108.70300293 93.985603333
 3496.4476000 111.04900360 95.241302490
 3496.6001000 108.85399628 95.205802917
 3496.7525000 103.62300110 93.214103699
 3496.9049000 105.94499969 89.686897278
 3497.0573000 112.10900116 87.021301270
 3497.2097000 112.43399811 86.671302795
 3497.3621000 108.02200317 86.814796448
 3497.5145000 102.06700134 88.641098022
 3497.6669000 97.794998169 88.673301697
 3497.8193000 98.542999268 89.315101624
 3497.9717000 101.69400024 89.568496704
 3498.1241000 103.80899811 88.606498718
 3498.2765000 105.21900177 89.688003540
 3498.4289000 105.41600037 86.880798340
 3498.5813000 103.39499664 90.540603638
 3498.7337000 101.04299927 90.699699402
 3498.8861000 101.39099884 92.961402893
 3499.0385000 104.48500061 91.881599426
 3499.1909000 107.89700317 94.354598999
 3499.3433000 108.58599854 95.353599548
 3499.4957000 107.01399994 94.699203491
 3499.6481000 106.07499695 89.142196655
 3499.8005000 105.59599304 87.459396362
 3499.9529000 106.10700226 88.164802551
 3500.1053000 107.92600250 88.552597046
 3500.2577000 108.64700317 87.382202148
 3500.4101000 107.87599945 84.446098328
 3500.5625000 108.24400330 83.143798828
 3500.7149000 105.45800018 80.885002136
 3500.8673000 94.938003540 80.638900757
 3501.0197000 85.958000183 83.120796204
 3501.1721000 83.208000183 85.299896240
 3501.3245000 82.643997192 84.272201538
 3501.4769000 83.851997375 82.787803650
 3501.6293000 85.950996399 82.998596191
 3501.7817000 86.305000305 84.735702515
 3501.9341000 85.717002869 87.375396729
 3502.0865000 90.592002869 89.503196716
 3502.2389000 99.912002563 91.670097351
 3502.3913000 104.36199951 88.718696594
 3502.5437000 105.40100098 84.600898743
 3502.6961000 99.391998291 80.251800537
 3502.8485000 85.069999695 78.306198120
 3503.0009000 78.769004822 77.075698853
 3503.1533000 84.695999146 76.260597229
 3503.3057000 98.777000427 81.486701965
 3503.4581000 111.51998901 87.251296997
 3503.6105000 113.55599976 87.859100342
 3503.7629000 110.15900421 84.572998047
 3503.9153000 102.08999634 81.622299194
 3504.0677000 89.820991516 85.180198669
 3504.2201000 82.144996643 86.649803162
 3504.3725000 79.094001770 85.387702942
 3504.5249000 76.334999084 82.736000061
 3504.6773000 74.781997681 78.374198914
 3504.8298000 74.949996948 71.580299377
 3504.9822000 84.002998352 65.870903015
 3505.1346000 100.45400238 67.799400330
 3505.2870000 105.42299652 75.013900757
 3505.4394000 96.361999512 82.749702454
 3505.5918000 87.428001404 88.317100525
 3505.7442000 85.139999390 89.897399902
 3505.8966000 91.491996765 87.224899292
 3506.0490000 104.01099396 81.010101318
 3506.2014000 109.88400269 78.190002441
 3506.3538000 109.96700287 80.885299683
 3506.5062000 110.90399933 84.478302002
 3506.6586000 110.54499817 86.681701660
 3506.8110000 108.05699921 84.011703491
 3506.9634000 104.63800049 79.077796936
 3507.1158000 105.47699738 78.138900757
 3507.2682000 109.48200226 78.420501709
 3507.4206000 111.09500122 79.944396973
 3507.5730000 109.72000122 80.766197205
 3507.7254000 108.30699921 82.136802673
 3507.8778000 108.50299835 81.072898865
 3508.0302000 108.56700134 78.531402588
 3508.1826000 107.80300140 76.205497742
 3508.3350000 106.89299774 80.188697815
 3508.4874000 106.30899811 84.308898926
 3508.6398000 107.06198883 86.989799500
 3508.7922000 109.98700714 82.907203674
 3508.9446000 113.41100311 80.169403076
 3509.0970000 114.36699677 81.504798889
 3509.2494000 111.69499969 89.090698242
 3509.4018000 106.73100281 93.587997437
 3509.5542000 102.81999969 95.180999756
 3509.7066000 99.523002625 90.142799377
 3509.8590000 96.165000916 85.976898193
 3510.0114000 97.178009033 83.233497620
 3510.1638000 101.39099884 80.944602966
 3510.3162000 109.46600342 80.085700989
 3510.4686000 118.82701111 77.428298950
 3510.6210000 118.13200378 79.230903625
 3510.7734000 108.45899963 80.047500610
 3510.9258000 98.043998718 82.360801697
 3511.0782000 91.424003601 84.848701477
 3511.2306000 92.374000549 88.883697510
 3511.3830000 99.124000549 89.639099121
 3511.5354000 109.28399658 84.801597595
 3511.6878000 115.03398895 78.872901917
 3511.8402000 108.12400055 72.849296570
 3511.9926000 102.52499390 67.286796570
 3512.1450000 104.60900116 61.451698303
 3512.2974000 106.46800232 60.122501373
 3512.4498000 105.95200348 68.308799744
 3512.6022000 104.92400360 76.305702209
 3512.7546000 110.41999817 81.773597717
 3512.9070000 114.79499054 80.277801514
 3513.0594000 107.56400299 80.703903198
 3513.2119000 101.13300323 79.872596741
 3513.3643000 101.02899933 81.683601379
 3513.5167000 105.24299622 81.066703796
 3513.6691000 110.40499878 81.294502258
 3513.8215000 111.97599792 81.880500793
 3513.9739000 118.96800232 82.918098450
 3514.1263000 128.70399475 87.073196411
 3514.2787000 130.28799438 87.217300415
 3514.4311000 125.63300323 87.567100525
 3514.5835000 119.53600311 84.500000000
 3514.7359000 115.29199982 83.921600342
 3514.8883000 109.82599640 83.788101196
 3515.0407000 101.72599792 85.957000732
 3515.1931000 99.918998718 88.687896729
 3515.3455000 111.21398926 89.576698303
 3515.4979000 124.34500122 88.895896912
 3515.6503000 121.80300140 87.428497314
 3515.8027000 113.48300171 87.212699890
 3515.9551000 111.31900024 86.027099609
 3516.1075000 108.24600220 85.189201355
 3516.2599000 102.59799957 86.477699280
 3516.4123000 99.348991394 86.952903748
 3516.5647000 98.902000427 86.501197815
 3516.7171000 100.80500031 81.158302307
 3516.8695000 104.62000275 79.101097107
 3517.0219000 101.06700134 76.433502197
 3517.1743000 90.839996338 77.231796265
 3517.3267000 86.001998901 74.762496948
 3517.4791000 92.858001709 76.916397095
 3517.6315000 106.54399872 79.659500122
 3517.7839000 111.46299744 82.863998413
 3517.9363000 105.84200287 82.829002380
 3518.0887000 96.825996399 81.339202881
 3518.2411000 88.044998169 82.100402832
 3518.3935000 87.285003662 82.246101379
 3518.5459000 95.800003052 81.049102783
 3518.6983000 105.12998962 80.535400391
 3518.8507000 109.38300323 81.787200928
 3519.0031000 108.16100311 83.331298828
 3519.1555000 100.72799683 83.829597473
 3519.3079000 91.486999512 81.746101379
 3519.4603000 87.828002930 83.722999573
 3519.6127000 86.896003723 85.699798584
 3519.7651000 85.509002686 88.793403625
 3519.9175000 88.816001892 89.808998108
 3520.0699000 91.300994873 92.037300110
 3520.2223000 85.136001587 92.694396973
 3520.3747000 83.049011230 90.792396545
 3520.5271000 93.069000244 88.776100159
 3520.6795000 103.85099792 88.759803772
 3520.8319000 106.01100159 89.453903198
 3520.9843000 103.17299652 86.386100769
 3521.1367000 101.67600250 77.872299194
 3521.2891000 102.42099762 65.005599976
 3521.4416000 103.05400085 57.403198242
 3521.5940000 102.61499786 57.658298492
 3521.7464000 102.91999817 69.752403259
 3521.8988000 103.74300385 80.687400818
 3522.0512000 103.73600006 86.202598572
 3522.2036000 103.72899628 85.172798157
 3522.3560000 104.61299896 82.157897949
 3522.5084000 105.18099976 82.656402588
 3522.6608000 106.31300354 85.163398743
 3522.8132000 106.76399994 85.906303406
 3522.9656000 102.01000214 86.294799805
 3523.1180000 98.913002014 84.435897827
 3523.2704000 102.92399597 84.253402710
 3523.4228000 106.24900055 83.223098755
 3523.5752000 106.90299988 84.248397827
 3523.7276000 108.84700012 85.652198792
 3523.8800000 110.82099915 86.030097961
 3524.0324000 109.85399628 85.391403198
