# LAS format log file from PETREL
# Project units are specified as depth units
#==================================================================
~Version information
VERS.   2.0:
WRAP.   NO:
#==================================================================
~Well
STRT.m   1482.0000                                 :START DEPTH    
STOP.m   3862.0597                                 :STOP DEPTH     
STEP.    0.1524                                    :STEP           
NULL.    -999.25                                   :NULL VALUE     
COMP.    New Zealnd Overseas Petroleum             :COMPANY        
WELL.    Pateke-2                                  :WELL           
FLD .                                              :FIELD          
LOC .    LAT -39.3797121  LON 173.1938696          :LOCATION       
LATI.    -39.3797121                               :SURF. LATITUDE 
LONG.    173.1938696                               :SURF. LONGITUDE
EKB .m   25.000                                    :KB ELEVATION   
EGL .m   -124.000                                  :GROUND LEVEL   
CTRY.                                              :COUNTRY        
SRVC.                                              :SERVICE COMPANY
DATE.    --                                        :LOG DATE       
UWI .                                              :UNIQUE WELL ID 
#==================================================================
~Curve
DEPT .m                   : DEPTH
BHC .us/ft                : BHC
GRI .gAPI                 : GRI
~Parameter
#==================================================================
~Ascii
# ...
 2884.0970000 113.02600861 74.938796997
 2884.2494000 116.33999634 75.950897217
 2884.4018000 121.58499908 76.074203491
 2884.5542000 120.92400360 76.197502136
 2884.7066000 111.73400116 75.891700745
 2884.8590000 109.91101074 76.371902466
 2885.0114000 116.03299713 77.058502197
 2885.1638000 118.39599609 78.008903503
 2885.3162000 118.94998932 79.081298828
 2885.4686000 119.01599884 80.287498474
 2885.6210000 114.98899841 80.363197327
 2885.7734000 110.44200134 76.411598206
 2885.9258000 110.06099701 75.773696899
 2886.0782000 111.46701050 77.790702820
 2886.2306000 112.16400146 84.338401794
 2886.3830000 113.71099091 86.486198425
 2886.5354000 114.11499786 85.494796753
 2886.6878000 109.83899689 81.472297668
 2886.8402000 106.54600525 77.758903503
 2886.9927000 112.14599609 75.656501770
 2887.1451000 123.72499847 79.616302490
 2887.2975000 126.63301086 83.950897217
 2887.4499000 117.17400360 88.009696960
 2887.6023000 110.09400177 88.014396667
 2887.7547000 109.72798920 88.520797729
 2887.9071000 111.67900085 90.470100403
 2888.0595000 114.25399780 97.156303406
 2888.2119000 114.80599976 103.18599701
 2888.3643000 113.78099060 107.65100098
 2888.5167000 113.45400238 106.75689697
 2888.6691000 115.01999664 101.54429626
 2888.8215000 118.05599976 98.457801819
 2888.9739000 121.65899658 96.628501892
 2889.1263000 123.02301025 94.060096741
 2889.2787000 120.84100342 86.145202637
 2889.4311000 119.02500153 78.385101318
 2889.5835000 118.19999695 75.899398804
 2889.7359000 116.10399628 74.853202820
 2889.8883000 113.35099792 73.311798096
 2890.0407000 110.64800262 73.601402283
 2890.1931000 109.78599548 80.059600830
 2890.3455000 112.35099792 88.067596436
 2890.4979000 115.87000275 94.665199280
 2890.6503000 117.77400208 95.381599426
 2890.8027000 116.90899658 90.955703735
 2890.9551000 113.28399658 82.377296448
 2891.1075000 108.66300201 78.076896667
 2891.2599000 104.41400146 78.677803040
 2891.4123000 102.47399902 81.210403442
 2891.5647000 103.51899719 82.124702454
 2891.7171000 104.27799988 83.248100281
 2891.8695000 104.02200317 85.471099854
 2892.0219000 104.48100281 84.943099976
 2892.1743000 104.95499420 79.221603394
 2892.3267000 104.27700043 75.708099365
 2892.4791000 103.49400330 79.655403137
 2892.6315000 104.56099701 90.415702820
 2892.7839000 106.39299774 97.591400146
 2892.9363000 107.47599792 101.18849945
 2893.0887000 108.65299988 102.13929749
 2893.2411000 109.67400360 106.24469757
 2893.3935000 113.23599243 108.11699677
 2893.5459000 118.31900024 106.12599945
 2893.6983000 116.64800262 105.45050049
 2893.8507000 111.76799774 104.54679871
 2894.0031000 110.41799927 107.24600220
 2894.1555000 109.91600037 107.78450012
 2894.3079000 109.50901031 107.32260132
 2894.4603000 109.97699738 105.58029938
 2894.6127000 110.66699982 105.21019745
 2894.7651000 110.29199982 106.64550018
 2894.9175000 108.15999603 106.06410217
 2895.0699000 109.30300140 105.37979889
 2895.2224000 114.29299927 102.67250061
 2895.3748000 118.28299713 103.89720154
 2895.5272000 120.60099792 104.74490356
 2895.6796000 119.09300232 107.99019623
 2895.8320000 115.63600159 107.13179779
 2895.9844000 115.94300079 104.74530029
 2896.1368000 116.48300171 101.75579834
 2896.2892000 113.94699097 105.13839722
 2896.4416000 113.49900055 103.88939667
 2896.5940000 114.83100128 106.15129852
 2896.7464000 113.41000366 104.01260376
 2896.8988000 111.41600037 105.32749939
 2897.0512000 110.44499969 100.28150177
 2897.2036000 108.95800018 94.034400940
 2897.3560000 108.37799835 86.619903564
 2897.5084000 108.65399933 85.476997375
 2897.6608000 109.09799957 90.567398071
 2897.8132000 112.13700104 98.503601074
 2897.9656000 115.06099701 101.03749847
 2898.1180000 114.87100220 103.24459839
 2898.2704000 113.22299957 102.62000275
 2898.4228000 110.42399597 105.32730103
 2898.5752000 109.51599884 103.92109680
 2898.7276000 108.64398956 100.44259644
 2898.8800000 104.69699860 95.389297485
 2899.0324000 103.36000061 91.089797974
 2899.1848000 104.04299164 89.780502319
 2899.3372000 103.43100739 87.571998596
 2899.4896000 102.46099091 82.994499207
 2899.6420000 105.96199799 79.699600220
 2899.7944000 115.30000305 78.583000183
 2899.9468000 120.73400116 81.089599609
 2900.0992000 119.93399811 84.130500793
 2900.2516000 118.57299805 83.156898499
 2900.4040000 118.09200287 79.799301147
 2900.5564000 117.42199707 78.438102722
 2900.7088000 116.41300201 78.424003601
 2900.8612000 116.58599854 81.164703369
 2901.0136000 116.88100433 77.658203125
 2901.1660000 114.89299774 76.119102478
 2901.3184000 112.85800171 74.693199158
 2901.4708000 114.08999634 75.581199646
 2901.6232000 117.22499084 78.130096436
 2901.7756000 116.52899933 79.421401978
 2901.9280000 112.11000061 80.631698608
 2902.0804000 109.47000122 81.939002991
 2902.2328000 107.68499756 82.270797729
 2902.3852000 94.330001831 84.941398621
 2902.5376000 84.176002502 82.871597290
 2902.6900000 99.821998596 84.572097778
 2902.8424000 112.73200226 85.162200928
 2902.9948000 111.45999908 89.114501953
 2903.1472000 110.80799866 86.611000061
 2903.2996000 110.27400208 89.492996216
 2903.4521000 110.18699646 90.786598206
 2903.6045000 112.02600098 94.994102478
 2903.7569000 115.66899109 92.774696350
 2903.9093000 117.37100220 88.834800720
 2904.0617000 114.12799835 83.794403076
 2904.2141000 108.86499786 80.584999084
 2904.3665000 106.35399628 78.199501038
 2904.5189000 106.71700287 80.463996887
 2904.6713000 107.98600006 83.822898865
 2904.8237000 109.43599701 93.195297241
 2904.9761000 110.55599976 98.106796265
 2905.1285000 111.27799225 99.288696289
 2905.2809000 108.78299713 95.527198792
 2905.4333000 103.88999939 88.455299377
 2905.5857000 103.63099670 85.526802063
 2905.7381000 105.32500458 81.333503723
 2905.8905000 104.56800079 83.123001099
 2906.0429000 104.98200226 83.404296875
 2906.1953000 107.48500061 87.486503601
 2906.3477000 110.84700012 90.205200195
 2906.5001000 113.98200226 92.696197510
 2906.6525000 116.00700378 92.467697144
 2906.8049000 115.33999634 92.325103760
 2906.9573000 111.50900269 93.540603638
 2907.1097000 108.31400299 92.496101379
 2907.2621000 106.93599701 89.882301331
 2907.4145000 107.22798920 90.573600769
 2907.5669000 106.80100250 95.941802979
 2907.7193000 104.18099976 101.78330231
 2907.8717000 103.25499725 103.18949890
 2908.0241000 102.65799713 104.23439789
 2908.1765000 102.72100067 104.97399902
 2908.3289000 105.49800110 101.55149841
 2908.4813000 109.06500244 96.360397339
 2908.6337000 113.02900696 91.922897339
 2908.7861000 112.66699982 94.453796387
 2908.9385000 107.18299866 92.306800842
 2909.0909000 105.29300690 93.285003662
 2909.2433000 108.39399719 91.284301758
 2909.3957000 110.68599701 95.373901367
 2909.5481000 110.05699158 97.970100403
 2909.7005000 108.48799896 99.839897156
 2909.8529000 107.21499634 100.11830139
 2910.0053000 107.19300079 98.506202698
 2910.1577000 108.63300323 95.260803223
 2910.3101000 108.45600128 93.145896912
 2910.4625000 105.86700439 91.282699585
 2910.6149000 103.18499756 95.861099243
 2910.7673000 102.84100342 97.570098877
 2910.9197000 104.63099670 101.13420105
 2911.0721000 105.58499908 100.78929901
 2911.2245000 105.14800262 103.66380310
 2911.3769000 103.95700073 102.49279785
 2911.5293000 103.19999695 103.09190369
 2911.6818000 104.10600281 101.88860321
 2911.8342000 105.17600250 101.87619781
 2911.9866000 106.31999969 98.534202576
 2912.1390000 107.35700226 96.496398926
 2912.2914000 106.31600189 92.393798828
 2912.4438000 105.30200195 91.357398987
 2912.5962000 106.99600220 94.105102539
 2912.7486000 109.31999969 100.75599670
 2912.9010000 110.57800293 105.90000153
 2913.0534000 111.16899872 103.40290070
 2913.2058000 111.11499786 102.03279877
 2913.3582000 110.67198944 100.66269684
 2913.5106000 109.77500153 96.689002991
 2913.6630000 107.84400177 89.973197937
 2913.8154000 106.11000061 87.110900879
 2913.9678000 106.75900269 88.893898010
 2914.1202000 107.88500214 90.333099365
 2914.2726000 107.46600342 90.544197083
 2914.4250000 108.40199280 92.096702576
