# LAS format log file from PETREL
# Project units are specified as depth units
#==================================================================
~Version information
VERS.   2.0:
WRAP.   NO:
#==================================================================
~Well
STRT.m   1482.0000                                 :START DEPTH    
STOP.m   3862.0597                                 :STOP DEPTH     
STEP.    0.1524                                    :STEP           
NULL.    -999.25                                   :NULL VALUE     
COMP.    New Zealnd Overseas Petroleum             :COMPANY        
WELL.    Pateke-2                                  :WELL           
FLD .                                              :FIELD          
LOC .    LAT -39.3797121  LON 173.1938696          :LOCATION       
LATI.    -39.3797121                               :SURF. LATITUDE 
LONG.    173.1938696                               :SURF. LONGITUDE
EKB .m   25.000                                    :KB ELEVATION   
EGL .m   -124.000                                  :GROUND LEVEL   
CTRY.                                              :COUNTRY        
SRVC.                                              :SERVICE COMPANY
DATE.    --                                        :LOG DATE       
UWI .                                              :UNIQUE WELL ID 
#==================================================================
~Curve
DEPT .m                   : DEPTH
BHC .us/ft                : BHC
GRI .gAPI                 : GRI
~Parameter
#==================================================================
~Ascii
# ...
 3798.5081000 77.987998962 73.348899841
 3798.6605000 82.314002991 72.520797729
 3798.8129000 87.486000061 74.781501770
 3798.9653000 96.023002625 77.808799744
 3799.1177000 105.15499878 83.623199463
 3799.2701000 107.91899872 88.600196838
 3799.4225000 108.79199982 89.918998718
 3799.5749000 109.93800354 89.556396484
 3799.7273000 106.97599792 94.314300537
 3799.8797000 100.94100189 103.51959991
 3800.0321000 98.964996338 107.52619934
 3800.1845000 102.57701111 103.91110229
 3800.3369000 106.13099670 95.625396729
 3800.4893000 108.77199554 87.503402710
 3800.6417000 113.27999878 79.249099731
 3800.7941000 117.61599731 74.537597656
 3800.9465000 118.33499146 72.077697754
 3801.0989000 119.67199707 73.239097595
 3801.2513000 122.77400208 75.010597229
 3801.4037000 121.02799988 79.940803528
 3801.5562000 114.35900116 83.602600098
 3801.7086000 111.30998993 85.830802917
 3801.8610000 115.22300720 85.485397339
 3802.0134000 118.55300140 85.202697754
 3802.1658000 118.00399780 92.758399963
 3802.3182000 116.91899109 102.60790253
 3802.4706000 116.10099792 112.96379852
 3802.6230000 115.03500366 105.89119720
 3802.7754000 115.81300354 99.497802734
 3802.9278000 118.18199921 94.058097839
 3803.0802000 120.52500153 102.12290192
 3803.2326000 124.90200043 109.88059998
 3803.3850000 115.54399872 113.97779846
 3803.5374000 89.355003357 110.70200348
 3803.6898000 75.953002930 104.72470093
 3803.8422000 77.353004456 99.083702087
 3803.9946000 80.164001465 101.45929718
 3804.1470000 81.252998352 106.47200012
 3804.2994000 80.811996460 111.35630035
 3804.4518000 84.738998413 112.16400146
 3804.6042000 91.425003052 109.59980011
 3804.7566000 94.155998230 116.51730347
 3804.9090000 95.366996765 124.82070160
 3805.0614000 97.594001770 133.75700378
 3805.2138000 93.516998291 132.12570190
 3805.3662000 91.602996826 123.36990356
 3805.5186000 100.45700073 115.15859985
 3805.6710000 105.40799713 111.09089661
 3805.8234000 107.25700378 111.07440186
 3805.9758000 114.46700287 114.51820374
 3806.1282000 118.82599640 113.05599976
 3806.2806000 118.60900116 111.89559937
 3806.4330000 116.54199982 111.48139954
 3806.5854000 112.82599640 114.91660309
 3806.7378000 110.97199249 121.08499908
 3806.8902000 115.31999969 123.04669952
 3807.0426000 118.87099457 132.85079956
 3807.1950000 113.39199829 136.61979675
 3807.3474000 109.34799957 132.34339905
 3807.4998000 110.19200134 113.55280304
 3807.6522000 109.75000000 96.610900879
 3807.8046000 106.52300262 87.714401245
 3807.9570000 100.39600372 86.571197510
 3808.1094000 97.727996826 89.518203735
 3808.2618000 105.07900238 92.676002502
 3808.4142000 119.42198944 96.213302612
 3808.5666000 126.83100128 98.234802246
 3808.7190000 118.76799774 98.554000854
 3808.8714000 108.55300140 97.863700867
 3809.0238000 109.82199860 94.763801575
 3809.1762000 113.99099731 90.234100342
 3809.3286000 110.88700104 86.288696289
 3809.4810000 106.21199799 86.497596741
 3809.6334000 100.83798981 88.754798889
 3809.7859000 94.930999756 89.109802246
 3809.9383000 95.735992432 84.862701416
 3810.0907000 99.529998779 85.014602661
 3810.2431000 104.23000336 88.604400635
 3810.3955000 111.91100311 103.39520264
 3810.5479000 118.16599274 119.98880005
 3810.7003000 122.10299683 144.50230408
 3810.8527000 119.59200287 161.78529358
 3811.0051000 110.03199768 173.73930359
 3811.1575000 105.16899872 146.14140320
 3811.3099000 106.14800262 120.02570343
 3811.4623000 106.84700012 90.312301636
 3811.6147000 105.87699890 94.752998352
 3811.7671000 103.14299774 95.858398438
 3811.9195000 100.21600342 98.629699707
 3812.0719000 98.198997498 97.323501587
 3812.2243000 99.821998596 95.143096924
 3812.3767000 104.11499786 91.403800964
 3812.5291000 104.74600220 90.215896606
 3812.6815000 103.72000122 93.719299316
 3812.8339000 104.35800171 99.304901123
 3812.9863000 103.52500153 100.97370148
 3813.1387000 101.32800293 99.719001770
 3813.2911000 98.589996338 100.19370270
 3813.4435000 95.086006165 99.124397278
 3813.5959000 94.843002319 102.80500031
 3813.7483000 97.260002136 106.05020142
 3813.9007000 102.88200378 108.36509705
 3814.0531000 115.97798920 107.28710175
 3814.2055000 126.41500092 103.54840088
 3814.3579000 126.38999939 111.48770142
 3814.5103000 112.96900177 123.90429688
 3814.6627000 90.797996521 142.55279541
 3814.8151000 86.603996277 155.18820190
 3814.9675000 99.775001526 164.20930481
 3815.1199000 106.76599884 156.54570007
 3815.2723000 107.20500183 140.96080017
 3815.4247000 112.45099640 129.26260376
 3815.5771000 121.76599884 130.79170227
 3815.7295000 112.86699677 129.44850159
 3815.8819000 88.889999390 116.59549713
 3816.0343000 78.111999512 103.43049622
 3816.1867000 77.485000610 97.851402283
 3816.3391000 75.901992798 95.296798706
 3816.4915000 82.265998840 91.867698669
 3816.6439000 93.773002625 87.838600159
 3816.7963000 92.792991638 92.604896545
 3816.9487000 82.418998718 101.50180054
 3817.1011000 77.494003296 122.57299805
 3817.2535000 88.058006287 130.64360046
 3817.4059000 95.925010681 129.13600159
 3817.5583000 83.324996948 104.34660339
 3817.7107000 74.522003174 84.562797546
 3817.8631000 77.180000305 72.440399170
 3818.0156000 80.008003235 72.704597473
 3818.1680000 81.869010925 73.599601746
 3818.3204000 82.351997375 74.483901978
 3818.4728000 81.217002869 77.176200867
 3818.6252000 78.678001404 75.489799500
 3818.7776000 76.615989685 75.050903320
 3818.9300000 76.524002075 74.605499268
 3819.0824000 78.564002991 81.455101013
 3819.2348000 80.876998901 88.485603333
 3819.3872000 87.717010498 91.244697571
 3819.5396000 96.416000366 92.046897888
 3819.6920000 98.811996460 90.403999329
 3819.8444000 101.92099762 91.506698608
 3819.9968000 105.33399963 88.983398438
 3820.1492000 105.27500153 87.411300659
 3820.3016000 105.03299713 84.205299377
 3820.4540000 103.22999573 89.360298157
 3820.6064000 100.63300323 93.329200745
 3820.7588000 100.68800354 98.426597595
 3820.9112000 102.66000366 99.346801758
 3821.0636000 103.32700348 99.919898987
 3821.2160000 101.17400360 98.891899109
 3821.3684000 98.974998474 94.216300964
 3821.5208000 99.954002380 91.721496582
 3821.6732000 102.74199677 91.706703186
 3821.8256000 104.61599731 94.781898499
 3821.9780000 106.11199951 95.664299011
 3822.1304000 110.02700043 94.503799438
 3822.2828000 110.12200165 92.376800537
 3822.4352000 100.93100739 92.729598999
 3822.5876000 90.597000122 91.808403015
 3822.7400000 89.679000854 92.399497986
 3822.8924000 98.586997986 91.200996399
 3823.0448000 106.15499878 96.545700073
 3823.1972000 108.22000122 95.956901550
 3823.3496000 108.78299713 94.638702393
 3823.5020000 105.24299622 88.440299988
 3823.6544000 97.237998962 87.029602051
 3823.8068000 91.572006226 89.547599792
 3823.9592000 89.573997498 93.240699768
 3824.1116000 94.531997681 96.270698547
 3824.2640000 104.11900330 96.629402161
 3824.4164000 104.93000031 95.662597656
 3824.5688000 98.817001343 92.111396790
 3824.7212000 96.793998718 93.015998840
 3824.8736000 100.51899719 92.099296570
 3825.0260000 102.76899719 94.865402222
 3825.1784000 101.44899750 94.774902344
 3825.3308000 104.15499878 93.904296875
 3825.4832000 108.37200165 93.201797485
 3825.6356000 106.07599640 91.025703430
 3825.7880000 102.84899902 92.132400513
 3825.9404000 103.02100372 91.396499634
 3826.0928000 103.61699677 90.443603516
 3826.2453000 104.12000275 94.850196838
 3826.3977000 105.11699677 100.20179749
 3826.5501000 105.76100159 104.41049957
 3826.7025000 105.09600067 102.37650299
 3826.8549000 104.61000061 98.889602661
 3827.0073000 104.88799286 96.480796814
 3827.1597000 104.64700317 92.106101990
 3827.3121000 102.64701080 94.224700928
 3827.4645000 101.65699768 92.357200623
 3827.6169000 104.92400360 95.250297546
 3827.7693000 107.31499481 91.587799072
 3827.9217000 105.18000031 93.758499146
 3828.0741000 101.98899078 93.513298035
 3828.2265000 100.45301056 96.741897583
 3828.3789000 100.81199646 99.480201721
 3828.5313000 100.91999817 102.00509644
 3828.6837000 98.904998779 100.46759796
 3828.8361000 96.454002380 98.979301453
