# LAS format log file from PETREL
# Project units are specified as depth units
#==================================================================
~Version information
VERS.   2.0:
WRAP.   NO:
#==================================================================
~Well
STRT.m   1482.0000                                 :START DEPTH    
STOP.m   3862.0597                                 :STOP DEPTH     
STEP.    0.1524                                    :STEP           
NULL.    -999.25                                   :NULL VALUE     
COMP.    New Zealnd Overseas Petroleum             :COMPANY        
WELL.    Pateke-2                                  :WELL           
FLD .                                              :FIELD          
LOC .    LAT -39.3797121  LON 173.1938696          :LOCATION       
LATI.    -39.3797121                               :SURF. LATITUDE 
LONG.    173.1938696                               :SURF. LONGITUDE
EKB .m   25.000                                    :KB ELEVATION   
EGL .m   -124.000                                  :GROUND LEVEL   
CTRY.                                              :COUNTRY        
SRVC.                                              :SERVICE COMPANY
DATE.    --                                        :LOG DATE       
UWI .                                              :UNIQUE WELL ID 
#==================================================================
~Curve
DEPT .m                   : DEPTH
BHC .us/ft                : BHC
GRI .gAPI                 : GRI
~Parameter
#==================================================================
~Ascii
# ...
 2731.6952000 112.29499054 104.98010254
 2731.8476000 112.50199890 100.97599792
 2732.0000000 112.73600006 105.37449646
 2732.1524000 119.34500122 109.59529877
 2732.3048000 130.34800720 111.07959747
 2732.4572000 134.39599609 106.98860168
 2732.6096000 133.34899902 102.12200165
 2732.7620000 132.10899353 101.14739990
 2732.9144000 127.09200287 102.12419891
 2733.0668000 117.33799744 102.74050140
 2733.2192000 111.44799805 102.86289978
 2733.3716000 114.49400330 103.90830231
 2733.5240000 118.67199707 107.31310272
 2733.6764000 122.43399811 110.03009796
 2733.8288000 130.78799438 112.00270081
 2733.9812000 130.64399719 110.95659637
 2734.1336000 115.73899078 110.07749939
 2734.2860000 107.96800232 109.74109650
 2734.4384000 110.34400177 110.42449951
 2734.5908000 109.94400024 108.46029663
 2734.7432000 107.23699951 105.09919739
 2734.8956000 104.42900085 105.19670105
 2735.0480000 102.16100311 103.25479889
 2735.2004000 105.05200195 105.81060028
 2735.3528000 112.21299744 104.69660187
 2735.5052000 115.10500336 108.12879944
 2735.6576000 114.33499908 108.73789978
 2735.8100000 113.46899414 109.34539795
 2735.9624000 111.10900116 107.11360168
 2736.1148000 108.56999969 103.44969940
 2736.2672000 108.82800293 102.32520294
 2736.4196000 111.68099976 105.99710083
 2736.5720000 113.88500214 112.64389801
 2736.7244000 114.19799805 116.96410370
 2736.8768000 112.44899750 119.13390350
 2737.0292000 109.52600098 117.37989807
 2737.1816000 108.37000275 113.94809723
 2737.3340000 109.54400635 107.80039978
 2737.4864000 115.10399628 104.46649933
 2737.6388000 122.30999756 102.44370270
 2737.7912000 121.97299957 105.09790039
 2737.9436000 116.24400330 107.14939880
 2738.0960000 113.26300049 107.92549896
 2738.2484000 112.59400177 104.76699829
 2738.4008000 111.20600128 102.13520050
 2738.5533000 108.71099091 101.14530182
 2738.7057000 109.78700256 102.28810120
 2738.8581000 113.65100098 101.35790253
 2739.0105000 112.58699799 100.42769623
 2739.1629000 110.28099823 100.02210236
 2739.3153000 110.75800323 101.07550049
 2739.4677000 111.80699921 102.12889862
 2739.6201000 110.85900116 102.69219971
 2739.7725000 107.95099640 104.97859955
 2739.9249000 108.60500336 107.17469788
 2740.0773000 112.12999725 109.43520355
 2740.2297000 113.96199799 110.16960144
 2740.3821000 113.63099670 110.78919983
 2740.5345000 111.46800232 111.34449768
 2740.6869000 109.06199646 110.29519653
 2740.8393000 107.37799835 109.94789886
 2740.9917000 106.31600189 109.58789825
 2741.1441000 108.29000092 108.03730011
 2741.2965000 112.42900085 105.98979950
 2741.4489000 115.28399658 100.17610168
 2741.6013000 115.94899750 94.207702637
 2741.7537000 112.62300110 90.427101135
 2741.9061000 107.42900085 93.307601929
 2742.0585000 104.30400085 102.36309814
 2742.2109000 105.32700348 109.23100281
 2742.3633000 107.65900421 113.53749847
 2742.5157000 107.04799652 113.85810089
 2742.6681000 108.18901062 112.19419861
 2742.8205000 112.56600189 108.46219635
 2742.9729000 117.11000061 104.73020172
 2743.1253000 121.50700378 100.86959839
 2743.2777000 123.78099060 97.435401917
 2743.4301000 122.81600952 93.596603394
 2743.5825000 122.71600342 94.349403381
 2743.7349000 125.52100372 99.559700012
 2743.8873000 128.31300354 104.81729889
 2744.0397000 130.42199707 105.28140259
 2744.1921000 130.94400024 100.80079651
 2744.3445000 131.48500061 100.73539734
 2744.4969000 137.24600220 101.91790009
 2744.6493000 139.25300598 104.35639954
 2744.8017000 113.81900024 103.21340179
 2744.9541000 92.648002625 104.09940338
 2745.1065000 113.60199738 103.64160156
 2745.2589000 132.09800720 99.142700195
 2745.4113000 129.98399353 91.220703125
 2745.5637000 127.40100098 85.955902100
 2745.7161000 124.21500397 85.174400330
 2745.8685000 120.74500275 86.763999939
 2746.0209000 120.79799652 88.118598938
 2746.1733000 127.26599884 86.510597229
 2746.3257000 134.63900757 85.086898804
 2746.4781000 136.82299805 82.068199158
 2746.6305000 118.33599854 81.093399048
 2746.7830000 81.806999207 75.905197144
 2746.9354000 63.578994751 71.894401550
 2747.0878000 79.670997620 67.570503235
 2747.2402000 111.76799774 65.288902283
 2747.3926000 129.26300049 60.998500824
 2747.5450000 131.50199890 56.925300598
 2747.6974000 135.78100586 54.929100037
 2747.8498000 135.81500244 55.859001160
 2748.0022000 119.60299683 55.825000763
 2748.1546000 93.839996338 54.853500366
 2748.3070000 75.952003479 53.208000183
 2748.4594000 69.876998901 52.104000092
 2748.6118000 68.592002869 51.937599182
 2748.7642000 70.555000305 52.441101074
 2748.9166000 73.111000061 53.128299713
 2749.0690000 73.876998901 53.815601349
 2749.2214000 80.477996826 53.090000153
 2749.3738000 94.696998596 52.359600067
 2749.5262000 106.09799957 51.007701874
 2749.6786000 112.88800049 50.567199707
 2749.8310000 118.03399658 50.471199036
 2749.9834000 123.57199860 49.700698853
 2750.1358000 134.82299805 48.673801422
 2750.2882000 144.39199829 47.294998169
 2750.4406000 133.38900757 49.226699829
 2750.5930000 110.12000275 50.994400024
 2750.7454000 102.07199860 54.272899628
 2750.8978000 105.78700256 54.701900482
 2751.0502000 109.00599670 53.579299927
 2751.2026000 112.51599884 51.125701904
 2751.3550000 116.44200134 48.773899078
 2751.5074000 120.35399628 48.541698456
 2751.6598000 122.87999725 48.546600342
 2751.8122000 122.95200348 49.284900665
 2751.9646000 120.30100250 49.163398743
 2752.1170000 108.69999695 48.373798370
 2752.2694000 87.723999023 48.669399261
 2752.4218000 68.820999146 48.732898712
 2752.5742000 74.804000854 50.120800018
 2752.7266000 105.12799835 50.277999878
 2752.8790000 121.49900055 51.788600922
 2753.0314000 120.80599213 52.872699738
 2753.1838000 120.87699890 53.745300293
 2753.3362000 122.83399963 54.375999451
 2753.4886000 126.56301117 60.261398315
 2753.6410000 129.46699524 62.565498352
 2753.7934000 130.80700684 62.154800415
 2753.9458000 130.56900024 54.643600464
 2754.0982000 128.51699829 50.827201843
 2754.2506000 126.46499634 53.096900940
 2754.4030000 123.79299927 63.903198242
 2754.5554000 120.01000214 67.660797119
 2754.7078000 119.01499939 68.285499573
 2754.8602000 121.03099823 59.324401855
 2755.0126000 122.57299805 57.655300140
 2755.1651000 127.18000031 53.448501587
 2755.3175000 133.53799438 52.471599579
 2755.4699000 130.63499451 52.018600464
 2755.6223000 121.92800140 52.491798401
 2755.7747000 118.30299377 53.368801117
 2755.9271000 121.08899689 52.498600006
 2756.0795000 123.19000244 52.155399323
 2756.2319000 120.39399719 52.494701385
 2756.3843000 117.48899841 54.418201447
 2756.5367000 117.30699921 59.959999084
 2756.6891000 118.83000946 70.850601196
 2756.8415000 120.06400299 84.387298584
 2756.9939000 121.80100250 92.723999023
 2757.1463000 125.48699951 93.578399658
 2757.2987000 128.68800354 92.195701599
 2757.4511000 130.51199341 92.816497803
 2757.6035000 132.38299561 91.810401917
 2757.7559000 129.70700073 90.212501526
 2757.9083000 120.66200256 86.223098755
 2758.0607000 113.44000244 81.128997803
 2758.2131000 111.24500275 80.033401489
 2758.3655000 111.87100220 80.388900757
 2758.5179000 113.60600281 81.274398804
 2758.6703000 115.79599762 80.401496887
 2758.8227000 118.22000122 75.839599609
 2758.9751000 120.31400299 71.619598389
 2759.1275000 122.51699829 64.981697083
 2759.2799000 124.30500031 64.625999451
 2759.4323000 124.87400055 66.619598389
 2759.5847000 124.79499054 69.562698364
 2759.7371000 124.66200256 70.589599609
 2759.8895000 123.08799744 70.334098816
 2760.0419000 120.73999786 66.223396301
 2760.1943000 121.06400299 58.666999817
 2760.3467000 121.42400360 50.980598450
 2760.4991000 111.26799774 45.944301605
 2760.6515000 86.063003540 45.641300201
 2760.8039000 63.426998138 49.363800049
 2760.9563000 60.980998993 52.850498199
 2761.1087000 71.621002197 53.350399017
 2761.2611000 82.441001892 50.802700043
 2761.4135000 90.537002563 48.746398926
 2761.5659000 98.634002686 50.257499695
 2761.7183000 104.89199829 52.707298279
 2761.8707000 106.72799683 54.858100891
 2762.0231000 107.89299774 55.860801697
