# LAS format log file from PETREL
# Project units are specified as depth units
#==================================================================
~Version information
VERS.   2.0:
WRAP.   NO:
#==================================================================
~Well
STRT.m   1482.0000                                 :START DEPTH    
STOP.m   3862.0597                                 :STOP DEPTH     
STEP.    0.1524                                    :STEP           
NULL.    -999.25                                   :NULL VALUE     
COMP.    New Zealnd Overseas Petroleum             :COMPANY        
WELL.    Pateke-2                                  :WELL           
FLD .                                              :FIELD          
LOC .    LAT -39.3797121  LON 173.1938696          :LOCATION       
LATI.    -39.3797121                               :SURF. LATITUDE 
LONG.    173.1938696                               :SURF. LONGITUDE
EKB .m   25.000                                    :KB ELEVATION   
EGL .m   -124.000                                  :GROUND LEVEL   
CTRY.                                              :COUNTRY        
SRVC.                                              :SERVICE COMPANY
DATE.    --                                        :LOG DATE       
UWI .                                              :UNIQUE WELL ID 
#==================================================================
~Curve
DEPT .m                   : DEPTH
BHC .us/ft                : BHC
GRI .gAPI                 : GRI
~Parameter
#==================================================================
~Ascii
# ...
 1939.2055000 81.088996887 99.168998718
 1939.3580000 78.276000977 100.80139923
 1939.5104000 77.661003113 103.27510071
 1939.6628000 77.045997620 103.50160217
 1939.8152000 75.744003296 103.38659668
 1939.9676000 75.159004211 102.37259674
 1940.1200000 75.874000549 102.41580200
 1940.2724000 77.127998352 103.01619720
 1940.4248000 78.273002625 102.48410034
 1940.5772000 79.155998230 102.36180115
 1940.7296000 79.767997742 101.81169891
 1940.8820000 79.654991150 101.96990204
 1941.0344000 78.159996033 101.73259735
 1941.1868000 76.772994995 101.52770233
 1941.3392000 77.124000549 100.96320343
 1941.4916000 78.963996887 99.442199707
 1941.6440000 80.462997437 98.334800720
 1941.7964000 79.820991516 98.068702698
 1941.9488000 76.130996704 99.535697937
 1942.1012000 72.677001953 100.87689972
 1942.2536000 74.777008057 102.90840149
 1942.4060000 83.429000854 104.26750183
 1942.5584000 90.147010803 103.51239777
 1942.7108000 85.370002747 101.85489655
 1942.8632000 77.664001465 98.568496704
 1943.0156000 74.777008057 96.022796631
 1943.1680000 73.662002563 95.062797546
 1943.3204000 74.601997375 98.525398254
 1943.4728000 75.828994751 103.50890350
 1943.6252000 75.097999573 107.01450348
 1943.7776000 74.071998596 108.79440308
 1943.9300000 73.500999451 109.97730255
 1944.0824000 73.341003418 109.26540375
 1944.2348000 74.420997620 107.47840118
 1944.3872000 76.746002197 104.92189789
 1944.5396000 80.053993225 104.15249634
 1944.6920000 84.209007263 101.32990265
 1944.8444000 85.569999695 99.276901245
 1944.9968000 81.271003723 98.712303162
 1945.1492000 78.430000305 99.632797241
 1945.3016000 83.460998535 101.04229736
 1945.4540000 88.097000122 100.96320343
 1945.6064000 86.392997742 102.52369690
 1945.7588000 85.885002136 103.33630371
 1945.9112000 88.722999573 102.35469818
 1946.0636000 90.880996704 99.683197021
 1946.2160000 92.762001038 97.231002808
 1946.3684000 93.571998596 96.256599426
 1946.5208000 92.115997314 97.543800354
 1946.6732000 91.470008850 99.136596680
 1946.8256000 91.985992432 99.118598938
 1946.9780000 90.883003235 98.165802002
 1947.1304000 89.371002197 96.946899414
 1947.2828000 88.319000244 97.881797791
 1947.4352000 87.481010437 98.054397583
 1947.5877000 87.880996704 96.644897461
 1947.7401000 87.933998108 95.206703186
 1947.8925000 86.945007324 93.700103760
 1948.0449000 85.929000854 93.775596619
 1948.1973000 84.914009094 95.454803467
 1948.3497000 86.071998596 97.238197327
 1948.5021000 89.846000671 99.032402039
 1948.6545000 92.361000061 98.018402100
 1948.8069000 91.819999695 96.472297668
 1948.9593000 90.013008118 95.922203064
 1949.1117000 88.950996399 96.378799438
 1949.2641000 88.567001343 97.619300842
 1949.4165000 88.950996399 98.467903137
 1949.5689000 90.810997009 99.406303406
 1949.7213000 93.547996521 100.23690033
 1949.8737000 95.888999939 99.970802307
 1950.0261000 97.676002502 98.626098633
 1950.1785000 95.553001404 96.529800415
 1950.3309000 89.249992371 93.955398560
 1950.4833000 86.310997009 91.456497192
 1950.6357000 86.833999634 91.251502991
 1950.7881000 79.115989685 92.995399475
 1950.9405000 70.637001038 97.734397888
 1951.0929000 77.546997070 100.68990326
 1951.2453000 85.428001404 102.44819641
 1951.3977000 83.429000854 102.12460327
 1951.5501000 78.472999573 102.16410065
 1951.7025000 77.099998474 101.21130371
 1951.8549000 80.347000122 100.68280029
 1952.0073000 83.724998474 96.418403625
 1952.1597000 80.623001099 94.595497131
 1952.3121000 70.508003235 90.208900452
 1952.4645000 66.096000671 89.813301086
 1952.6169000 70.355003357 89.167701721
 1952.7693000 75.280998230 91.821197510
 1952.9217000 79.845001221 94.697700500
 1953.0741000 84.441001892 97.320701599
 1953.2265000 87.008003235 98.508201599
 1953.3789000 87.177001953 100.09390259
 1953.5313000 87.067001343 100.94259644
 1953.6837000 87.086997986 102.83650208
 1953.8361000 85.943000793 101.82610321
 1953.9885000 85.628005981 100.00959778
 1954.1409000 87.933998108 96.662101746
 1954.2933000 90.079002380 93.965400696
 1954.4457000 87.613998413 91.476097107
 1954.5981000 84.010002136 94.003898621
 1954.7505000 83.688003540 98.386901855
 1954.9029000 83.758003235 99.442100525
 1955.0553000 84.111000061 95.814399719
 1955.2077000 86.137001038 92.013900757
 1955.3601000 88.162002563 92.139900208
 1955.5125000 87.221992493 93.801002502
 1955.6649000 82.331001282 94.955200195
 1955.8174000 78.198005676 95.818099976
 1955.9698000 77.801002502 95.066497803
 1956.1222000 78.425010681 94.487602234
 1956.2746000 78.146003723 94.228698730
 1956.4270000 77.307998657 94.764297485
 1956.5794000 77.406997681 95.044898987
 1956.7318000 78.235992432 95.105903625
 1956.8842000 77.495002747 94.522399902
 1957.0366000 76.342002869 93.371803284
 1957.1890000 76.505004883 93.350303650
 1957.3414000 79.441001892 93.685699463
 1957.4938000 84.626998901 95.537902832
 1957.6462000 86.873001099 97.612503052
 1957.7986000 85.963996887 101.00540161
 1957.9510000 86.128997803 100.07009888
 1958.1034000 89.335998535 97.100196838
 1958.2558000 95.654998779 92.931800842
 1958.4082000 101.68900299 93.506797791
 1958.5606000 96.640998840 94.955596924
 1958.7130000 77.092002869 94.753097534
 1958.8654000 61.491001129 92.477302551
 1959.0178000 63.027999878 91.355697632
 1959.1702000 72.611000061 92.153999329
 1959.3226000 80.144996643 93.872703552
 1959.4750000 83.952003479 94.437202454
 1959.6274000 85.380996704 94.624198914
 1959.7798000 85.033996582 92.906303406
 1959.9322000 83.805000305 91.647903442
 1960.0846000 83.261993408 90.101799011
 1960.2370000 85.413002014 89.210800171
 1960.3894000 91.673995972 88.502502441
 1960.5418000 91.532997131 88.070999146
 1960.6942000 78.928001404 89.824501038
 1960.8466000 69.690002441 92.208396912
 1960.9990000 69.655998230 94.592300415
 1961.1514000 73.026000977 96.012100220
 1961.3038000 79.817993164 96.860496521
 1961.4562000 85.640998840 97.708801270
 1961.6086000 87.533988953 98.445899963
 1961.7610000 87.877998352 98.482101440
 1961.9134000 88.487998962 98.827400208
 1962.0658000 89.932998657 99.083000183
 1962.2182000 89.575996399 99.467697144
 1962.3706000 86.238998413 99.273597717
 1962.5230000 82.902000427 98.615303040
 1962.6754000 81.989997864 94.843498230
 1962.8278000 83.364997864 89.533500671
 1962.9802000 84.586997986 86.484802246
 1963.1326000 84.739997864 86.657402039
 1963.2850000 85.197998047 88.637901306
 1963.4374000 86.570999146 89.917701721
 1963.5898000 87.664001465 91.186302185
 1963.7422000 85.948997498 92.836601257
 1963.8946000 83.594009399 93.444198608
 1964.0471000 85.084999084 93.807899475
 1964.1995000 87.401000977 93.757598877
 1964.3519000 87.799003601 93.707199097
 1964.5043000 87.487007141 93.753997803
 1964.6567000 85.747001648 94.518402100
 1964.8091000 83.718002319 95.282699585
 1964.9615000 82.939002991 98.327003479
 1965.1139000 82.638000488 98.594497681
 1965.2663000 82.517997742 99.031097412
 1965.4187000 82.693000793 94.513603210
 1965.5711000 83.017997742 92.564796448
 1965.7235000 82.865989685 89.120300293
 1965.8759000 81.505004883 86.983703613
 1966.0283000 80.414001465 84.960800171
 1966.1807000 80.747001648 85.234001160
 1966.3331000 82.490005493 89.570602417
 1966.4855000 85.870002747 94.315597534
 1966.6379000 88.891998291 98.256301880
 1966.7903000 89.876998901 99.525199890
 1966.9427000 88.334991455 99.794601440
 1967.0951000 85.778999329 98.929298401
 1967.2475000 85.077011108 99.105400085
 1967.3999000 85.522994995 99.281600952
 1967.5523000 86.482002258 101.04589844
 1967.7047000 88.463996887 100.42379761
 1967.8571000 83.318000793 99.801696777
 1968.0095000 74.283996582 98.348999023
 1968.1619000 75.146003723 95.850196838
 1968.3143000 79.405998230 92.578300476
 1968.4667000 81.432998657 90.712196350
 1968.6191000 83.339996338 91.132896423
 1968.7715000 84.807998657 93.804702759
 1968.9239000 87.218994141 95.660003662
 1969.0763000 89.580001831 97.938201904
 1969.2287000 85.474998474 97.355400085
 1969.3811000 83.758003235 96.395401001
 1969.5335000 94.021003723 93.620597839
