# LAS format log file from PETREL
# Project units are specified as depth units
#==================================================================
~Version information
VERS.   2.0:
WRAP.   NO:
#==================================================================
~Well
STRT.m   0.0000                                    :START DEPTH    
STOP.m   3831.0001                                 :STOP DEPTH     
STEP.m   0.1000                                    :STEP           
NULL.    -999.25                                   :NULL VALUE     
COMP.    Fletcher Challenge Energy                 :COMPANY        
WELL.    Pohokura-2                                :WELL           
FLD .    Pohokura                                  :FIELD          
LOC .    LAT -38.9081310  LON 174.2621355          :LOCATION       
LATI.    -38.9081310                               :SURF. LATITUDE 
LONG.   174.2621355                               :SURF. LONGITUDE
EKB .m   30.200                                    :KB ELEVATION   
EGL .m   -36.940                                   :GROUND LEVEL   
CTRY.    New Zealand                               :COUNTRY        
SRVC.                                              :SERVICE COMPANY
DATE.    27-6-2000 (D-M-Y)                         :LOG DATE       
UWI .    GEO391  
#==================================================================
~Curve
DEPT .m                   : DEPTH
CNL .m3/m3                : CNL
SP .mV                    : SP
BHC .us/ft                : BHC
FDC .g/cm3                : FDC
GRI .API                  : GRI
~Parameter
#==================================================================
~Ascii
# ...
 3151.8000000 0.1800000072 -179.8750000  -999.250000 2.5989999771 53.708000183
 3151.9000000 0.1780000031 -181.6250000  -999.250000 2.6059999466 54.293998718
 3152.0000000 0.1780000031 -180.5630035  -999.250000 2.6059999466 54.293998718
 3152.1000000 0.1749999970 -180.5630035  -999.250000 2.6089999676 57.783000946
 3152.2000000 0.1899999976 -180.0000000  -999.250000 2.5929999352 58.806999207
 3152.3000000 0.1899999976 -180.8750000  -999.250000 2.5929999352 58.806999207
 3152.4000000 0.1969999969 -180.8750000  -999.250000 2.5799999237 58.959999084
 3152.5000000 0.1870000064 -178.3130035  -999.250000 2.5710000992 59.145999908
 3152.6000000 0.1870000064 -180.0629883  -999.250000 2.5710000992 59.145999908
 3152.7000000 0.1870000064 -180.0629883  -999.250000 2.5780000687 57.256999969
 3152.8000000 0.1889999956 -180.1250000  -999.250000 2.5920000076 56.305000305
 3152.9000000 0.1889999956 -180.0629883  -999.250000 2.5920000076 56.305000305
 3153.0000000 0.1920000017 -180.0629883  -999.250000 2.5929999352 57.801998138
 3153.1000000 0.1889999956 -180.0000000  -999.250000 2.5999999046 58.706001282
 3153.2000000 0.1889999956 -180.0629883  -999.250000 2.5999999046 58.706001282
 3153.3000000 0.1800000072 -180.0629883  -999.250000 2.5920000076 59.472000122
 3153.4000000 0.1729999930 -182.4380035  -999.250000 2.5999999046 57.557998657
 3153.5000000 0.1729999930 -182.1250000  -999.250000 2.5999999046 57.557998657
 3153.6000000 0.1710000038 -182.1250000  -999.250000 2.6019999981 52.568000793
 3153.7000000 0.1679999977 -180.0629883  -999.250000 2.6159999371 51.152999878
 3153.8000000 0.1679999977 -180.0629883  -999.250000 2.6159999371 51.152999878
 3153.9000000 0.1570000052 -182.8750000  -999.250000 2.6170001030 52.284999847
 3154.0000000 0.1720000058 -181.7500000  -999.250000 2.6059999466 53.555999756
 3154.1000000 0.1720000058 -181.7500000  -999.250000 2.6059999466 53.555999756
 3154.2000000 0.1809999943 -180.8130035  -999.250000 2.6070001125 54.900001526
 3154.3000000 0.1870000064 -182.9379883  -999.250000 2.5880000591 55.910999298
 3154.4000000 0.1870000064 -182.9379883  -999.250000 2.5880000591 55.910999298
 3154.5000000 0.1829999983 -179.8750000  -999.250000 2.5989999771 56.790000916
 3154.6000000 0.1829999983 -183.6250000  -999.250000 2.5989999771 56.790000916
 3154.7000000 0.1790000051 -183.6250000  -999.250000 2.5910000801 57.574001312
 3154.8000000 0.1770000011 -177.0000000  -999.250000 2.6070001125 60.555000305
 3154.9000000 0.1770000011 -179.7500000  -999.250000 2.6070001125 60.555000305
 3155.0000000 0.1700000018 -179.7500000  -999.250000 2.6010000706 59.513999939
 3155.1000000 0.1650000066 -181.4380035  -999.250000 2.6110000610 57.344001770
 3155.2000000 0.1650000066 -178.1880035  -999.250000 2.6110000610 57.344001770
 3155.3000000 0.1669999957 -178.1880035  -999.250000 2.5959999561 57.301998138
 3155.4000000 0.1899999976 -178.3750000  -999.250000 2.5950000286 57.436000824
 3155.5000000 0.1899999976 -181.2500000  -999.250000 2.5950000286 57.436000824
 3155.6000000 0.1879999936 -181.2500000  -999.250000 2.5840001106 57.747001648
 3155.7000000 0.1879999936 -179.2500000  -999.250000 2.6040000916 56.354000092
 3155.8000000 0.1879999936 -179.7500000  -999.250000 2.6040000916 56.354000092
 3155.9000000 0.1850000024 -179.7500000  -999.250000 2.6229999065 55.688999176
 3156.0000000 0.1829999983 -179.6880035  -999.250000 2.6300001144 53.536998749
 3156.1000000 0.1829999983 -179.3750000  -999.250000 2.6300001144 53.536998749
 3156.2000000 0.1829999983 -179.3750000  -999.250000 2.6250000000 51.873001099
 3156.3000000 0.1809999943 -180.5000000  -999.250000 2.6210000515 49.750000000
 3156.4000000 0.1809999943 -180.1250000  -999.250000 2.6210000515 49.750000000
 3156.5000000 0.1739999950 -180.1250000  -999.250000 2.6270000935 48.433998108
 3156.6000000 0.1539999992 -179.1880035  -999.250000 2.6319999695 51.044998169
 3156.7000000 0.1539999992 -180.3130035  -999.250000 2.6319999695 51.044998169
 3156.8000000 0.1630000025 -180.3130035  -999.250000 2.6270000935 55.034999847
 3156.9000000 0.1700000018 -181.3750000  -999.250000 2.6089999676 56.180000305
 3157.0000000 0.1700000018 -181.3750000  -999.250000 2.6089999676 56.180000305
 3157.1000000 0.1759999990 -179.3750000  -999.250000 2.5999999046 55.953998566
 3157.2000000 0.1879999936 -182.3750000  -999.250000 2.5989999771 56.104000092
 3157.3000000 0.1879999936 -182.3750000  -999.250000 2.5989999771 56.104000092
 3157.4000000 0.1990000010 -182.5630035  -999.250000 2.6040000916 57.787998199
 3157.5000000 0.2020000070 -182.0000000  -999.250000 2.5980000496 56.418998718
 3157.6000000 0.2020000070 -182.0000000  -999.250000 2.5980000496 56.418998718
 3157.7000000 0.1870000064 -182.3129883  -999.250000 2.6059999466 49.645000458
 3157.8000000 0.1870000064 -181.6250000  -999.250000 2.6059999466 49.645000458
 3157.9000000 0.1739999950 -181.6250000  -999.250000 2.6070001125 51.727001190
 3158.0000000 0.1589999944 -182.1880035  -999.250000 2.6210000515 52.380001068
 3158.1000000 0.1589999944 -180.7500000  -999.250000 2.6210000515 52.380001068
 3158.2000000 0.1659999937 -180.7500000  -999.250000 2.6059999466 53.032001495
 3158.3000000 0.1729999930 -179.8130035  -999.250000 2.6029999256 53.685001373
 3158.4000000 0.1729999930 -178.6250000  -999.250000 2.6029999256 53.685001373
 3158.5000000 0.1819999963 -178.6250000  -999.250000 2.5889999866 54.075000763
 3158.6000000 0.1969999969 -180.6250000  -999.250000 2.5829999447 54.368999481
 3158.7000000 0.1969999969 -179.1880035  -999.250000 2.5829999447 54.368999481
 3158.8000000 0.1969999969 -179.1880035  -999.250000 2.5789999962 54.664001465
 3158.9000000 0.1720000058 -180.1880035  -999.250000 2.5789999962 54.958000183
 3159.0000000 0.1720000058 -179.3750000  -999.250000 2.5789999962 54.958000183
 3159.1000000 0.1710000038 -179.3750000  -999.250000 2.5969998837 55.251998901
 3159.2000000 0.1749999970 -178.9380035  -999.250000 2.6070001125 53.375000000
 3159.3000000 0.1749999970 -179.1880035  -999.250000 2.6070001125 53.375000000
 3159.4000000 0.1909999996 -179.1880035  -999.250000 2.5959999561 50.377998352
 3159.5000000 0.1800000072 -179.1250000  -999.250000 2.5959999561 52.665000916
 3159.6000000 0.1800000072 -180.5630035  -999.250000 2.5959999561 52.665000916
 3159.7000000 0.1739999950 -180.5630035  -999.250000 2.5989999771 54.942001343
 3159.8000000 0.1809999943 -178.6880035  -999.250000 2.6089999676 56.269001007
 3159.9000000 0.1809999943 -179.2500000  -999.250000 2.6089999676 56.269001007
 3160.0000000 0.1829999983 -179.2500000  -999.250000 2.6180000305 55.291000366
 3160.1000000 0.1850000024 -179.3750000  -999.250000 2.6199998856 53.259998322
 3160.2000000 0.1850000024 -179.3750000  -999.250000 2.6199998856 53.259998322
 3160.3000000 0.1870000064 -179.1880035  -999.250000 2.6119999886 54.173000336
 3160.4000000 0.1889999956 -180.3130035  -999.250000 2.5950000286 55.787998199
 3160.5000000 0.1889999956 -180.3130035  -999.250000 2.5950000286 55.787998199
 3160.6000000 0.1899999976 -178.5630035  -999.250000 2.5989999771 56.166999817
 3160.7000000 0.1909999996 -179.2500000  -999.250000 2.6029999256 56.986999512
 3160.8000000 0.1909999996 -179.2500000  -999.250000 2.6029999256 56.986999512
 3160.9000000 0.1909999996 -179.5000000  -999.250000 2.5950000286 56.588001251
 3161.0000000 0.1909999996 -179.5630035  -999.250000 2.5950000286 56.588001251
 3161.1000000 0.1909999996 -179.5630035  -999.250000 2.5929999352 58.034000397
 3161.2000000 0.1920000017 -178.7500000  -999.250000 2.5980000496 59.337001801
 3161.3000000 0.1920000017 -176.8750000  -999.250000 2.5980000496 59.337001801
 3161.4000000 0.1940000057 -176.8750000  -999.250000 2.5950000286 60.290000916
 3161.5000000 0.1909999996 -182.0000000  -999.250000 2.5920000076 58.645999908
 3161.6000000 0.1909999996 -179.6250000  -999.250000 2.5920000076 58.645999908
 3161.7000000 0.1809999943 -179.6250000  -999.250000 2.5910000801 56.924999237
 3161.8000000 0.1860000044 -179.0000000  -999.250000 2.6099998951 58.479999542
 3161.9000000 0.1860000044 -177.8129883  -999.250000 2.6099998951 58.479999542
