# LAS format log file from PETREL
# Project units are specified as depth units
#==================================================================
~Version information
VERS.   2.0:
WRAP.   NO:
#==================================================================
~Well
STRT.m   0.0000                                    :START DEPTH    
STOP.m   3831.0001                                 :STOP DEPTH     
STEP.m   0.1000                                    :STEP           
NULL.    -999.25                                   :NULL VALUE     
COMP.    Fletcher Challenge Energy                 :COMPANY        
WELL.    Pohokura-2                                :WELL           
FLD .    Pohokura                                  :FIELD          
LOC .    LAT -38.9081310  LON 174.2621355          :LOCATION       
LATI.    -38.9081310                               :SURF. LATITUDE 
LONG.   174.2621355                               :SURF. LONGITUDE
EKB .m   30.200                                    :KB ELEVATION   
EGL .m   -36.940                                   :GROUND LEVEL   
CTRY.    New Zealand                               :COUNTRY        
SRVC.                                              :SERVICE COMPANY
DATE.    27-6-2000 (D-M-Y)                         :LOG DATE       
UWI .    GEO391  
#==================================================================
~Curve
DEPT .m                   : DEPTH
CNL .m3/m3                : CNL
SP .mV                    : SP
BHC .us/ft                : BHC
FDC .g/cm3                : FDC
GRI .API                  : GRI
~Parameter
#==================================================================
~Ascii
# ...
 2703.0000000 0.2169999927 -176.3130035  -999.250000 2.5999999046 86.704002380
 2703.1000000 0.2179999948 -176.8130035  -999.250000 2.5980000496 86.772003174
 2703.2000000 0.2140000015 -177.7500000  -999.250000 2.6050000191 86.705001831
 2703.3000000 0.2140000015 -177.7500000  -999.250000 2.6050000191 86.705001831
 2703.4000000 0.2039999962 -176.6250000  -999.250000 2.6089999676 84.834999084
 2703.5000000 0.2010000050 -178.5630035  -999.250000 2.6040000916 82.055999756
 2703.6000000 0.2010000050 -178.5630035  -999.250000 2.6040000916 82.055999756
 2703.7000000 0.2080000043 -177.1879883  -999.250000 2.5980000496 79.218002319
 2703.8000000 0.2080000043 -175.6880035  -999.250000 2.5980000496 79.218002319
 2703.9000000 0.2189999968 -175.6880035  -999.250000 2.6019999981 80.438003540
 2704.0000000 0.2319999933 -178.3130035  -999.250000 2.6129999161 79.314002991
 2704.1000000 0.2319999933 -176.5000000  -999.250000 2.6129999161 79.314002991
 2704.2000000 0.2310000062 -176.5000000  -999.250000 2.6180000305 80.236999512
 2704.3000000 0.2290000021 -178.1880035  -999.250000 2.6129999161 83.194999695
 2704.4000000 0.2290000021 -178.1880035  -999.250000 2.6129999161 83.194999695
 2704.5000000 0.2319999933 -178.1880035  -999.250000 2.6229999065 83.230003357
 2704.6000000 0.2300000042 -176.6250000  -999.250000 2.6159999371 86.275001526
 2704.7000000 0.2300000042 -178.2500000  -999.250000 2.6159999371 86.275001526
 2704.8000000 0.2259999961 -178.2500000  -999.250000 2.6019999981 86.055999756
 2704.9000000 0.2220000029 -177.3750000  -999.250000 2.5999999046 85.775001526
 2705.0000000 0.2220000029 -177.0000000  -999.250000 2.5999999046 85.775001526
 2705.1000000 0.2210000008 -177.0000000  -999.250000 2.6099998951 85.344001770
 2705.2000000 0.2199999988 -176.0630035  -999.250000 2.6189999580 84.546997070
 2705.3000000 0.2199999988 -177.6250000  -999.250000 2.6189999580 84.546997070
 2705.4000000 0.2189999968 -177.6250000  -999.250000 2.5980000496 87.009002686
 2705.5000000 0.2210000008 -178.0000000  -999.250000 2.5959999561 87.495002747
 2705.6000000 0.2210000008 -169.3130035  -999.250000 2.5959999561 87.495002747
 2705.7000000 0.2269999981 -169.3130035  -999.250000 2.5959999561 87.592002869
 2705.8000000 0.2329999954 -181.8130035  -999.250000 2.6170001030 86.449996948
 2705.9000000 0.2329999954 -176.4380035  -999.250000 2.6170001030 86.449996948
 2706.0000000 0.2230000049 -176.4380035  -999.250000 2.6089999676 85.964996338
 2706.1000000 0.2090000063 -178.5630035  -999.250000 2.6180000305 86.486000061
 2706.2000000 0.2090000063 -178.5630035  -999.250000 2.6180000305 86.486000061
 2706.3000000 0.2179999948 -180.3130035  -999.250000 2.6110000610 87.008003235
 2706.4000000 0.2249999940 -178.1880035  -999.250000 2.6140000820 87.148002625
 2706.5000000 0.2249999940 -178.1880035  -999.250000 2.6140000820 87.148002625
 2706.6000000 0.2199999988 -178.7500000  -999.250000 2.6119999886 87.260002136
 2706.7000000 0.2199999988 -181.0000000  -999.250000 2.6119999886 87.260002136
 2706.8000000 0.2160000056 -181.0000000  -999.250000 2.6199998856 88.097999573
 2706.9000000 0.2129999995 -179.2500000  -999.250000 2.6159999371 91.398002625
 2707.0000000 0.2129999995 -178.6250000  -999.250000 2.6159999371 91.398002625
 2707.1000000 0.2109999955 -178.6250000  -999.250000 2.6219999790 89.402999878
 2707.2000000 0.2409999967 -178.4379883  -999.250000 2.6099998951 89.434997559
 2707.3000000 0.2409999967 -179.9380035  -999.250000 2.6099998951 89.434997559
 2707.4000000 0.2399999946 -179.9380035  -999.250000 2.6050000191 89.294998169
 2707.5000000 0.2370000035 -177.1250000  -999.250000 2.6019999981 88.317001343
 2707.6000000 0.2370000035 -178.6880035  -999.250000 2.6019999981 88.317001343
 2707.7000000 0.2290000021 -178.6880035  -999.250000 2.6040000916 86.166000366
 2707.8000000 0.2199999988 -178.1250000  -999.250000 2.6070001125 85.495002747
 2707.9000000 0.2199999988 -177.2500000  -999.250000 2.6070001125 85.495002747
 2708.0000000 0.2259999961 -177.2500000  -999.250000 2.6189999580 86.164001465
 2708.1000000 0.2319999933 -179.6880035  -999.250000 2.6180000305 86.832000732
 2708.2000000 0.2319999933 -180.5630035  -999.250000 2.6180000305 86.832000732
 2708.3000000 0.2370000035 -180.5630035  -999.250000 2.6159999371 86.554000854
 2708.4000000 0.2440000027 -180.8130035  -999.250000 2.6029999256 85.327003479
 2708.5000000 0.2440000027 -178.0630035  -999.250000 2.6029999256 85.327003479
 2708.6000000 0.2509999871 -178.0630035  -999.250000 2.6010000706 86.418998718
 2708.7000000 0.2520000041 -178.0000000  -999.250000 2.5980000496 91.887001038
 2708.8000000 0.2520000041 -180.8130035  -999.250000 2.5980000496 91.887001038
 2708.9000000 0.2380000055 -180.8130035  -999.250000 2.5980000496 91.285003662
 2709.0000000 0.2160000056 -180.4380035  -999.250000 2.5980000496 90.146003723
 2709.1000000 0.2160000056 -179.3130035  -999.250000 2.5980000496 90.146003723
 2709.2000000 0.2049999982 -179.3130035  -999.250000 2.5969998837 87.400001526
 2709.3000000 0.2060000002 -181.3129883  -999.250000 2.6170001030 82.955001831
 2709.4000000 0.2060000002 -181.3129883  -999.250000 2.6170001030 82.955001831
 2709.5000000 0.2240000069 -181.8130035  -999.250000 2.6300001144 81.611000061
 2709.6000000 0.2360000014 -182.5000000  -999.250000 2.6340000629 83.351997375
 2709.7000000 0.2360000014 -182.5000000  -999.250000 2.6340000629 83.351997375
 2709.8000000 0.2469999939 -181.2500000  -999.250000 2.6389999390 83.639999390
 2709.9000000 0.2469999939 -182.5000000  -999.250000 2.6389999390 83.639999390
 2710.0000000 0.2500000000 -182.5000000  -999.250000 2.6349999905 90.535003662
 2710.1000000 0.2529999912 -182.3750000  -999.250000 2.6150000095 90.478996277
 2710.2000000 0.2529999912 -180.9380035  -999.250000 2.6150000095 90.478996277
 2710.3000000 0.2540000081 -180.9380035  -999.250000 2.6099998951 86.944000244
 2710.4000000 0.2540000081 -182.9379883  -999.250000 2.6150000095 85.226997375
 2710.5000000 0.2540000081 -182.3750000  -999.250000 2.6150000095 85.226997375
 2710.6000000 0.2329999954 -182.3750000  -999.250000 2.6229999065 83.502998352
 2710.7000000 0.2269999981 -181.0630035  -999.250000 2.6119999886 81.361000061
 2710.8000000 0.2269999981 -181.3129883  -999.250000 2.6119999886 81.361000061
 2710.9000000 0.2310000062 -181.3129883  -999.250000 2.6070001125 81.461997986
 2711.0000000 0.2339999974 -181.6250000  -999.250000 2.6080000401 81.261001587
 2711.1000000 0.2339999974 -181.9379883  -999.250000 2.6080000401 81.261001587
 2711.2000000 0.2319999933 -181.9379883  -999.250000 2.6119999886 84.203002930
 2711.3000000 0.2440000027 -182.1250000  -999.250000 2.6150000095 89.614997864
 2711.4000000 0.2440000027 -181.5630035  -999.250000 2.6150000095 89.614997864
 2711.5000000 0.2389999926 -181.5630035  -999.250000 2.5989999771 91.221000671
 2711.6000000 0.2479999959 -181.5630035  -999.250000 2.5910000801 87.972000122
 2711.7000000 0.2479999959 -181.6250000  -999.250000 2.5910000801 87.972000122
 2711.8000000 0.2280000001 -181.6250000  -999.250000 2.5889999866 92.767997742
 2711.9000000 0.2259999961 -181.2500000  -999.250000 2.5989999771 93.120002747
 2712.0000000 0.2259999961 -181.2500000  -999.250000 2.5989999771 93.120002747
 2712.1000000 0.2339999974 -181.2500000  -999.250000 2.6029999256 88.116996765
 2712.2000000 0.2419999987 -180.6250000  -999.250000 2.5999999046 83.292999268
 2712.3000000 0.2419999987 -178.7500000  -999.250000 2.5999999046 83.292999268
 2712.4000000 0.2450000048 -178.7500000  -999.250000 2.5929999352 84.815002441
 2712.5000000 0.2489999980 -180.3750000  -999.250000 2.5980000496 92.155998230
 2712.6000000 0.2489999980 -180.3750000  -999.250000 2.5980000496 92.155998230
 2712.7000000 0.2500000000 -179.2500000  -999.250000 2.5859999657 93.097999573
 2712.8000000 0.2469999939 -180.7500000  -999.250000 2.5799999237 94.283996582
 2712.9000000 0.2469999939 -180.7500000  -999.250000 2.5799999237 94.283996582
 2713.0000000 0.2450000048 -180.0629883  -999.250000 2.5720000267 94.497001648
 2713.1000000 0.2450000048 -179.8750000  -999.250000 2.5720000267 94.497001648
