# LAS format log file from PETREL
# Project units are specified as depth units
#==================================================================
~Version information
VERS.   2.0:
WRAP.   NO:
#==================================================================
~Well
STRT.m   0.0000                                    :START DEPTH    
STOP.m   3831.0001                                 :STOP DEPTH     
STEP.m   0.1000                                    :STEP           
NULL.    -999.25                                   :NULL VALUE     
COMP.    Fletcher Challenge Energy                 :COMPANY        
WELL.    Pohokura-2                                :WELL           
FLD .    Pohokura                                  :FIELD          
LOC .    LAT -38.9081310  LON 174.2621355          :LOCATION       
LATI.    -38.9081310                               :SURF. LATITUDE 
LONG.   174.2621355                               :SURF. LONGITUDE
EKB .m   30.200                                    :KB ELEVATION   
EGL .m   -36.940                                   :GROUND LEVEL   
CTRY.    New Zealand                               :COUNTRY        
SRVC.                                              :SERVICE COMPANY
DATE.    27-6-2000 (D-M-Y)                         :LOG DATE       
UWI .    GEO391  
#==================================================================
~Curve
DEPT .m                   : DEPTH
CNL .m3/m3                : CNL
SP .mV                    : SP
BHC .us/ft                : BHC
FDC .g/cm3                : FDC
GRI .API                  : GRI
~Parameter
#==================================================================
~Ascii
# ...
 2254.2000000 0.2680000067 -174.6250000  -999.250000 2.5480000973 74.239997864
 2254.3000000 0.2529999912 -174.6250000  -999.250000 2.5739998817 80.844001770
 2254.4000000 0.2560000122 -175.5629883  -999.250000 2.5969998837 77.991996765
 2254.5000000 0.2560000122 -175.0630035  -999.250000 2.5969998837 77.991996765
 2254.6000000 0.2469999939 -175.0630035  -999.250000 2.5940001011 70.818000793
 2254.7000000 0.2409999967 -175.5000000  -999.250000 2.6050000191 71.349998474
 2254.8000000 0.2409999967 -177.8750000  -999.250000 2.6050000191 71.349998474
 2254.9000000 0.2409999967 -177.8750000  -999.250000 2.6029999256 75.308998108
 2255.0000000 0.2509999871 -175.6880035  -999.250000 2.5859999657 76.843002319
 2255.1000000 0.2509999871 -174.9379883  -999.250000 2.5859999657 76.843002319
 2255.2000000 0.2489999980 -174.9379883  -999.250000 2.5710000992 76.908996582
 2255.3000000 0.2370000035 -180.5000000  -999.250000 2.5710000992 75.824996948
 2255.4000000 0.2370000035 -180.5000000  -999.250000 2.5710000992 75.824996948
 2255.5000000 0.2230000049 -180.8130035  -999.250000 2.5739998817 75.055999756
 2255.6000000 0.2129999995 -175.8130035  -999.250000 2.5850000381 75.814002991
 2255.7000000 0.2129999995 -175.8130035  -999.250000 2.5850000381 75.814002991
 2255.8000000 0.2080000043 -179.0630035  -999.250000 2.5950000286 77.875000000
 2255.9000000 0.2080000043 -177.7500000  -999.250000 2.5950000286 77.875000000
 2256.0000000 0.2189999968 -177.7500000  -999.250000 2.6040000916 79.682998657
 2256.1000000 0.2380000055 -177.3130035  -999.250000 2.6150000095 81.324996948
 2256.2000000 0.2380000055 -178.1250000  -999.250000 2.6150000095 81.324996948
 2256.3000000 0.2520000041 -178.1250000  -999.250000 2.6150000095 84.971000671
 2256.4000000 0.2520000041 -179.0000000  -999.250000 2.6040000916 86.887001038
 2256.5000000 0.2520000041 -178.1250000  -999.250000 2.6040000916 86.887001038
 2256.6000000 0.2450000048 -178.1250000  -999.250000 2.6050000191 85.888999939
 2256.7000000 0.2460000068 -179.6880035  -999.250000 2.5899999142 81.500000000
 2256.8000000 0.2460000068 -178.8750000  -999.250000 2.5899999142 81.500000000
 2256.9000000 0.2479999959 -178.8750000  -999.250000 2.5729999542 78.343002319
 2257.0000000 0.2460000068 -177.0000000  -999.250000 2.5569999218 86.200996399
 2257.1000000 0.2460000068 -183.6250000  -999.250000 2.5569999218 86.200996399
 2257.2000000 0.2409999967 -183.6250000  -999.250000 2.6159999371 84.056999207
 2257.3000000 0.2380000055 -179.3130035  -999.250000 2.6429998875 84.903999329
 2257.4000000 0.2380000055 -177.8750000  -999.250000 2.6429998875 84.903999329
 2257.5000000 0.2440000027 -177.8750000  -999.250000 2.6280000210 82.571998596
 2257.6000000 0.2440000027 -176.8130035  -999.250000 2.6280000210 81.769996643
 2257.7000000 0.2440000027 -180.4380035  -999.250000 2.6280000210 81.769996643
 2257.8000000 0.2599999905 -180.4380035  -999.250000 2.6129999161 83.508003235
 2257.9000000 0.2610000074 -179.3750000  -999.250000 2.5929999352 81.239997864
 2258.0000000 0.2610000074 -179.6250000  -999.250000 2.5929999352 81.239997864
 2258.1000000 0.2619999945 -179.6250000  -999.250000 2.5840001106 80.705001831
 2258.2000000 0.2509999871 -179.7500000  -999.250000 2.5780000687 79.130996704
 2258.3000000 0.2509999871 -179.7500000  -999.250000 2.5780000687 79.130996704
 2258.4000000 0.2389999926 -179.7500000  -999.250000 2.5829999447 77.625999451
 2258.5000000 0.2319999933 -181.7500000  -999.250000 2.5820000172 78.922996521
 2258.6000000 0.2319999933 -181.7500000  -999.250000 2.5820000172 78.922996521
 2258.7000000 0.2290000021 -182.3750000  -999.250000 2.5889999866 82.829002380
 2258.8000000 0.2150000036 -180.8750000  -999.250000 2.5829999447 87.932998657
 2258.9000000 0.2150000036 -180.8750000  -999.250000 2.5829999447 87.932998657
 2259.0000000 0.2220000029 -181.5630035  -999.250000 2.5950000286 87.466003418
 2259.1000000 0.2220000029 -181.9379883  -999.250000 2.5950000286 87.466003418
 2259.2000000 0.2329999954 -181.9379883  -999.250000 2.6129999161 82.527999878
 2259.3000000 0.2560000122 -180.5000000  -999.250000 2.6140000820 82.164001465
 2259.4000000 0.2560000122 -181.1250000  -999.250000 2.6140000820 82.164001465
 2259.5000000 0.2520000041 -181.1250000  -999.250000 2.5959999561 83.106002808
 2259.6000000 0.2569999993 -181.7500000  -999.250000 2.5969998837 82.738998413
 2259.7000000 0.2569999993 -180.6879883  -999.250000 2.5969998837 82.738998413
 2259.8000000 0.2689999938 -180.6879883  -999.250000 2.5810000896 83.999000549
 2259.9000000 0.2849999964 -180.5000000  -999.250000 2.6129999161 86.092002869
 2260.0000000 0.2849999964 -179.9380035  -999.250000 2.6129999161 86.092002869
 2260.1000000 0.2899999917 -179.9380035  -999.250000 2.6019999981 84.047996521
 2260.2000000 0.2779999971 -181.0630035  -999.250000 2.5940001011 77.236000061
 2260.3000000 0.2779999971 -181.5630035  -999.250000 2.5940001011 77.236000061
 2260.4000000 0.2750000060 -181.5630035  -999.250000 2.5610001087 75.492996216
 2260.5000000 0.2709999979 -181.0000000  -999.250000 2.5650000572 80.777999878
 2260.6000000 0.2709999979 -180.5000000  -999.250000 2.5650000572 80.777999878
 2260.7000000 0.2649999857 -180.5000000  -999.250000 2.5840001106 88.426002502
 2260.8000000 0.2619999945 -182.6250000  -999.250000 2.6040000916 90.245002747
 2260.9000000 0.2619999945 -180.5000000  -999.250000 2.6040000916 90.245002747
 2261.0000000 0.2529999912 -180.5000000  -999.250000 2.6129999161 91.987998962
 2261.1000000 0.2460000068 -181.9379883  -999.250000 2.5959999561 88.779998779
 2261.2000000 0.2460000068 -184.5000000  -999.250000 2.5959999561 88.779998779
 2261.3000000 0.2720000148 -184.5000000  -999.250000 2.5929999352 87.500000000
 2261.4000000 0.2649999857 -183.6880035  -999.250000 2.5850000381 87.015998840
 2261.5000000 0.2649999857 -182.0000000  -999.250000 2.5850000381 87.015998840
 2261.6000000 0.2599999905 -182.0000000  -999.250000 2.5910000801 87.763999939
 2261.7000000 0.2509999871 -180.6879883  -999.250000 2.5769999027 85.316001892
 2261.8000000 0.2509999871 -180.6879883  -999.250000 2.5769999027 85.316001892
 2261.9000000 0.2440000027 -183.8750000  -999.250000 2.5780000687 84.483001709
 2262.0000000 0.2639999986 -181.5000000  -999.250000 2.5799999237 83.967002869
 2262.1000000 0.2639999986 -181.5000000  -999.250000 2.5799999237 83.967002869
 2262.2000000 0.2730000019 -180.6250000  -999.250000 2.5950000286 84.166000366
 2262.3000000 0.2730000019 -184.1879883  -999.250000 2.5950000286 84.166000366
 2262.4000000 0.2590000033 -184.1879883  -999.250000 2.6150000095 78.539001465
 2262.5000000 0.2500000000 -185.3130035  -999.250000 2.6150000095 75.329002380
 2262.6000000 0.2500000000 -183.5000000  -999.250000 2.6150000095 75.329002380
 2262.7000000 0.2619999945 -183.5000000  -999.250000 2.5940001011 75.031997681
 2262.8000000 0.2630000114 -182.1880035  -999.250000 2.5769999027 82.435997009
 2262.9000000 0.2630000114 -182.1880035  -999.250000 2.5769999027 82.435997009
 2263.0000000 0.2709999979 -182.1880035  -999.250000 2.5789999962 85.512001038
 2263.1000000 0.2560000122 -181.0630035  -999.250000 2.5690000057 81.541999817
 2263.2000000 0.2560000122 -181.9379883  -999.250000 2.5690000057 81.541999817
 2263.3000000 0.2549999952 -181.9379883  -999.250000 2.5669999123 76.956001282
 2263.4000000 0.2409999967 -181.9379883  -999.250000 2.5769999027 77.317001343
 2263.5000000 0.2409999967 -183.7500000  -999.250000 2.5769999027 77.317001343
 2263.6000000 0.2509999871 -183.7500000  -999.250000 2.5929999352 78.698997498
 2263.7000000 0.2520000041 -180.9380035  -999.250000 2.6010000706 80.069000244
 2263.8000000 0.2520000041 -180.3130035  -999.250000 2.6010000706 80.069000244
 2263.9000000 0.2509999871 -180.3130035  -999.250000 2.6089999676 81.257003784
 2264.0000000 0.2430000007 -179.2500000  -999.250000 2.6219999790 83.252998352
 2264.1000000 0.2430000007 -182.3129883  -999.250000 2.6219999790 83.252998352
 2264.2000000 0.2460000068 -182.3129883  -999.250000 2.6189999580 81.268997192
 2264.3000000 0.2520000041 -184.8750000  -999.250000 2.6010000706 79.698997498
