# LAS format log file from PETREL
# Project units are specified as depth units
#==================================================================
~Version information
VERS.   2.0:
WRAP.   NO:
#==================================================================
~Well
STRT.m   0.0000                                    :START DEPTH    
STOP.m   3831.0001                                 :STOP DEPTH     
STEP.m   0.1000                                    :STEP           
NULL.    -999.25                                   :NULL VALUE     
COMP.    Fletcher Challenge Energy                 :COMPANY        
WELL.    Pohokura-2                                :WELL           
FLD .    Pohokura                                  :FIELD          
LOC .    LAT -38.9081310  LON 174.2621355          :LOCATION       
LATI.    -38.9081310                               :SURF. LATITUDE 
LONG.   174.2621355                               :SURF. LONGITUDE
EKB .m   30.200                                    :KB ELEVATION   
EGL .m   -36.940                                   :GROUND LEVEL   
CTRY.    New Zealand                               :COUNTRY        
SRVC.                                              :SERVICE COMPANY
DATE.    27-6-2000 (D-M-Y)                         :LOG DATE       
UWI .    GEO391  
#==================================================================
~Curve
DEPT .m                   : DEPTH
CNL .m3/m3                : CNL
SP .mV                    : SP
BHC .us/ft                : BHC
FDC .g/cm3                : FDC
GRI .API                  : GRI
~Parameter
#==================================================================
~Ascii
# ...
 2478.6000000 0.2329999954 -179.2500000  -999.250000 2.5999999046 87.380996704
 2478.7000000 0.2329999954 -180.1880035  -999.250000 2.5999999046 87.380996704
 2478.8000000 0.2249999940 -180.1880035  -999.250000 2.6040000916 80.872001648
 2478.9000000 0.2160000056 -182.1250000  -999.250000 2.5950000286 76.940002441
 2479.0000000 0.2160000056 -181.1880035  -999.250000 2.5950000286 76.940002441
 2479.1000000 0.2240000069 -181.1880035  -999.250000 2.5889999866 74.769996643
 2479.2000000 0.2360000014 -179.3750000  -999.250000 2.5780000687 80.028999329
 2479.3000000 0.2360000014 -179.1880035  -999.250000 2.5780000687 80.028999329
 2479.4000000 0.2500000000 -179.1880035  -999.250000 2.5769999027 84.689002991
 2479.5000000 0.2540000081 -179.8750000  -999.250000 2.5789999962 84.515998840
 2479.6000000 0.2540000081 -180.2500000  -999.250000 2.5789999962 84.515998840
 2479.7000000 0.2500000000 -180.2500000  -999.250000 2.5940001011 83.994003296
 2479.8000000 0.2520000041 -180.2500000  -999.250000 2.5950000286 82.728996277
 2479.9000000 0.2520000041 -178.5630035  -999.250000 2.5950000286 82.728996277
 2480.0000000 0.2489999980 -178.5630035  -999.250000 2.5910000801 85.001998901
 2480.1000000 0.2469999939 -178.9380035  -999.250000 2.5789999962 84.944000244
 2480.2000000 0.2469999939 -178.6250000  -999.250000 2.5789999962 84.944000244
 2480.3000000 0.2419999987 -178.6250000  -999.250000 2.5720000267 83.250999451
 2480.4000000 0.2380000055 -177.8129883  -999.250000 2.5720000267 82.244003296
 2480.5000000 0.2380000055 -180.0000000  -999.250000 2.5720000267 82.244003296
 2480.6000000 0.2399999946 -180.0000000  -999.250000 2.5820000172 80.416000366
 2480.7000000 0.2409999967 -181.4380035  -999.250000 2.5880000591 82.482002258
 2480.8000000 0.2409999967 -181.4380035  -999.250000 2.5880000591 82.482002258
 2480.9000000 0.2360000014 -180.7500000  -999.250000 2.5859999657 82.487998962
 2481.0000000 0.2389999926 -180.6250000  -999.250000 2.5869998932 80.567001343
 2481.1000000 0.2389999926 -180.6250000  -999.250000 2.5869998932 80.567001343
 2481.2000000 0.2280000001 -180.8130035  -999.250000 2.5820000172 80.071998596
 2481.3000000 0.2280000001 -178.8129883  -999.250000 2.5820000172 80.071998596
 2481.4000000 0.2230000049 -178.8129883  -999.250000 2.5869998932 78.510002136
 2481.5000000 0.2140000015 -179.1250000  -999.250000 2.5889999866 79.527999878
 2481.6000000 0.2140000015 -180.0000000  -999.250000 2.5889999866 79.527999878
 2481.7000000 0.2169999927 -180.0000000  -999.250000 2.6070001125 78.411003113
 2481.8000000 0.2199999988 -178.4379883  -999.250000 2.6099998951 76.835998535
 2481.9000000 0.2199999988 -178.2500000  -999.250000 2.6099998951 76.835998535
 2482.0000000 0.2210000008 -178.2500000  -999.250000 2.6229999065 76.816001892
 2482.1000000 0.2220000029 -182.0000000  -999.250000 2.6199998856 78.594001770
 2482.2000000 0.2220000029 -179.8130035  -999.250000 2.6199998856 78.594001770
 2482.3000000 0.2249999940 -179.8130035  -999.250000 2.6170001030 81.983001709
 2482.4000000 0.2300000042 -180.4380035  -999.250000 2.6080000401 80.777000427
 2482.5000000 0.2300000042 -180.6250000  -999.250000 2.6080000401 80.777000427
 2482.6000000 0.2310000062 -180.6250000  -999.250000 2.6110000610 81.289001465
 2482.7000000 0.2300000042 -177.5000000  -999.250000 2.6129999161 80.672996521
 2482.8000000 0.2300000042 -183.5000000  -999.250000 2.6129999161 80.672996521
 2482.9000000 0.2290000021 -183.5000000  -999.250000 2.6040000916 81.208000183
 2483.0000000 0.2370000035 -179.1250000  -999.250000 2.5969998837 78.940002441
 2483.1000000 0.2370000035 -178.9380035  -999.250000 2.5969998837 78.940002441
 2483.2000000 0.2529999912 -178.9380035  -999.250000 2.5880000591 78.825996399
 2483.3000000 0.2520000041 -178.3130035  -999.250000 2.5899999142 80.904998779
 2483.4000000 0.2520000041 -177.6880035  -999.250000 2.5899999142 80.904998779
 2483.5000000 0.2520000041 -177.6880035  -999.250000 2.5959999561 81.054000854
 2483.6000000 0.2389999926 -180.4380035  -999.250000 2.6059999466 80.553001404
 2483.7000000 0.2389999926 -179.4379883  -999.250000 2.6059999466 80.553001404
 2483.8000000 0.2529999912 -179.4379883  -999.250000 2.6110000610 83.372001648
 2483.9000000 0.2619999945 -180.3750000  -999.250000 2.6119999886 86.973999023
 2484.0000000 0.2619999945 -180.3750000  -999.250000 2.6119999886 86.973999023
 2484.1000000 0.2579999864 -179.4379883  -999.250000 2.6059999466 86.529998779
 2484.2000000 0.2450000048 -178.7500000  -999.250000 2.5940001011 86.760002136
 2484.3000000 0.2450000048 -178.7500000  -999.250000 2.5940001011 86.760002136
 2484.4000000 0.2240000069 -178.5630035  -999.250000 2.5920000076 86.597999573
 2484.5000000 0.2240000069 -179.8130035  -999.250000 2.5920000076 86.597999573
 2484.6000000 0.2310000062 -179.8130035  -999.250000 2.5880000591 88.503997803
 2484.7000000 0.2259999961 -179.1880035  -999.250000 2.5920000076 86.002998352
 2484.8000000 0.2259999961 -179.0630035  -999.250000 2.5920000076 86.002998352
 2484.9000000 0.2280000001 -179.0630035  -999.250000 2.5969998837 85.914001465
 2485.0000000 0.2220000029 -178.4379883  -999.250000 2.5999999046 84.432998657
 2485.1000000 0.2220000029 -177.0000000  -999.250000 2.5999999046 84.432998657
 2485.2000000 0.2140000015 -177.0000000  -999.250000 2.5969998837 85.752998352
 2485.3000000 0.2080000043 -178.1250000  -999.250000 2.5989999771 86.593002319
 2485.4000000 0.2080000043 -177.5630035  -999.250000 2.5989999771 86.593002319
 2485.5000000 0.2119999975 -177.5630035  -999.250000 2.6019999981 86.471000671
 2485.6000000 0.2169999927 -177.5000000  -999.250000 2.5999999046 85.019996643
 2485.7000000 0.2169999927 -176.9380035  -999.250000 2.5999999046 85.019996643
 2485.8000000 0.2280000001 -176.9380035  -999.250000 2.5940001011 86.697998047
 2485.9000000 0.2220000029 -176.6250000  -999.250000 2.5920000076 90.362998962
 2486.0000000 0.2220000029 -179.5630035  -999.250000 2.5920000076 90.362998962
 2486.1000000 0.2300000042 -179.5630035  -999.250000 2.5859999657 88.377998352
 2486.2000000 0.2249999940 -180.0629883  -999.250000 2.5869998932 85.561996460
 2486.3000000 0.2249999940 -179.0630035  -999.250000 2.5869998932 85.561996460
 2486.4000000 0.2300000042 -179.0630035  -999.250000 2.5920000076 84.478996277
 2486.5000000 0.2300000042 -179.9380035  -999.250000 2.5950000286 79.851997375
 2486.6000000 0.2300000042 -179.3130035  -999.250000 2.5950000286 79.851997375
 2486.7000000 0.2249999940 -179.3130035  -999.250000 2.5840001106 77.319999695
 2486.8000000 0.2269999981 -179.2500000  -999.250000 2.5850000381 76.774002075
 2486.9000000 0.2269999981 -177.9380035  -999.250000 2.5850000381 76.774002075
 2487.0000000 0.2189999968 -177.9380035  -999.250000 2.5889999866 81.589996338
 2487.1000000 0.2189999968 -178.5630035  -999.250000 2.5929999352 86.380996704
 2487.2000000 0.2189999968 -178.5630035  -999.250000 2.5929999352 86.380996704
 2487.3000000 0.2189999968 -178.7500000  -999.250000 2.5959999561 87.202003479
 2487.4000000 0.2210000008 -178.0630035  -999.250000 2.5889999866 85.478996277
 2487.5000000 0.2210000008 -178.0630035  -999.250000 2.5889999866 85.478996277
 2487.6000000 0.2210000008 -179.7500000  -999.250000 2.5829999447 82.771003723
 2487.7000000 0.2210000008 -179.6880035  -999.250000 2.5829999447 82.771003723
 2487.8000000 0.2189999968 -179.6880035  -999.250000 2.5859999657 82.947998047
 2487.9000000 0.2259999961 -177.3130035  -999.250000 2.5889999866 81.547996521
 2488.0000000 0.2259999961 -178.3750000  -999.250000 2.5889999866 81.547996521
 2488.1000000 0.2240000069 -178.3750000  -999.250000 2.6129999161 81.402999878
 2488.2000000 0.2210000008 -178.3130035  -999.250000 2.6189999580 80.862998962
 2488.3000000 0.2210000008 -178.9380035  -999.250000 2.6189999580 80.862998962
 2488.4000000 0.2290000021 -178.9380035  -999.250000 2.6080000401 82.682998657
 2488.5000000 0.2300000042 -178.5000000  -999.250000 2.5929999352 88.848999023
 2488.6000000 0.2300000042 -177.3130035  -999.250000 2.5929999352 88.848999023
 2488.7000000 0.2380000055 -177.3130035  -999.250000 2.5850000381 89.165000916
