# LAS format log file from PETREL
# Project units are specified as depth units
#==================================================================
~Version information
VERS.   2.0:
WRAP.   NO:
#==================================================================
~Well
STRT.m   0.0000                                    :START DEPTH    
STOP.m   3831.0001                                 :STOP DEPTH     
STEP.m   0.1000                                    :STEP           
NULL.    -999.25                                   :NULL VALUE     
COMP.    Fletcher Challenge Energy                 :COMPANY        
WELL.    Pohokura-2                                :WELL           
FLD .    Pohokura                                  :FIELD          
LOC .    LAT -38.9081310  LON 174.2621355          :LOCATION       
LATI.    -38.9081310                               :SURF. LATITUDE 
LONG.   174.2621355                               :SURF. LONGITUDE
EKB .m   30.200                                    :KB ELEVATION   
EGL .m   -36.940                                   :GROUND LEVEL   
CTRY.    New Zealand                               :COUNTRY        
SRVC.                                              :SERVICE COMPANY
DATE.    27-6-2000 (D-M-Y)                         :LOG DATE       
UWI .    GEO391  
#==================================================================
~Curve
DEPT .m                   : DEPTH
CNL .m3/m3                : CNL
SP .mV                    : SP
BHC .us/ft                : BHC
FDC .g/cm3                : FDC
GRI .API                  : GRI
~Parameter
#==================================================================
~Ascii
# ...
 1591.2000000 0.2360000014 -77.43800354 96.289001465  -999.250000 77.494003296
 1591.3000000 0.2520000041 -75.93800354 92.714996338  -999.250000 79.936996460
 1591.4000000 0.2520000041 -74.93800354 92.714996338  -999.250000 79.936996460
 1591.5000000 0.2649999857 -74.93800354 89.736000061  -999.250000 84.213996887
 1591.6000000 0.2840000093 -76.43800354 86.962997437  -999.250000 93.627998352
 1591.7000000 0.2840000093 -76.43800354 86.962997437  -999.250000 93.627998352
 1591.8000000 0.2969999909 -72.50000000 84.980003357  -999.250000 105.65699768
 1591.9000000 0.2960000038 -77.62500000 85.303001404  -999.250000 113.16400146
 1592.0000000 0.2960000038 -77.62500000 85.303001404  -999.250000 113.16400146
 1592.1000000 0.3059999943 -69.37500000 85.137001038  -999.250000 111.72100067
 1592.2000000 0.2899999917 -76.43800354 83.027000427  -999.250000 104.58699799
 1592.3000000 0.2899999917 -76.43800354 83.027000427  -999.250000 104.58699799
 1592.4000000 0.2560000122 -76.31300354 80.439002991  -999.250000 94.907997131
 1592.5000000 0.2560000122 -79.43800354 80.439002991  -999.250000 94.907997131
 1592.6000000 0.2140000015 -79.43800354 79.726997375  -999.250000 84.745002747
 1592.7000000 0.2269999981 -76.18800354 80.614997864  -999.250000 75.400001526
 1592.8000000 0.2269999981 -71.81300354 80.614997864  -999.250000 75.400001526
 1592.9000000 0.2569999993 -71.81300354 84.375000000  -999.250000 75.861000061
 1593.0000000 0.2739999890 -74.00000000 87.871002197  -999.250000 78.580001831
 1593.1000000 0.2739999890 -72.50000000 87.871002197  -999.250000 78.580001831
 1593.2000000 0.2829999924 -72.50000000 88.837997437  -999.250000 80.583000183
 1593.3000000 0.2879999876 -73.12500000 88.789001465  -999.250000 80.736999512
 1593.4000000 0.2879999876 -72.62500000 88.789001465  -999.250000 80.736999512
 1593.5000000 0.2820000052 -72.62500000 87.685997009  -999.250000 80.726997375
 1593.6000000 0.2820000052 -74.12500000 87.314002991  -999.250000 75.385002136
 1593.7000000 0.2820000052 -73.56300354 87.314002991  -999.250000 75.385002136
 1593.8000000 0.2840000093 -73.56300354 87.607002258  -999.250000 72.252998352
 1593.9000000 0.2849999964 -73.43800354 87.705001831  -999.250000 69.837997437
 1594.0000000 0.2849999964 -73.68800354 87.705001831  -999.250000 69.837997437
 1594.1000000 0.2759999931 -73.68800354 88.232002258  -999.250000 77.464996338
 1594.2000000 0.2669999897 -73.31300354 88.301002502  -999.250000 77.311996460
 1594.3000000 0.2669999897 -75.25000000 88.301002502  -999.250000 77.311996460
 1594.4000000 0.2739999890 -75.25000000 88.428001404  -999.250000 77.836997986
 1594.5000000 0.2800000012 -76.00000000 88.652000427  -999.250000 76.578002930
 1594.6000000 0.2800000012 -73.50000000 88.652000427  -999.250000 76.578002930
 1594.7000000 0.2809999883 -73.50000000 88.652000427  -999.250000 73.151000977
 1594.8000000 0.2919999957 -72.81300354 88.544998169  -999.250000 76.665000916
 1594.9000000 0.2919999957 -72.81300354 88.544998169  -999.250000 76.665000916
 1595.0000000 0.2790000141 -73.87500000 88.555000305  -999.250000 76.933998108
 1595.1000000 0.2739999890 -72.87500000 88.056999207  -999.250000 78.206001282
 1595.2000000 0.2739999890 -72.87500000 88.056999207  -999.250000 78.206001282
 1595.3000000 0.2549999952 -73.81300354 88.193000793  -999.250000 74.869003296
 1595.4000000 0.2759999931 -71.87500000 88.232002258  -999.250000 69.526000977
 1595.5000000 0.2759999931 -71.87500000 88.232002258  -999.250000 69.526000977
 1595.6000000 0.2879999876 -70.81301117 88.319999695  -999.250000 67.648002625
 1595.7000000 0.2879999876 -75.93800354 88.319999695  -999.250000 67.648002625
 1595.8000000 0.2960000038 -75.93800354 88.750000000  -999.250000 66.847999573
 1595.9000000 0.2689999938 -71.06300354 88.964996338  -999.250000 67.036003113
 1596.0000000 0.2689999938 -75.37500000 88.964996338  -999.250000 67.036003113
 1596.1000000 0.2680000067 -75.37500000 89.140998840  -999.250000 73.190002441
 1596.2000000 0.2779999971 -73.37500000 89.042999268  -999.250000 84.528999329
 1596.3000000 0.2779999971 -70.68800354 89.042999268  -999.250000 84.528999329
 1596.4000000 0.2980000079 -70.68800354 87.597999573  -999.250000 95.614997864
 1596.5000000 0.2779999971 -74.00000000 87.500000000  -999.250000 100.04599762
 1596.6000000 0.2779999971 -73.12500000 87.500000000  -999.250000 100.04599762
 1596.7000000 0.2639999986 -73.12500000 87.480003357  -999.250000 95.633003235
 1596.8000000 0.2560000122 -74.25000000 88.457000732  -999.250000 91.166000366
 1596.9000000 0.2560000122 -71.62500000 88.457000732  -999.250000 91.166000366
 1597.0000000 0.2619999945 -71.62500000 89.346000671  -999.250000 86.543998718
 1597.1000000 0.2549999952 -78.93800354 88.916000366  -999.250000 86.797996521
 1597.2000000 0.2549999952 -75.93800354 88.916000366  -999.250000 86.797996521
 1597.3000000 0.2730000019 -75.93800354 88.085998535  -999.250000 92.086997986
 1597.4000000 0.3100000024 -74.43800354 87.763999939  -999.250000 94.763000488
 1597.5000000 0.3100000024 -80.31300354 87.763999939  -999.250000 94.763000488
 1597.6000000 0.3289999962 -80.31300354 87.694999695  -999.250000 99.011001587
 1597.7000000 0.3249999881 -75.43801117 88.378997803  -999.250000 96.225997925
 1597.8000000 0.3249999881 -80.68800354 88.378997803  -999.250000 96.225997925
 1597.9000000 0.3240000010 -80.68800354 88.623001099  -999.250000 98.418998718
 1598.0000000 0.3059999943 -80.00000000 88.633003235  -999.250000 96.532997131
 1598.1000000 0.3059999943 -80.00000000 88.633003235  -999.250000 96.532997131
 1598.2000000 0.2930000126 -67.00000000 89.306999207  -999.250000 102.75700378
 1598.3000000 0.2669999897 -85.75000000 87.694999695  -999.250000 103.86499786
 1598.4000000 0.2669999897 -85.75000000 87.694999695  -999.250000 103.86499786
 1598.5000000 0.2660000026 -74.56300354 86.055000305  -999.250000 102.16400146
 1598.6000000 0.2509999871 -70.93800354 86.044998169  -999.250000 96.845001221
 1598.7000000 0.2509999871 -70.93800354 86.044998169  -999.250000 96.845001221
 1598.8000000 0.2540000081 -80.75000000 86.025001526  -999.250000 91.694999695
 1598.9000000 0.2540000081 -77.75000000 86.025001526  -999.250000 91.694999695
 1599.0000000 0.2639999986 -77.75000000 86.680000305  -999.250000 87.318000793
 1599.1000000 0.2849999964 -77.43800354 88.564002991  -999.250000 84.575996399
 1599.2000000 0.2849999964 -74.00000000 88.564002991  -999.250000 84.575996399
 1599.3000000 0.2879999876 -74.00000000 88.407997131  -999.250000 88.051002502
 1599.4000000 0.2800000012 -72.12500000 88.193000793  -999.250000 95.238998413
 1599.5000000 0.2800000012 -79.68800354 88.193000793  -999.250000 95.238998413
 1599.6000000 0.2639999986 -79.68800354 87.919998169  -999.250000 100.82499695
 1599.7000000 0.2569999993 -65.06300354 87.655998230  -999.250000 104.10500336
 1599.8000000 0.2569999993 -81.87500000 87.655998230  -999.250000 104.10500336
 1599.9000000 0.2730000019 -81.87500000 87.431999207  -999.250000 104.38200378
 1600.0000000 0.2969999909 -74.75000000 87.851997375  -999.250000 98.010002136
 1600.1000000 0.2969999909 -78.56300354 87.851997375  -999.250000 98.010002136
 1600.2000000 0.2980000079 -78.56300354 87.528999329  -999.250000 97.183998108
 1600.3000000 0.2919999957 -76.25000000 87.587997437  -999.250000 99.213996887
 1600.4000000 0.2919999957 -74.31300354 87.587997437  -999.250000 99.213996887
 1600.5000000 0.2840000093 -74.31300354 87.792999268  -999.250000 102.42299652
 1600.6000000 0.2879999876 -82.68800354 87.431999207  -999.250000 100.09899902
 1600.7000000 0.2879999876 -71.68800354 87.431999207  -999.250000 100.09899902
 1600.8000000 0.2960000038 -71.68800354 87.578002930  -999.250000 99.442001343
 1600.9000000 0.2840000093 -79.56300354 88.271003723  -999.250000 91.691001892
 1601.0000000 0.2840000093 -74.37500000 88.271003723  -999.250000 91.691001892
 1601.1000000 0.2680000067 -74.37500000 88.555000305  -999.250000 88.005996704
 1601.2000000 0.2700000107 -79.68800354 88.349998474  -999.250000 90.044998169
 1601.3000000 0.2700000107 -79.68800354 88.349998474  -999.250000 90.044998169
