# LAS format log file from PETREL
# Project units are specified as depth units
#==================================================================
~Version information
VERS.   2.0:
WRAP.   NO:
#==================================================================
~Well
STRT.m   0.0000                                    :START DEPTH    
STOP.m   3831.0001                                 :STOP DEPTH     
STEP.m   0.1000                                    :STEP           
NULL.    -999.25                                   :NULL VALUE     
COMP.    Fletcher Challenge Energy                 :COMPANY        
WELL.    Pohokura-2                                :WELL           
FLD .    Pohokura                                  :FIELD          
LOC .    LAT -38.9081310  LON 174.2621355          :LOCATION       
LATI.    -38.9081310                               :SURF. LATITUDE 
LONG.   174.2621355                               :SURF. LONGITUDE
EKB .m   30.200                                    :KB ELEVATION   
EGL .m   -36.940                                   :GROUND LEVEL   
CTRY.    New Zealand                               :COUNTRY        
SRVC.                                              :SERVICE COMPANY
DATE.    27-6-2000 (D-M-Y)                         :LOG DATE       
UWI .    GEO391  
#==================================================================
~Curve
DEPT .m                   : DEPTH
CNL .m3/m3                : CNL
SP .mV                    : SP
BHC .us/ft                : BHC
FDC .g/cm3                : FDC
GRI .API                  : GRI
~Parameter
#==================================================================
~Ascii
# ...
 3825.0001000 0.0250000004 -127.7499924  -999.250000 2.3970000744 92.527999878
 3825.1001000 0.0250000004 -127.7499924  -999.250000 2.3970000744 92.527999878
 3825.2001000 0.0250000004 -127.7499924  -999.250000 2.3970000744 92.527999878
 3825.3001000 0.0250000004 -127.7499924  -999.250000 2.3970000744 92.527999878
 3825.4001000 0.0250000004 -127.7499924  -999.250000 2.3970000744 92.527999878
 3825.5001000 0.0250000004 -127.7499924  -999.250000 2.3970000744 92.527999878
 3825.6001000 0.0250000004 -127.7499924  -999.250000 2.3970000744 92.527999878
 3825.7001000 0.0250000004 -127.7499924  -999.250000 2.3970000744 92.527999878
 3825.8001000 0.0250000004 -127.7499924  -999.250000 2.3970000744 92.527999878
 3825.9001000 0.0250000004 -127.7499924  -999.250000 2.3970000744 92.527999878
 3826.0001000 0.0250000004 -127.7499924  -999.250000 2.3970000744 92.527999878
 3826.1001000 0.0250000004 -127.7499924  -999.250000 2.3970000744 92.527999878
 3826.2001000 0.0250000004 -127.7499924  -999.250000 2.3970000744 92.527999878
 3826.3001000 0.0250000004 -127.7499924  -999.250000 2.3970000744 92.527999878
 3826.4001000 0.0250000004 -127.7499924  -999.250000 2.3970000744 92.527999878
 3826.5001000 0.0250000004 -127.7499924  -999.250000 2.3970000744 92.527999878
 3826.6001000 0.0250000004 -127.7499924  -999.250000 2.3970000744 92.527999878
 3826.7001000 0.0250000004 -127.7499924  -999.250000 2.3970000744 92.527999878
 3826.8001000 0.0250000004 -127.7499924  -999.250000 2.3970000744 92.527999878
 3826.9001000 0.0250000004 -127.7499924  -999.250000 2.3970000744 92.527999878
 3827.0001000 0.0250000004 -127.7499924  -999.250000 2.3970000744 92.527999878
 3827.1001000 0.0250000004 -127.7499924  -999.250000 2.3970000744 92.527999878
 3827.2001000 0.0250000004 -127.7499924  -999.250000 2.3970000744 92.527999878
 3827.3001000 0.0250000004 -127.7499924  -999.250000 2.3970000744 92.527999878
 3827.4001000 0.0250000004 -127.7499924  -999.250000 2.3970000744 92.527999878
 3827.5001000 0.0250000004 -127.7499924  -999.250000 2.3970000744 92.527999878
 3827.6001000 0.0250000004 -127.7499924  -999.250000 2.3970000744 92.527999878
 3827.7001000 0.0250000004 -127.7499924  -999.250000 2.3970000744 92.527999878
 3827.8001000 0.0250000004 -127.7499924  -999.250000 2.3970000744 92.527999878
 3827.9001000 0.0250000004 -127.7499924  -999.250000 2.3970000744 92.527999878
 3828.0001000 0.0250000004 -127.7499924  -999.250000 2.3970000744 92.527999878
 3828.1001000 0.0250000004 -127.7499924  -999.250000 2.3970000744 92.527999878
 3828.2001000 0.0250000004 -127.7499924  -999.250000 2.3970000744 92.527999878
 3828.3001000 0.0250000004 -127.7499924  -999.250000 2.3970000744 92.527999878
 3828.4001000 0.0250000004 -127.7499924  -999.250000 2.3970000744 92.527999878
 3828.5001000 0.0250000004 -127.7499924  -999.250000 2.3970000744 92.527999878
 3828.6001000 0.0250000004 -127.7499924  -999.250000 2.3970000744 92.527999878
 3828.7001000 0.0250000004 -127.7499924  -999.250000 2.3970000744 92.527999878
 3828.8001000 0.0250000004 -127.7499924  -999.250000 2.3970000744 92.527999878
 3828.9001000 0.0250000004 -127.7499924  -999.250000 2.3970000744 92.527999878
 3829.0001000 0.0250000004 -127.7499924  -999.250000 2.3970000744 92.527999878
 3829.1001000 0.0250000004 -127.7499924  -999.250000 2.3970000744 92.527999878
 3829.2001000 0.0250000004 -127.7499924  -999.250000 2.3970000744 92.527999878
 3829.3001000 0.0250000004 -127.7499924  -999.250000 2.3970000744 92.527999878
 3829.4001000 0.0250000004 -127.7499924  -999.250000 2.3970000744 92.527999878
 3829.5001000 0.0250000004 -127.7499924  -999.250000 2.3970000744 92.527999878
 3829.6001000 0.0250000004 -127.7499924  -999.250000 2.3970000744 92.527999878
 3829.7001000 0.0250000004  -999.250000  -999.250000 2.3970000744 92.527999878
 3829.8001000 0.0250000004  -999.250000  -999.250000 2.3970000744 92.527999878
 3829.9001000  -999.250000  -999.250000  -999.250000 2.3970000744  -999.250000
 3830.0001000  -999.250000  -999.250000  -999.250000 2.3970000744  -999.250000
 3830.1001000  -999.250000  -999.250000  -999.250000 2.3970000744  -999.250000
 3830.2001000  -999.250000  -999.250000  -999.250000 2.3970000744  -999.250000
 3830.3001000  -999.250000  -999.250000  -999.250000 2.3970000744  -999.250000
 3830.4001000  -999.250000  -999.250000  -999.250000 2.3970000744  -999.250000
 3830.5001000  -999.250000  -999.250000  -999.250000 2.3970000744  -999.250000
 3830.6001000  -999.250000  -999.250000  -999.250000 2.3970000744  -999.250000
 3830.7001000  -999.250000  -999.250000  -999.250000  -999.250000  -999.250000
 3830.8001000  -999.250000  -999.250000  -999.250000  -999.250000  -999.250000
 3830.9001000  -999.250000  -999.250000  -999.250000  -999.250000  -999.250000
 3831.0001000  -999.250000  -999.250000  -999.250000  -999.250000  -999.250000
