# LAS format log file from PETREL
# Project units are specified as depth units
#==================================================================
~Version information
VERS.   2.0:
WRAP.   NO:
#==================================================================
~Well
STRT.m   0.0000                                    :START DEPTH    
STOP.m   3831.0001                                 :STOP DEPTH     
STEP.m   0.1000                                    :STEP           
NULL.    -999.25                                   :NULL VALUE     
COMP.    Fletcher Challenge Energy                 :COMPANY        
WELL.    Pohokura-2                                :WELL           
FLD .    Pohokura                                  :FIELD          
LOC .    LAT -38.9081310  LON 174.2621355          :LOCATION       
LATI.    -38.9081310                               :SURF. LATITUDE 
LONG.   174.2621355                               :SURF. LONGITUDE
EKB .m   30.200                                    :KB ELEVATION   
EGL .m   -36.940                                   :GROUND LEVEL   
CTRY.    New Zealand                               :COUNTRY        
SRVC.                                              :SERVICE COMPANY
DATE.    27-6-2000 (D-M-Y)                         :LOG DATE       
UWI .    GEO391  
#==================================================================
~Curve
DEPT .m                   : DEPTH
CNL .m3/m3                : CNL
SP .mV                    : SP
BHC .us/ft                : BHC
FDC .g/cm3                : FDC
GRI .API                  : GRI
~Parameter
#==================================================================
~Ascii
# ...
 1815.6000000 0.4329999983 -265.3750000  -999.250000 2.0690000057 27.120000839
 1815.7000000 0.4600000083 -265.3750000  -999.250000 2.0599999428 28.451000214
 1815.8000000 0.4499999881 -265.1250000  -999.250000 2.0360000134 31.313999176
 1815.9000000 0.4499999881 -264.5000000  -999.250000 2.0360000134 31.313999176
 1816.0000000 0.4219999909 -264.5000000  -999.250000 2.0380001068 31.200000763
 1816.1000000 0.3950000107 -265.3750000  -999.250000 2.0460000038 32.183998108
 1816.2000000 0.3950000107 -265.2500000  -999.250000 2.0460000038 32.183998108
 1816.3000000 0.4090000093 -265.2500000  -999.250000 2.0520000458 32.437000275
 1816.4000000 0.4550000131 -266.0630188  -999.250000 2.0469999313 32.451000214
 1816.5000000 0.4550000131 -268.8750000  -999.250000 2.0469999313 32.451000214
 1816.6000000 0.4889999926 -268.8750000  -999.250000 2.0460000038 29.218999863
 1816.7000000 0.4790000021 -266.3129883  -999.250000 2.0469999313 29.878000259
 1816.8000000 0.4790000021 -267.2500000  -999.250000 2.0469999313 29.878000259
 1816.9000000 0.4429999888 -267.2500000  -999.250000 2.0559999943 32.736999512
 1817.0000000 0.4239999950 -270.2500000  -999.250000 2.0490000248 36.185001373
 1817.1000000 0.4239999950 -267.3129883  -999.250000 2.0490000248 36.185001373
 1817.2000000 0.4180000126 -267.3129883  -999.250000 2.0409998894 34.355998993
 1817.3000000 0.4440000057 -268.9379883  -999.250000 2.0409998894 31.306999207
 1817.4000000 0.4440000057 -268.9379883  -999.250000 2.0409998894 31.306999207
 1817.5000000 0.4670000076 -265.7500000  -999.250000 2.0520000458 30.312999725
 1817.6000000 0.4970000088 -269.5629883  -999.250000 2.0420000553 31.767999649
 1817.7000000 0.4970000088 -269.5629883  -999.250000 2.0420000553 31.767999649
 1817.8000000 0.5159999728 -270.4379883  -999.250000 2.0439999104 33.591999054
 1817.9000000 0.5159999728 -266.6879883  -999.250000 2.0439999104 33.591999054
 1818.0000000 0.4970000088 -266.6879883  -999.250000 2.0290000439 33.643001556
 1818.1000000 0.4720000029 -268.7500000  -999.250000 2.0309998989 34.264999390
 1818.2000000 0.4720000029 -270.1250000  -999.250000 2.0309998989 34.264999390
 1818.3000000 0.4480000138 -270.1250000  -999.250000 2.0209999084 35.228000641
 1818.4000000 0.4880000055 -269.0629883  -999.250000 2.0439999104 32.951999664
 1818.5000000 0.4880000055 -269.0000000  -999.250000 2.0439999104 32.951999664
 1818.6000000 0.5120000243 -269.0000000  -999.250000 2.0550000668 28.458000183
 1818.7000000 0.5090000033 -267.1879883  -999.250000 2.0769999027 24.788999557
 1818.8000000 0.5090000033 -268.9379883  -999.250000 2.0769999027 24.788999557
 1818.9000000 0.4709999859 -268.9379883  -999.250000 2.0729999542 23.809000015
 1819.0000000 0.4449999928 -269.6879883  -999.250000 2.0639998913 26.736999512
 1819.1000000 0.4449999928 -269.4379883  -999.250000 2.0639998913 26.736999512
 1819.2000000 0.4359999895 -269.4379883  -999.250000 2.0550000668 27.878000259
 1819.3000000 0.4539999962 -269.5629883  -999.250000 2.0469999313 31.903999329
 1819.4000000 0.4539999962 -267.3129883  -999.250000 2.0469999313 31.903999329
 1819.5000000 0.4399999976 -267.3129883  -999.250000 2.0199999809 29.719999313
 1819.6000000 0.4370000064 -267.1250000  -999.250000 2.0130000114 32.157001495
 1819.7000000 0.4370000064 -267.8129883  -999.250000 2.0130000114 32.157001495
 1819.8000000 0.4070000052 -267.8129883  -999.250000 1.9989999533 29.632999420
 1819.9000000 0.4140000045 -270.0000000  -999.250000 1.9950000048 32.091999054
 1820.0000000 0.4140000045 -270.0629883  -999.250000 1.9950000048 32.091999054
 1820.1000000 0.4449999928 -270.0629883  -999.250000 1.9830000401 29.920999527
 1820.2000000 0.4609999955 -269.7500000  -999.250000 2.0030000210 30.437000275
 1820.3000000 0.4609999955 -269.7500000  -999.250000 2.0030000210 30.437000275
 1820.4000000 0.4530000091 -268.8750000  -999.250000 2.0160000324 30.193000793
 1820.5000000 0.4390000105 -270.3129883  -999.250000 2.0150001049 31.497999191
 1820.6000000 0.4390000105 -270.3129883  -999.250000 2.0150001049 31.497999191
 1820.7000000 0.4320000112 -267.8750000  -999.250000 2.0269999504 33.637001038
 1820.8000000 0.4699999988 -266.0630188  -999.250000 2.0320000648 34.041999817
 1820.9000000 0.4699999988 -266.0630188  -999.250000 2.0320000648 34.041999817
 1821.0000000 0.5000000000 -269.7500000  -999.250000 2.0360000134 37.569000244
 1821.1000000 0.5000000000 -271.0629883  -999.250000 2.0360000134 37.569000244
 1821.2000000 0.4959999919 -271.0629883  -999.250000 2.0090000629 38.666000366
 1821.3000000 0.4620000124 -270.7500000  -999.250000 2.0069999695 40.520999908
 1821.4000000 0.4620000124 -269.5629883  -999.250000 2.0069999695 40.520999908
 1821.5000000 0.4390000105 -269.5629883  -999.250000 1.9880000353 38.096000671
 1821.6000000 0.4219999909 -270.9379883  -999.250000 1.9789999723 33.290000916
 1821.7000000 0.4219999909 -270.6250000  -999.250000 1.9789999723 33.290000916
 1821.8000000 0.4289999902 -270.6250000  -999.250000 1.9639999866 30.847999573
 1821.9000000 0.4199999869 -270.0000000  -999.250000 1.9470000267 31.892999649
 1822.0000000 0.4199999869 -269.5629883  -999.250000 1.9470000267 31.892999649
 1822.1000000 0.4420000017 -269.5629883  -999.250000 1.9520000219 38.972999573
 1822.2000000 0.4269999862 -269.6250000  -999.250000 1.9550000429 40.208999634
 1822.3000000 0.4269999862 -268.9379883  -999.250000 1.9550000429 40.208999634
 1822.4000000 0.4250000119 -268.9379883  -999.250000 1.9490000010 38.319999695
 1822.5000000 0.4149999917 -269.5000000  -999.250000 1.9559999704 33.944999695
 1822.6000000 0.4149999917 -269.6879883  -999.250000 1.9559999704 33.944999695
 1822.7000000 0.4699999988 -269.6879883  -999.250000 1.9680000544 34.097000122
 1822.8000000 0.4790000021 -269.3750000  -999.250000 1.9750000238 36.089000702
 1822.9000000 0.4790000021 -267.5629883  -999.250000 1.9750000238 36.089000702
 1823.0000000 0.4720000029 -267.5629883  -999.250000 1.9750000238 35.066001892
 1823.1000000 0.4650000036 -268.8129883  -999.250000 1.9839999676 34.659999847
 1823.2000000 0.4650000036 -269.6879883  -999.250000 1.9839999676 34.659999847
 1823.3000000 0.4239999950 -269.6879883  -999.250000 1.9850000143 34.891998291
 1823.4000000 0.4110000134 -269.3750000  -999.250000 1.9830000401 40.408000946
 1823.5000000 0.4110000134 -269.3750000  -999.250000 1.9830000401 40.408000946
 1823.6000000 0.3759999871 -269.1879883  -999.250000 1.9850000143 39.525001526
 1823.7000000 0.4129999876 -271.1879883  -999.250000 1.9659999609 41.409999847
 1823.8000000 0.4129999876 -271.1879883  -999.250000 1.9659999609 41.409999847
 1823.9000000 0.4210000038 -271.0629883  -999.250000 1.9459999800 38.770000458
 1824.0000000 0.4099999964 -271.8750000  -999.250000 1.9340000153 40.433998108
 1824.1000000 0.4099999964 -271.8750000  -999.250000 1.9340000153 40.433998108
 1824.2000000 0.4099999964 -272.1879883  -999.250000 1.9370000362 38.037998199
 1824.3000000 0.4099999964 -272.5629883  -999.250000 1.9370000362 38.037998199
 1824.4000000 0.3919999897 -272.5629883  -999.250000 1.9550000429 40.888000488
 1824.5000000 0.3959999979 -272.5000000  -999.250000 1.9609999657 42.757999420
 1824.6000000 0.3959999979 -271.9379883  -999.250000 1.9609999657 42.757999420
 1824.7000000 0.3700000048 -271.9379883  -999.250000 1.9479999542 43.166000366
 1824.8000000 0.3779999912 -271.5000000  -999.250000 1.9420000315 40.150001526
 1824.9000000 0.3779999912 -270.3129883  -999.250000 1.9420000315 40.150001526
 1825.0000000 0.4000000060 -270.3129883  -999.250000 1.9290000200 38.263000488
 1825.1000000 0.3860000074 -269.6879883  -999.250000 1.9069999456 39.877998352
 1825.2000000 0.3860000074 -268.6879883  -999.250000 1.9069999456 39.877998352
 1825.3000000 0.3939999938 -268.6879883  -999.250000 1.8990000486 41.561000824
 1825.4000000 0.3680000007 -267.7500000  -999.250000 1.8890000582 39.168998718
 1825.5000000 0.3680000007 -268.5629883  -999.250000 1.8890000582 39.168998718
 1825.6000000 0.3819999993 -268.5629883  -999.250000 1.8890000582 42.436000824
 1825.7000000 0.3740000129 -269.3750000  -999.250000 1.8949999809 43.973999023
