# LAS format log file from PETREL
# Project units are specified as depth units
#==================================================================
~Version information
VERS.   2.0:
WRAP.   NO:
#==================================================================
~Well
STRT.m   0.0000                                    :START DEPTH    
STOP.m   3831.0001                                 :STOP DEPTH     
STEP.m   0.1000                                    :STEP           
NULL.    -999.25                                   :NULL VALUE     
COMP.    Fletcher Challenge Energy                 :COMPANY        
WELL.    Pohokura-2                                :WELL           
FLD .    Pohokura                                  :FIELD          
LOC .    LAT -38.9081310  LON 174.2621355          :LOCATION       
LATI.    -38.9081310                               :SURF. LATITUDE 
LONG.   174.2621355                               :SURF. LONGITUDE
EKB .m   30.200                                    :KB ELEVATION   
EGL .m   -36.940                                   :GROUND LEVEL   
CTRY.    New Zealand                               :COUNTRY        
SRVC.                                              :SERVICE COMPANY
DATE.    27-6-2000 (D-M-Y)                         :LOG DATE       
UWI .    GEO391  
#==================================================================
~Curve
DEPT .m                   : DEPTH
CNL .m3/m3                : CNL
SP .mV                    : SP
BHC .us/ft                : BHC
FDC .g/cm3                : FDC
GRI .API                  : GRI
~Parameter
#==================================================================
~Ascii
# ...
 2927.4000000 0.2349999994 -180.7500000  -999.250000 2.6050000191 88.593002319
 2927.5000000 0.2349999994 -179.7500000  -999.250000 2.6050000191 88.593002319
 2927.6000000 0.2080000043 -179.7500000  -999.250000 2.6129999161 90.435997009
 2927.7000000 0.2039999962 -177.1879883  -999.250000 2.6029999256 91.801002502
 2927.8000000 0.2039999962 -177.2500000  -999.250000 2.6029999256 91.801002502
 2927.9000000 0.2080000043 -177.2500000  -999.250000 2.5929999352 89.897003174
 2928.0000000 0.2109999955 -177.1879883  -999.250000 2.5859999657 89.771003723
 2928.1000000 0.2109999955 -180.5630035  -999.250000 2.5859999657 89.771003723
 2928.2000000 0.2389999926 -180.5630035  -999.250000 2.5980000496 88.791000366
 2928.3000000 0.2430000007 -177.5630035  -999.250000 2.6050000191 87.792999268
 2928.4000000 0.2430000007 -177.5630035  -999.250000 2.6050000191 87.792999268
 2928.5000000 0.2389999926 -179.9380035  -999.250000 2.6119999886 86.652000427
 2928.6000000 0.2349999994 -178.7500000  -999.250000 2.6180000305 85.194999695
 2928.7000000 0.2349999994 -178.7500000  -999.250000 2.6180000305 85.194999695
 2928.8000000 0.2329999954 -176.9380035  -999.250000 2.6229999065 84.120002747
 2928.9000000 0.2319999933 -178.5630035  -999.250000 2.6199998856 85.531997681
 2929.0000000 0.2319999933 -178.5630035  -999.250000 2.6199998856 85.531997681
 2929.1000000 0.2380000055 -178.1250000  -999.250000 2.6199998856 86.944000244
 2929.2000000 0.2380000055 -177.1250000  -999.250000 2.6199998856 86.944000244
 2929.3000000 0.2409999967 -177.1250000  -999.250000 2.6150000095 87.941001892
 2929.4000000 0.2399999946 -178.0000000  -999.250000 2.6119999886 88.316001892
 2929.5000000 0.2399999946 -177.3130035  -999.250000 2.6119999886 88.316001892
 2929.6000000 0.2329999954 -177.3130035  -999.250000 2.6010000706 92.857002258
 2929.7000000 0.2319999933 -176.8750000  -999.250000 2.6059999466 90.333999634
 2929.8000000 0.2319999933 -176.5000000  -999.250000 2.6059999466 90.333999634
 2929.9000000 0.2419999987 -176.5000000  -999.250000 2.6119999886 88.674003601
 2930.0000000 0.2430000007 -179.1250000  -999.250000 2.6119999886 88.719001770
 2930.1000000 0.2430000007 -180.5000000  -999.250000 2.6119999886 88.719001770
 2930.2000000 0.2370000035 -180.5000000  -999.250000 2.6210000515 93.641998291
 2930.3000000 0.2389999926 -180.0000000  -999.250000 2.6210000515 94.164001465
 2930.4000000 0.2389999926 -179.3130035  -999.250000 2.6210000515 94.164001465
 2930.5000000 0.2399999946 -179.3130035  -999.250000 2.6219999790 92.167999268
 2930.6000000 0.2460000068 -179.1250000  -999.250000 2.6219999790 89.160003662
 2930.7000000 0.2460000068 -177.5000000  -999.250000 2.6219999790 89.160003662
 2930.8000000 0.2509999871 -177.5000000  -999.250000 2.6259999275 88.210998535
 2930.9000000 0.2540000081 -179.6880035  -999.250000 2.6270000935 87.956001282
 2931.0000000 0.2540000081 -179.0000000  -999.250000 2.6270000935 87.956001282
 2931.1000000 0.2520000041 -179.0000000  -999.250000 2.6250000000 91.232002258
 2931.2000000 0.2500000000 -177.8129883  -999.250000 2.6329998970 94.636001587
 2931.3000000 0.2500000000 -177.2500000  -999.250000 2.6329998970 94.636001587
 2931.4000000 0.2489999980 -177.2500000  -999.250000 2.6370000839 95.984001160
 2931.5000000 0.2300000042 -179.1880035  -999.250000 2.6400001049 91.392997742
 2931.6000000 0.2300000042 -179.1880035  -999.250000 2.6400001049 91.392997742
 2931.7000000 0.2280000001 -176.1250000  -999.250000 2.6270000935 87.430999756
 2931.8000000 0.2099999934 -177.2500000  -999.250000 2.6329998970 83.419998169
 2931.9000000 0.2099999934 -177.2500000  -999.250000 2.6329998970 83.419998169
 2932.0000000 0.2119999975 -177.8750000  -999.250000 2.6150000095 88.857002258
 2932.1000000 0.2300000042 -177.8750000  -999.250000 2.6170001030 90.058998108
 2932.2000000 0.2300000042 -177.8750000  -999.250000 2.6170001030 90.058998108
 2932.3000000 0.2230000049 -178.3750000  -999.250000 2.6129999161 90.837997437
 2932.4000000 0.2230000049 -177.1250000  -999.250000 2.6129999161 90.837997437
 2932.5000000 0.2150000036 -177.1250000  -999.250000 2.6210000515 92.512001038
 2932.6000000 0.2080000043 -178.8129883  -999.250000 2.6180000305 92.933998108
 2932.7000000 0.2080000043 -178.5630035  -999.250000 2.6180000305 92.933998108
 2932.8000000 0.2140000015 -178.5630035  -999.250000 2.6119999886 92.896003723
 2932.9000000 0.2280000001 -177.4380035  -999.250000 2.6070001125 90.680000305
 2933.0000000 0.2280000001 -180.5000000  -999.250000 2.6070001125 90.680000305
 2933.1000000 0.2399999946 -180.5000000  -999.250000 2.6080000401 93.065002441
 2933.2000000 0.2339999974 -180.7500000  -999.250000 2.6089999676 92.872001648
 2933.3000000 0.2339999974 -177.9380035  -999.250000 2.6089999676 92.872001648
 2933.4000000 0.2370000035 -177.9380035  -999.250000 2.6140000820 94.984001160
 2933.5000000 0.2269999981 -179.5000000  -999.250000 2.6050000191 94.194999695
 2933.6000000 0.2269999981 -176.7500000  -999.250000 2.6050000191 94.194999695
 2933.7000000 0.2230000049 -176.7500000  -999.250000 2.5969998837 95.802001953
 2933.8000000 0.2129999995 -179.3750000  -999.250000 2.5850000381 93.319999695
 2933.9000000 0.2129999995 -178.0630035  -999.250000 2.5850000381 93.319999695
 2934.0000000 0.2189999968 -178.0630035  -999.250000 2.5869998932 90.685997009
 2934.1000000 0.2240000069 -178.9380035  -999.250000 2.5840001106 90.873001099
 2934.2000000 0.2240000069 -177.8129883  -999.250000 2.5840001106 90.873001099
 2934.3000000 0.2269999981 -177.8129883  -999.250000 2.5869998932 89.542999268
 2934.4000000 0.2269999981 -175.6880035  -999.250000 2.5980000496 88.737998962
 2934.5000000 0.2269999981 -176.6880035  -999.250000 2.5980000496 88.737998962
 2934.6000000 0.2140000015 -176.6880035  -999.250000 2.6099998951 90.732002258
 2934.7000000 0.2230000049 -180.4380035  -999.250000 2.6059999466 95.180999756
 2934.8000000 0.2230000049 -180.4380035  -999.250000 2.6059999466 95.180999756
 2934.9000000 0.2240000069 -179.1880035  -999.250000 2.6059999466 96.348999023
 2935.0000000 0.2389999926 -177.8750000  -999.250000 2.5899999142 97.369003296
 2935.1000000 0.2389999926 -177.8750000  -999.250000 2.5899999142 97.369003296
 2935.2000000 0.2469999939 -178.0000000  -999.250000 2.6019999981 96.404998779
 2935.3000000 0.2469999939 -177.5000000  -999.250000 2.6019999981 96.404998779
 2935.4000000 0.2560000122 -177.5000000  -999.250000 2.6019999981 95.335998535
 2935.5000000 0.2549999952 -175.8750000  -999.250000 2.6159999371 93.754997253
 2935.6000000 0.2549999952 -175.8750000  -999.250000 2.6159999371 93.754997253
 2935.7000000 0.2509999871 -175.8750000  -999.250000 2.6010000706 90.635002136
 2935.8000000 0.2399999946 -178.0630035  -999.250000 2.5980000496 91.483001709
 2935.9000000 0.2399999946 -177.1879883  -999.250000 2.5980000496 91.483001709
 2936.0000000 0.2399999946 -177.1879883  -999.250000 2.5940001011 89.581001282
 2936.1000000 0.2339999974 -177.7500000  -999.250000 2.5969998837 88.299003601
 2936.2000000 0.2339999974 -178.0630035  -999.250000 2.5969998837 88.299003601
 2936.3000000 0.2319999933 -178.0630035  -999.250000 2.5959999561 88.502998352
 2936.4000000 0.2389999926 -181.0000000  -999.250000 2.6010000706 88.706001282
 2936.5000000 0.2389999926 -181.8750000  -999.250000 2.6010000706 88.706001282
 2936.6000000 0.2479999959 -181.8750000  -999.250000 2.6089999676 88.786003113
 2936.7000000 0.2440000027 -177.1250000  -999.250000 2.6150000095 88.527000427
 2936.8000000 0.2440000027 -180.3130035  -999.250000 2.6150000095 88.527000427
 2936.9000000 0.2380000055 -180.3130035  -999.250000 2.6129999161 88.268997192
 2937.0000000 0.2319999933 -177.6250000  -999.250000 2.6110000610 88.010002136
 2937.1000000 0.2319999933 -179.1880035  -999.250000 2.6110000610 88.010002136
 2937.2000000 0.2280000001 -179.1880035  -999.250000 2.6150000095 88.266998291
 2937.3000000 0.2280000001 -179.3130035  -999.250000 2.6119999886 89.958999634
 2937.4000000 0.2280000001 -180.8750000  -999.250000 2.6119999886 89.958999634
 2937.5000000 0.2280000001 -180.8750000  -999.250000 2.6099998951 94.259002686
