# LAS format log file from PETREL
# Project units are specified as depth units
#==================================================================
~Version information
VERS.   2.0:
WRAP.   NO:
#==================================================================
~Well
STRT.m   0.0000                                    :START DEPTH    
STOP.m   3831.0001                                 :STOP DEPTH     
STEP.m   0.1000                                    :STEP           
NULL.    -999.25                                   :NULL VALUE     
COMP.    Fletcher Challenge Energy                 :COMPANY        
WELL.    Pohokura-2                                :WELL           
FLD .    Pohokura                                  :FIELD          
LOC .    LAT -38.9081310  LON 174.2621355          :LOCATION       
LATI.    -38.9081310                               :SURF. LATITUDE 
LONG.   174.2621355                               :SURF. LONGITUDE
EKB .m   30.200                                    :KB ELEVATION   
EGL .m   -36.940                                   :GROUND LEVEL   
CTRY.    New Zealand                               :COUNTRY        
SRVC.                                              :SERVICE COMPANY
DATE.    27-6-2000 (D-M-Y)                         :LOG DATE       
UWI .    GEO391  
#==================================================================
~Curve
DEPT .m                   : DEPTH
CNL .m3/m3                : CNL
SP .mV                    : SP
BHC .us/ft                : BHC
FDC .g/cm3                : FDC
GRI .API                  : GRI
~Parameter
#==================================================================
~Ascii
# ...
 1142.4000000 0.2899999917 -86.75000000 94.883003235  -999.250000 105.79399872
 1142.5000000 0.2939999998 -86.37500000 93.916000366  -999.250000 104.75800323
 1142.6000000 0.2939999998 -81.87500000 93.916000366  -999.250000 104.75800323
 1142.7000000 0.2739999890 -81.87500000 94.853996277  -999.250000 100.57599640
 1142.8000000 0.3059999943 -84.62500000 94.306999207  -999.250000 103.20400238
 1142.9000000 0.3059999943 -85.31300354 94.306999207  -999.250000 103.20400238
 1143.0000000 0.3230000138 -85.31300354 93.955001831  -999.250000 102.50800323
 1143.1000000 0.3389999866 -83.12500000 95.313003540  -999.250000 101.14299774
 1143.2000000 0.3389999866 -92.31300354 95.313003540  -999.250000 101.14299774
 1143.3000000 0.3409999907 -92.31300354 93.984001160  -999.250000 97.875000000
 1143.4000000 0.3420000076 -86.18800354 94.883003235  -999.250000 102.34799957
 1143.5000000 0.3420000076 -86.93800354 94.883003235  -999.250000 102.34799957
 1143.6000000 0.3519999981 -86.93800354 94.902000427  -999.250000 107.77600098
 1143.7000000 0.3569999933 -87.06300354 94.950996399  -999.250000 108.03600311
 1143.8000000 0.3569999933 -87.87500000 94.950996399  -999.250000 108.03600311
 1143.9000000 0.3400000036 -87.87500000 95.313003540  -999.250000 102.99600220
 1144.0000000 0.3339999914 -87.12500000 96.162002563  -999.250000 101.89099884
 1144.1000000 0.3339999914 -87.12500000 96.162002563  -999.250000 101.89099884
 1144.2000000 0.3350000083 -88.68800354 96.044998169  -999.250000 107.57800293
 1144.3000000 0.3519999981 -82.18800354 96.474998474  -999.250000 102.82800293
 1144.4000000 0.3519999981 -82.18800354 96.474998474  -999.250000 102.82800293
 1144.5000000 0.3680000007 -85.31300354 96.924003601  -999.250000 97.816001892
 1144.6000000 0.3680000007 -83.62500000 96.924003601  -999.250000 97.816001892
 1144.7000000 0.3790000081 -83.62500000 96.308998108  -999.250000 90.970001221
 1144.8000000 0.4050000012 -86.37500000 95.527000427  -999.250000 95.225997925
 1144.9000000 0.4050000012 -88.75000000 95.527000427  -999.250000 95.225997925
 1145.0000000 0.4370000064 -88.75000000 95.361000061  -999.250000 99.486000061
 1145.1000000 0.4280000031 -87.75000000 95.000000000  -999.250000 102.68699646
 1145.2000000 0.4280000031 -87.62500000 95.000000000  -999.250000 102.68699646
 1145.3000000 0.3950000107 -87.62500000 94.667999268  -999.250000 98.023002625
 1145.4000000 0.3490000069 -87.68800354 95.303001404  -999.250000 101.90799713
 1145.5000000 0.3490000069 -82.81300354 95.303001404  -999.250000 101.90799713
 1145.6000000 0.3100000024 -82.81300354 94.237998962  -999.250000 101.04900360
 1145.7000000 0.3190000057 -87.87500000 94.794998169  -999.250000 103.48300171
 1145.8000000 0.3190000057 -90.31300354 94.794998169  -999.250000 103.48300171
 1145.9000000 0.3179999888 -90.31300354 94.794998169  -999.250000 98.082000732
 1146.0000000 0.3350000083 -87.93800354 94.707000732  -999.250000 96.705001831
 1146.1000000 0.3350000083 -89.18800354 94.707000732  -999.250000 96.705001831
 1146.2000000 0.3230000138 -89.18800354 95.703002930  -999.250000 98.740997314
 1146.3000000 0.3190000057 -87.00000000 95.321998596  -999.250000 100.15299988
 1146.4000000 0.3190000057 -86.43801117 95.321998596  -999.250000 100.15299988
 1146.5000000 0.3310000002 -86.43801117 95.596000671  -999.250000 100.55300140
 1146.6000000 0.3330000043 -87.06300354 95.214996338  -999.250000 101.99800110
 1146.7000000 0.3330000043 -87.06300354 95.214996338  -999.250000 101.99800110
 1146.8000000 0.3510000110 -87.06300354 95.010002136  -999.250000 97.741996765
 1146.9000000 0.3339999914 -87.25000000 94.472999573  -999.250000 98.283996582
 1147.0000000 0.3339999914 -87.37500000 94.472999573  -999.250000 98.283996582
 1147.1000000 0.3289999962 -87.37500000 94.140998840  -999.250000 93.983001709
 1147.2000000 0.3179999888 -84.12500000 94.375000000  -999.250000 98.495002747
 1147.3000000 0.3179999888 -84.12500000 94.375000000  -999.250000 98.495002747
 1147.4000000 0.3429999948 -85.62500000 94.355003357  -999.250000 96.859001160
 1147.5000000 0.3379999995 -85.50000000 94.580001831  -999.250000 100.27999878
 1147.6000000 0.3379999995 -85.50000000 94.580001831  -999.250000 100.27999878
 1147.7000000 0.3059999943 -79.87500000 96.035003662  -999.250000 99.111999512
 1147.8000000 0.3059999943 -86.56300354 96.035003662  -999.250000 99.111999512
 1147.9000000 0.2750000060 -86.56300354 95.087997437  -999.250000 95.580001831
 1148.0000000 0.2779999971 -85.81300354 95.596000671  -999.250000 94.268997192
 1148.1000000 0.2779999971 -90.31300354 95.596000671  -999.250000 94.268997192
 1148.2000000 0.3059999943 -90.31300354 95.556999207  -999.250000 97.238998413
 1148.3000000 0.3100000024 -85.12500000 94.248001099  -999.250000 100.46399689
 1148.4000000 0.3100000024 -92.50000000 94.248001099  -999.250000 100.46399689
 1148.5000000 0.3280000091 -92.50000000 94.198997498  -999.250000 101.44000244
 1148.6000000 0.3440000117 -82.25000000 93.896003723  -999.250000 104.83000183
 1148.7000000 0.3440000117 -86.68800354 93.896003723  -999.250000 104.83000183
 1148.8000000 0.3260000050 -86.68800354 93.271003723  -999.250000 105.47499847
 1148.9000000 0.3260000050 -83.50000000 92.958999634  -999.250000 103.43699646
 1149.0000000 0.3260000050 -90.12500000 92.958999634  -999.250000 103.43699646
 1149.1000000 0.3089999855 -90.12500000 92.939002991  -999.250000 100.48899841
 1149.2000000 0.3449999988 -88.75000000 92.987998962  -999.250000 99.054000854
 1149.3000000 0.3449999988 -87.81300354 92.987998962  -999.250000 99.054000854
 1149.4000000 0.3499999940 -87.81300354 92.655998230  -999.250000 99.938003540
 1149.5000000 0.3319999874 -90.75000000 92.832000732  -999.250000 99.469001770
 1149.6000000 0.3319999874 -88.68800354 92.832000732  -999.250000 99.469001770
 1149.7000000 0.3389999866 -88.68800354 94.189002991  -999.250000 97.300003052
 1149.8000000 0.3639999926 -86.00000000 92.236000061  -999.250000 95.198997498
 1149.9000000 0.3639999926 -86.25000000 92.236000061  -999.250000 95.198997498
 1150.0000000 0.3829999864 -86.25000000 97.069999695  -999.250000 93.588996887
 1150.1000000 0.3560000062 -87.06300354 94.521003723  -999.250000 96.279998779
 1150.2000000 0.3560000062 -83.12500000 94.521003723  -999.250000 96.279998779
 1150.3000000 0.3280000091 -83.12500000 94.219001770  -999.250000 98.689002991
 1150.4000000 0.3179999888 -85.93800354 94.198997498  -999.250000 100.30799866
 1150.5000000 0.3179999888 -85.93800354 94.198997498  -999.250000 100.30799866
 1150.6000000 0.3199999928 -87.25000000 93.573997498  -999.250000 101.09899902
 1150.7000000 0.3170000017 -84.06300354 95.049003601  -999.250000 103.13200378
 1150.8000000 0.3170000017 -84.06300354 95.049003601  -999.250000 103.13200378
 1150.9000000 0.3129999936 -85.06300354 94.501998901  -999.250000 108.40000153
 1151.0000000 0.3129999936 -85.68800354 94.501998901  -999.250000 108.40000153
 1151.1000000 0.3039999902 -85.68800354 95.448997498  -999.250000 111.41000366
 1151.2000000 0.3519999981 -85.75000000 94.678001404  -999.250000 110.76499939
 1151.3000000 0.3519999981 -86.62500000 94.678001404  -999.250000 110.76499939
 1151.4000000 0.3759999871 -86.62500000 95.176002502  -999.250000 103.99299622
 1151.5000000 0.3860000074 -88.18801117 96.035003662  -999.250000 103.63600159
 1151.6000000 0.3860000074 -85.50000000 96.035003662  -999.250000 103.63600159
 1151.7000000 0.3670000136 -85.50000000 94.862998962  -999.250000 101.31400299
 1151.8000000 0.3170000017 -86.93800354 95.137001038  -999.250000 100.55599976
 1151.9000000 0.3170000017 -85.43800354 95.137001038  -999.250000 100.55599976
 1152.0000000 0.3009999990 -85.43800354 95.585998535  -999.250000 100.87000275
 1152.1000000 0.2800000012 -82.43800354 95.371002197  -999.250000 106.72000122
 1152.2000000 0.2800000012 -90.62500000 95.371002197  -999.250000 106.72000122
 1152.3000000 0.2720000148 -90.62500000 95.869003296  -999.250000 111.86100006
 1152.4000000 0.3000000119 -86.00000000 97.724998474  -999.250000 116.05799866
 1152.5000000 0.3000000119 -87.93800354 97.724998474  -999.250000 116.05799866
