# LAS format log file from PETREL
# Project units are specified as depth units
#==================================================================
~Version information
VERS.   2.0:
WRAP.   NO:
#==================================================================
~Well
STRT.m   0.0000                                    :START DEPTH    
STOP.m   3831.0001                                 :STOP DEPTH     
STEP.m   0.1000                                    :STEP           
NULL.    -999.25                                   :NULL VALUE     
COMP.    Fletcher Challenge Energy                 :COMPANY        
WELL.    Pohokura-2                                :WELL           
FLD .    Pohokura                                  :FIELD          
LOC .    LAT -38.9081310  LON 174.2621355          :LOCATION       
LATI.    -38.9081310                               :SURF. LATITUDE 
LONG.   174.2621355                               :SURF. LONGITUDE
EKB .m   30.200                                    :KB ELEVATION   
EGL .m   -36.940                                   :GROUND LEVEL   
CTRY.    New Zealand                               :COUNTRY        
SRVC.                                              :SERVICE COMPANY
DATE.    27-6-2000 (D-M-Y)                         :LOG DATE       
UWI .    GEO391  
#==================================================================
~Curve
DEPT .m                   : DEPTH
CNL .m3/m3                : CNL
SP .mV                    : SP
BHC .us/ft                : BHC
FDC .g/cm3                : FDC
GRI .API                  : GRI
~Parameter
#==================================================================
~Ascii
# ...
 918.00000000 0.3779999912 -90.37500000 103.63300323  -999.250000 101.05300140
 918.10000000 0.3779999912 -89.00000000 103.63300323  -999.250000 101.05300140
 918.20000000 0.3930000067 -89.00000000 103.88700104  -999.250000 98.316001892
 918.30000000 0.4099999964 -87.50000000 103.85700226  -999.250000 97.291999817
 918.40000000 0.4099999964 -88.06300354 103.85700226  -999.250000 97.291999817
 918.50000000 0.4000000060 -88.06300354 104.41400146  -999.250000 97.634002686
 918.60000000 0.3939999938 -88.87500000 104.39499664  -999.250000 99.402000427
 918.70000000 0.3939999938 -88.87500000 104.39499664  -999.250000 99.402000427
 918.80000000 0.3959999979 -88.62500000 104.64800262  -999.250000 100.78700256
 918.90000000 0.3989999890 -92.56300354 104.88300323  -999.250000 101.42099762
 919.00000000 0.3989999890 -92.56300354 104.88300323  -999.250000 101.42099762
 919.10000000 0.4110000134 -85.93800354 104.91200256  -999.250000 100.44000244
 919.20000000 0.4110000134 -92.56300354 104.91200256  -999.250000 100.44000244
 919.30000000 0.3910000026 -92.56300354 105.13700104  -999.250000 97.757003784
 919.40000000 0.3829999864 -86.37500000 104.61900330  -999.250000 97.596000671
 919.50000000 0.3829999864 -88.12500000 104.61900330  -999.250000 97.596000671
 919.60000000 0.3840000033 -88.12500000 104.64800262  -999.250000 95.708999634
 919.70000000 0.4219999909 -84.43800354 104.44300079  -999.250000 101.82199860
 919.80000000 0.4219999909 -85.06300354 104.44300079  -999.250000 101.82199860
 919.90000000 0.4090000093 -85.06300354 104.10199738  -999.250000 106.95999908
 920.00000000 0.3959999979 -80.68800354 103.69100189  -999.250000 108.67900085
 920.10000000 0.3959999979 -90.93800354 103.69100189  -999.250000 108.67900085
 920.20000000 0.3619999886 -90.93800354 103.58399963  -999.250000 107.34300232
 920.30000000 0.3799999952 -88.68800354 103.70099640  -999.250000 99.825996399
 920.40000000 0.3799999952 -89.18800354 103.70099640  -999.250000 99.825996399
 920.50000000 0.3720000088 -89.18800354 103.73999786  -999.250000 98.108001709
 920.60000000 0.3840000033 -92.56300354 103.84799957  -999.250000 94.943000793
 920.70000000 0.3840000033 -89.18800354 103.84799957  -999.250000 94.943000793
 920.80000000 0.3919999897 -89.18800354 104.10199738  -999.250000 92.925003052
 920.90000000 0.4040000141 -88.06300354 103.91600037  -999.250000 89.919998169
 921.00000000 0.4040000141 -92.18800354 103.91600037  -999.250000 89.919998169
 921.10000000 0.3950000107 -92.18800354 103.15399933  -999.250000 91.162002563
 921.20000000 0.3650000095 -87.37500000 103.06600189  -999.250000 96.557998657
 921.30000000 0.3650000095 -92.25000000 103.06600189  -999.250000 96.557998657
 921.40000000 0.3589999974 -92.25000000 102.79299927  -999.250000 102.86900330
 921.50000000 0.3510000110 -85.37500000 102.60700226  -999.250000 105.30400085
 921.60000000 0.3510000110 -90.12500000 102.60700226  -999.250000 105.30400085
 921.70000000 0.3610000014 -90.12500000 103.10500336  -999.250000 102.16699982
 921.80000000 0.3770000041 -90.18800354 102.98799896  -999.250000 95.716003418
 921.90000000 0.3770000041 -90.18800354 102.98799896  -999.250000 95.716003418
 922.00000000 0.3860000074 -89.18800354 102.48999786  -999.250000 91.761001587
 922.10000000 0.3930000067 -89.62500000 102.38300323  -999.250000 89.388000488
 922.20000000 0.3930000067 -89.62500000 102.38300323  -999.250000 89.388000488
 922.30000000 0.3459999859 -91.12500000 102.27500153  -999.250000 90.046997070
 922.40000000 0.3459999859 -88.37500000 102.27500153  -999.250000 90.046997070
 922.50000000 0.3300000131 -88.37500000 102.38300323  -999.250000 91.941001892
 922.60000000 0.3400000036 -86.75000000 102.81300354  -999.250000 96.736999512
 922.70000000 0.3400000036 -90.12500000 102.81300354  -999.250000 96.736999512
 922.80000000 0.3540000021 -90.12500000 103.27100372  -999.250000 96.600997925
 922.90000000 0.3670000136 -84.87500000 103.56400299  -999.250000 96.831001282
 923.00000000 0.3670000136 -84.62500000 103.56400299  -999.250000 96.831001282
 923.10000000 0.3470000029 -84.62500000 103.77899933  -999.250000 98.283996582
 923.20000000 0.3560000062 -86.62500000 103.46700287  -999.250000 103.92900085
 923.30000000 0.3560000062 -88.93800354 103.46700287  -999.250000 103.92900085
 923.40000000 0.3569999933 -88.93800354 104.23799896  -999.250000 106.70600128
 923.50000000 0.3540000021 -91.43800354 104.56999969  -999.250000 106.31099701
 923.60000000 0.3540000021 -88.00000000 104.56999969  -999.250000 106.31099701
 923.70000000 0.3619999886 -88.00000000 104.49199677  -999.250000 105.40699768
 923.80000000 0.3759999871 -92.56300354 105.35199738  -999.250000 105.21800232
 923.90000000 0.3759999871 -87.06300354 105.35199738  -999.250000 105.21800232
 924.00000000 0.4099999964 -87.06300354 105.22499847  -999.250000 104.45700073
 924.10000000 0.4149999917 -85.93800354 105.14600372  -999.250000 106.81300354
 924.20000000 0.4149999917 -87.00000000 105.14600372  -999.250000 106.81300354
 924.30000000 0.4029999971 -87.00000000 104.83399963  -999.250000 104.68499756
 924.40000000 0.3740000129 -88.68800354 104.28700256  -999.250000 102.15799713
 924.50000000 0.3740000129 -84.18800354 104.28700256  -999.250000 102.15799713
 924.60000000 0.3759999871 -84.18800354 103.73000336  -999.250000 98.861999512
 924.70000000 0.4140000045 -85.75000000 103.59400177  -999.250000 97.003997803
 924.80000000 0.4140000045 -88.50000000 103.59400177  -999.250000 97.003997803
 924.90000000 0.4429999888 -88.50000000 103.65200043  -999.250000 97.316001892
 925.00000000 0.4120000005 -89.18800354 104.03299713  -999.250000 99.096000671
 925.10000000 0.4120000005 -89.18800354 104.03299713  -999.250000 99.096000671
 925.20000000 0.3569999933 -88.37500000 104.32599640  -999.250000 103.05999756
 925.30000000 0.3359999955 -92.81301117 104.31600189  -999.250000 103.40499878
 925.40000000 0.3359999955 -92.81301117 104.31600189  -999.250000 103.40499878
 925.50000000 0.3470000029 -89.93800354 104.38500214  -999.250000 101.72499847
 925.60000000 0.3470000029 -92.31300354 104.38500214  -999.250000 101.72499847
 925.70000000 0.3420000076 -92.31300354 104.22899628  -999.250000 105.81400299
 925.80000000 0.3409999907 -84.31300354 104.15000153  -999.250000 107.31300354
 925.90000000 0.3409999907 -84.62500000 104.15000153  -999.250000 107.31300354
 926.00000000 0.3720000088 -84.62500000 103.65200043  -999.250000 105.56199646
 926.10000000 0.3889999986 -84.75000000 103.64299774  -999.250000 100.93800354
 926.20000000 0.3889999986 -86.18800354 103.64299774  -999.250000 100.93800354
 926.30000000 0.3750000000 -86.18800354 102.78299713  -999.250000 95.341003418
 926.40000000 0.3529999852 -87.25000000 102.02100372  -999.250000 101.15899658
 926.50000000 0.3529999852 -87.18800354 102.02100372  -999.250000 101.15899658
 926.60000000 0.3549999893 -87.18800354 101.68000031  -999.250000 105.35900116
 926.70000000 0.3680000007 -87.12500000 100.80100250  -999.250000 107.86699677
 926.80000000 0.3680000007 -90.18800354 100.80100250  -999.250000 107.86699677
 926.90000000 0.4029999971 -90.18800354 98.769996643  -999.250000 107.60600281
 927.00000000 0.4070000052 -89.12500000 98.144996643  -999.250000 101.88800049
 927.10000000 0.4070000052 -88.00000000 98.144996643  -999.250000 101.88800049
 927.20000000 0.4079999924 -88.00000000 98.417999268  -999.250000 99.066001892
 927.30000000 0.3770000041 -84.93800354 99.364997864  -999.250000 96.718002319
 927.40000000 0.3770000041 -84.12500000 99.364997864  -999.250000 96.718002319
 927.50000000 0.3569999933 -84.12500000 101.17199707  -999.250000 94.160003662
 927.60000000 0.3269999921 -86.62500000 161.54299927  -999.250000 96.083000183
 927.70000000 0.3269999921 -87.18800354 161.54299927  -999.250000 96.083000183
 927.80000000 0.3359999955 -87.18800354 108.59400177  -999.250000 97.154998779
 927.90000000 0.3459999859 -86.81300354 101.22100067  -999.250000 101.12000275
 928.00000000 0.3459999859 -91.62500000 101.22100067  -999.250000 101.12000275
 928.10000000 0.3770000041 -91.62500000 100.96700287  -999.250000 100.58599854
