# LAS format log file from PETREL
# Project units are specified as depth units
#==================================================================
~Version information
VERS.   2.0:
WRAP.   NO:
#==================================================================
~Well
STRT.m   0.0000                                    :START DEPTH    
STOP.m   3831.0001                                 :STOP DEPTH     
STEP.m   0.1000                                    :STEP           
NULL.    -999.25                                   :NULL VALUE     
COMP.    Fletcher Challenge Energy                 :COMPANY        
WELL.    Pohokura-2                                :WELL           
FLD .    Pohokura                                  :FIELD          
LOC .    LAT -38.9081310  LON 174.2621355          :LOCATION       
LATI.    -38.9081310                               :SURF. LATITUDE 
LONG.   174.2621355                               :SURF. LONGITUDE
EKB .m   30.200                                    :KB ELEVATION   
EGL .m   -36.940                                   :GROUND LEVEL   
CTRY.    New Zealand                               :COUNTRY        
SRVC.                                              :SERVICE COMPANY
DATE.    27-6-2000 (D-M-Y)                         :LOG DATE       
UWI .    GEO391  
#==================================================================
~Curve
DEPT .m                   : DEPTH
CNL .m3/m3                : CNL
SP .mV                    : SP
BHC .us/ft                : BHC
FDC .g/cm3                : FDC
GRI .API                  : GRI
~Parameter
#==================================================================
~Ascii
# ...
 3600.6001000 0.0250000004 -147.1879883  -999.250000 2.4360001087 34.627998352
 3600.7001000 0.0260000005 -146.9380035  -999.250000 2.4500000477 33.841999054
 3600.8001000 0.0260000005 -147.5000000  -999.250000 2.4500000477 33.841999054
 3600.9001000 0.0240000002 -147.5000000  -999.250000 2.4700000286 33.633998871
 3601.0001000 0.0230000000 -146.6880035  -999.250000 2.4800000191 34.143001556
 3601.1001000 0.0230000000 -147.0000000  -999.250000 2.4800000191 34.143001556
 3601.2001000 0.0240000002 -147.0000000  -999.250000 2.4649999142 33.541000366
 3601.3001000 0.0270000007 -146.4380035  -999.250000 2.4400000572 33.534999847
 3601.4001000 0.0270000007 -145.7500000  -999.250000 2.4400000572 33.534999847
 3601.5001000 0.0270000007 -145.7500000  -999.250000 2.4360001087 33.057998657
 3601.6001000 0.0260000005 -146.8750000  -999.250000 2.4440000057 31.020999908
 3601.7001000 0.0260000005 -146.8750000  -999.250000 2.4440000057 31.020999908
 3601.8001000 0.0250000004 -146.6250000  -999.250000 2.4449999332 30.294000626
 3601.9001000 0.0230000000 -145.5000000  -999.250000 2.4389998913 32.277000427
 3602.0001000 0.0230000000 -145.5000000  -999.250000 2.4389998913 32.277000427
 3602.1001000 0.0219999999 -145.1880035  -999.250000 2.4379999638 33.047000885
 3602.2001000 0.0219999999 -145.3750000  -999.250000 2.4379999638 33.047000885
 3602.3001000 0.0219999999 -145.3750000  -999.250000 2.4400000572 35.887001038
 3602.4001000 0.0230000000 -146.6880035  -999.250000 2.4430000782 35.122001648
 3602.5001000 0.0230000000 -145.9379883  -999.250000 2.4430000782 35.122001648
 3602.6001000 0.0230000000 -145.9379883  -999.250000 2.4670000076 34.710998535
 3602.7001000 0.0250000004 -146.2500000  -999.250000 2.5280001163 39.513999939
 3602.8001000 0.0250000004 -146.1250000  -999.250000 2.5280001163 39.513999939
 3602.9001000 0.0480000004 -146.1250000  -999.250000 2.5429999828 50.229000092
 3603.0001000 0.0799999982 -146.8130035  -999.250000 2.5429999828 63.626998901
 3603.1001000 0.0799999982 -143.8130035  -999.250000 2.5429999828 63.626998901
 3603.2001000 0.1030000001 -143.8130035  -999.250000 2.5099999905 70.097999573
 3603.3001000 0.1150000021 -146.6250000  -999.250000 2.5239999294 70.513999939
 3603.4001000 0.1150000021 -147.0000000  -999.250000 2.5239999294 70.513999939
 3603.5001000 0.1199999973 -147.0000000  -999.250000 2.4860000610 66.746002197
 3603.6001000 0.1239999980 -145.9379883  -999.250000 2.4820001125 64.636001587
 3603.7001000 0.1239999980 -145.2500000  -999.250000 2.4820001125 64.636001587
 3603.8001000 0.1199999973 -145.2500000  -999.250000 2.4730000496 60.513999939
 3603.9001000 0.1140000001 -145.0000000  -999.250000 2.4839999676 60.318000793
 3604.0001000 0.1140000001 -144.9380035  -999.250000 2.4839999676 60.318000793
 3604.1001000 0.1120000035 -144.9380035  -999.250000 2.5280001163 59.971000671
 3604.2001000 0.1080000028 -146.1880035  -999.250000 2.5520000458 60.409999847
 3604.3001000 0.1080000028 -144.4380035  -999.250000 2.5520000458 60.409999847
 3604.4001000 0.1070000008 -144.4380035  -999.250000 2.5280001163 61.215999603
 3604.5001000 0.1019999981 -149.0000000  -999.250000 2.5230000019 63.902999878
 3604.6001000 0.1019999981 -149.1250000  -999.250000 2.5230000019 63.902999878
 3604.7001000 0.1000000015 -149.1250000  -999.250000 2.5190000534 63.803001404
 3604.8001000 0.0970000029 -147.8130035  -999.250000 2.4560000896 65.123001099
 3604.9001000 0.0970000029 -147.8130035  -999.250000 2.4560000896 65.123001099
 3605.0001000 0.1099999994 -148.0000000  -999.250000 2.3459999561 65.930999756
 3605.1001000 0.1580000073 -148.3130035  -999.250000 2.3150000572 72.153999329
 3605.2001000 0.1580000073 -148.3130035  -999.250000 2.3150000572 72.153999329
 3605.3001000 0.1889999956 -148.3130035  -999.250000 2.3299999237 74.101997375
 3605.4001000 0.1889999956 -148.1250000  -999.250000 2.3299999237 74.101997375
 3605.5001000 0.1899999976 -148.1250000  -999.250000 2.4240000248 72.166000366
 3605.6001000 0.1580000073 -146.2500000  -999.250000 2.4539999962 69.861000061
 3605.7001000 0.1580000073 -146.5629883  -999.250000 2.4539999962 69.861000061
 3605.8001000 0.1400000006 -146.5629883  -999.250000 2.3759999275 65.272003174
 3605.9001000 0.1379999965 -148.1250000  -999.250000 2.2969999313 64.214996338
 3606.0001000 0.1379999965 -148.0000000  -999.250000 2.2969999313 64.214996338
 3606.1001000 0.1360000074 -148.0000000  -999.250000 2.2899999619 64.906997681
 3606.2001000 0.1319999993 -146.0630035  -999.250000 2.3859999180 61.672000885
 3606.3001000 0.1319999993 -147.8130035  -999.250000 2.3859999180 61.672000885
 3606.4001000 0.1250000000 -147.8130035  -999.250000 2.4730000496 58.518001556
 3606.5001000 0.1140000001 -147.5629883  -999.250000 2.5130000114 56.716999054
 3606.6001000 0.1140000001 -146.1250000  -999.250000 2.5130000114 56.716999054
 3606.7001000 0.1019999981 -146.1250000  -999.250000 2.5299999714 56.355998993
 3606.8001000 0.0930000022 -146.5629883  -999.250000 2.5290000439 54.321998596
 3606.9001000 0.0930000022 -145.3750000  -999.250000 2.5290000439 54.321998596
 3607.0001000 0.0850000009 -145.3750000  -999.250000 2.5299999714 49.909999847
 3607.1001000 0.0790000036 -145.0630035  -999.250000 2.5230000019 49.402000427
 3607.2001000 0.0790000036 -144.9380035  -999.250000 2.5230000019 49.402000427
 3607.3001000 0.0829999968 -144.9380035  -999.250000 2.5179998875 51.867000580
 3607.4001000 0.0879999995 -144.1250000  -999.250000 2.5050001144 59.126998901
 3607.5001000 0.0879999995 -144.8750000  -999.250000 2.5050001144 59.126998901
 3607.6001000 0.0900000036 -144.8750000  -999.250000 2.4879999161 58.865001678
 3607.7001000 0.0869999975 -144.0000000  -999.250000 2.4749999046 57.750999451
 3607.8001000 0.0869999975 -142.0630035  -999.250000 2.4749999046 57.750999451
 3607.9001000 0.0799999982 -142.0630035  -999.250000 2.4920001030 56.875999451
 3608.0001000 0.0719999969 -143.5000000  -999.250000 2.5220000744 57.650001526
 3608.1001000 0.0719999969 -143.5000000  -999.250000 2.5220000744 57.650001526
 3608.2001000 0.0829999968 -143.2500000  -999.250000 2.5230000019 61.955001831
 3608.3001000 0.0960000008 -141.3130035  -999.250000 2.5039999485 65.002998352
 3608.4001000 0.0960000008 -141.3130035  -999.250000 2.5039999485 65.002998352
 3608.5001000 0.1000000015 -138.8130035  -999.250000 2.4849998951 62.189998627
 3608.6001000 0.1000000015 -142.7500000  -999.250000 2.4849998951 62.189998627
 3608.7001000 0.0900000036 -142.7500000  -999.250000 2.4849998951 57.764999390
 3608.8001000 0.0810000002 -143.5630035  -999.250000 2.4839999676 52.394001007
 3608.9001000 0.0810000002 -140.7500000  -999.250000 2.4839999676 52.394001007
 3609.0001000 0.0810000002 -140.7500000  -999.250000 2.4719998837 51.513999939
 3609.1001000 0.0860000029 -143.6250000  -999.250000 2.4609999657 51.278999329
 3609.2001000 0.0860000029 -143.6879883  -999.250000 2.4609999657 51.278999329
 3609.3001000 0.0909999982 -143.6879883  -999.250000 2.4500000477 54.380001068
 3609.4001000 0.0939999968 -142.6880035  -999.250000 2.4500000477 60.659000397
 3609.5001000 0.0939999968 -142.1250000  -999.250000 2.4500000477 60.659000397
 3609.6001000 0.0979999974 -142.1250000  -999.250000 2.4549999237 63.013999939
 3609.7001000 0.0939999968 -142.3130035  -999.250000 2.4719998837 62.154998779
 3609.8001000 0.0939999968 -141.0630035  -999.250000 2.4719998837 62.154998779
 3609.9001000 0.0850000009 -141.0630035  -999.250000 2.4790000916 56.970001221
 3610.0001000 0.0710000023 -140.4380035  -999.250000 2.4909999371 53.111999512
 3610.1001000 0.0710000023 -142.9380035  -999.250000 2.4909999371 53.111999512
 3610.2001000 0.0659999996 -142.9380035  -999.250000 2.5090000629 50.799999237
 3610.3001000 0.0680000037 -140.6250000  -999.250000 2.5190000534 50.687000275
 3610.4001000 0.0680000037 -142.8130035  -999.250000 2.5190000534 50.687000275
 3610.5001000 0.0769999996 -142.8130035  -999.250000 2.5139999390 54.916999817
 3610.6001000 0.0860000029 -142.7500000  -999.250000 2.4849998951 58.755001068
 3610.7001000 0.0860000029 -141.6880035  -999.250000 2.4849998951 58.755001068
