# LAS format log file from PETREL
# Project units are specified as depth units
#==================================================================
~Version information
VERS.   2.0:
WRAP.   NO:
#==================================================================
~Well
STRT.m   0.0000                                    :START DEPTH    
STOP.m   3831.0001                                 :STOP DEPTH     
STEP.m   0.1000                                    :STEP           
NULL.    -999.25                                   :NULL VALUE     
COMP.    Fletcher Challenge Energy                 :COMPANY        
WELL.    Pohokura-2                                :WELL           
FLD .    Pohokura                                  :FIELD          
LOC .    LAT -38.9081310  LON 174.2621355          :LOCATION       
LATI.    -38.9081310                               :SURF. LATITUDE 
LONG.   174.2621355                               :SURF. LONGITUDE
EKB .m   30.200                                    :KB ELEVATION   
EGL .m   -36.940                                   :GROUND LEVEL   
CTRY.    New Zealand                               :COUNTRY        
SRVC.                                              :SERVICE COMPANY
DATE.    27-6-2000 (D-M-Y)                         :LOG DATE       
UWI .    GEO391  
#==================================================================
~Curve
DEPT .m                   : DEPTH
CNL .m3/m3                : CNL
SP .mV                    : SP
BHC .us/ft                : BHC
FDC .g/cm3                : FDC
GRI .API                  : GRI
~Parameter
#==================================================================
~Ascii
# ...
 2040.0000000 0.4110000134 -270.0000000  -999.250000 1.9490000010 49.201000214
 2040.1000000 0.4110000134 -269.8750000  -999.250000 1.9490000010 49.201000214
 2040.2000000 0.4469999969 -269.8750000  -999.250000 2.0199999809 46.840999603
 2040.3000000 0.4350000024 -269.3129883  -999.250000 2.1879999638 42.076000214
 2040.4000000 0.4350000024 -270.6879883  -999.250000 2.1879999638 42.076000214
 2040.5000000 0.4289999902 -270.6879883  -999.250000 2.4419999123 37.966999054
 2040.6000000 0.4399999976 -269.3129883  -999.250000 2.3810000420 40.563999176
 2040.7000000 0.4399999976 -268.3129883  -999.250000 2.3810000420 40.563999176
 2040.8000000 0.4589999914 -268.3129883  -999.250000 2.1199998856 41.805999756
 2040.9000000 0.4519999921 -268.6250000  -999.250000 2.0130000114 44.679000854
 2041.0000000 0.4519999921 -268.1879883  -999.250000 2.0130000114 44.679000854
 2041.1000000 0.4320000112 -268.1879883  -999.250000 1.9889999628 45.820999146
 2041.2000000 0.4040000141 -268.1879883  -999.250000 1.9960000515 48.465999603
 2041.3000000 0.4040000141 -268.3129883  -999.250000 1.9960000515 48.465999603
 2041.4000000 0.4199999869 -268.3129883  -999.250000 2.0160000324 49.952999115
 2041.5000000 0.4120000005 -268.1879883  -999.250000 2.0079998970 50.909000397
 2041.6000000 0.4120000005 -267.3129883  -999.250000 2.0079998970 50.909000397
 2041.7000000 0.4169999957 -267.3129883  -999.250000 1.9950000048 50.145000458
 2041.8000000 0.4250000119 -267.9379883  -999.250000 1.9759999514 47.377998352
 2041.9000000 0.4250000119 -268.8750000  -999.250000 1.9759999514 47.377998352
 2042.0000000 0.4160000086 -268.8750000  -999.250000 2.0020000935 43.266998291
 2042.1000000 0.4189999998 -269.1879883  -999.250000 2.0150001049 41.403999329
 2042.2000000 0.4189999998 -269.8129883  -999.250000 2.0150001049 41.403999329
 2042.3000000 0.4199999869 -269.8129883  -999.250000 1.9980000257 42.962001801
 2042.4000000 0.4379999936 -270.1880188  -999.250000 1.9700000286 44.027999878
 2042.5000000 0.4379999936 -270.0000000  -999.250000 1.9700000286 44.027999878
 2042.6000000 0.4359999895 -270.0000000  -999.250000 1.9579999447 46.362998962
 2042.7000000 0.4000000060 -271.4379883  -999.250000 1.9839999676 44.076999664
 2042.8000000 0.4000000060 -271.4379883  -999.250000 1.9839999676 44.076999664
 2042.9000000 0.4000000060 -272.8750000  -999.250000 1.9680000544 42.120998383
 2043.0000000 0.3880000114 -271.8750000  -999.250000 1.9440000057 39.700000763
 2043.1000000 0.3880000114 -271.8750000  -999.250000 1.9440000057 39.700000763
 2043.2000000 0.3959999979 -270.5000000  -999.250000 1.9309999943 46.356998444
 2043.3000000 0.3959999979 -275.1250000  -999.250000 1.9309999943 46.356998444
 2043.4000000 0.3750000000 -275.1250000  -999.250000 1.9759999514 48.960998535
 2043.5000000 0.3770000041 -272.7500000  -999.250000 2.0320000648 50.195999146
 2043.6000000 0.3770000041 -271.6250000  -999.250000 2.0320000648 50.195999146
 2043.7000000 0.3989999890 -271.6250000  -999.250000 2.0569999218 47.769001007
 2043.8000000 0.4239999950 -274.0629883  -999.250000 2.0160000324 49.056999207
 2043.9000000 0.4239999950 -272.6879883  -999.250000 2.0160000324 49.056999207
 2044.0000000 0.4609999955 -272.6879883  -999.250000 1.9730000496 49.255001068
 2044.1000000 0.4810000062 -271.7500000  -999.250000 1.9450000525 48.560001373
 2044.2000000 0.4810000062 -271.3750000  -999.250000 1.9450000525 48.560001373
 2044.3000000 0.4539999962 -271.3750000  -999.250000 1.9570000172 47.592998505
 2044.4000000 0.4370000064 -271.0629883  -999.250000 1.9750000238 46.713001251
 2044.5000000 0.4370000064 -270.4379883  -999.250000 1.9750000238 46.713001251
 2044.6000000 0.4189999998 -270.4379883  -999.250000 2.0130000114 47.073001862
 2044.7000000 0.3989999890 -274.2500000  -999.250000 2.0190000534 51.596000671
 2044.8000000 0.3989999890 -272.3750000  -999.250000 2.0190000534 51.596000671
 2044.9000000 0.3700000048 -272.3750000  -999.250000 2.0139999390 52.125999451
 2045.0000000 0.3449999988 -271.0629883  -999.250000 2.0150001049 48.451999664
 2045.1000000 0.3449999988 -272.0629883  -999.250000 2.0150001049 48.451999664
 2045.2000000 0.4269999862 -272.0629883  -999.250000 2.0130000114 42.159999847
 2045.3000000 0.4429999888 -271.9379883  -999.250000 2.0090000629 42.212001801
 2045.4000000 0.4429999888 -271.0629883  -999.250000 2.0090000629 42.212001801
 2045.5000000 0.4449999928 -271.0629883  -999.250000 2.0090000629 43.415000916
 2045.6000000 0.3810000122 -273.5000000  -999.250000 2.0399999619 46.222000122
 2045.7000000 0.3810000122 -277.0629883  -999.250000 2.0399999619 46.222000122
 2045.8000000 0.3910000026 -277.0629883  -999.250000 2.0409998894 47.823001862
 2045.9000000 0.3989999890 -278.1879883  -999.250000 2.0360000134 45.264999390
 2046.0000000 0.3989999890 -278.1879883  -999.250000 2.0360000134 45.264999390
 2046.1000000 0.3770000041 -276.4379883  -999.250000 1.9910000563 45.652999878
 2046.2000000 0.3459999859 -275.5629883  -999.250000 1.9490000010 44.159000397
 2046.3000000 0.3459999859 -275.5629883  -999.250000 1.9490000010 44.159000397
 2046.4000000 0.3429999948 -274.9379883  -999.250000 1.9170000553 48.141998291
 2046.5000000 0.3429999948 -274.5629883  -999.250000 1.9170000553 48.141998291
 2046.6000000 0.3740000129 -274.5629883  -999.250000 1.9199999571 46.558998108
 2046.7000000 0.4269999862 -273.6879883  -999.250000 1.9379999638 46.200000763
 2046.8000000 0.4269999862 -273.6250000  -999.250000 1.9379999638 46.200000763
 2046.9000000 0.4250000119 -273.6250000  -999.250000 1.9479999542 43.639999390
 2047.0000000 0.4609999955 -272.0000000  -999.250000 1.9290000200 42.342998505
 2047.1000000 0.4609999955 -273.0000000  -999.250000 1.9290000200 42.342998505
 2047.2000000 0.4370000064 -273.0000000  -999.250000 1.8810000420 47.451999664
 2047.3000000 0.4530000091 -272.6250000  -999.250000 1.8969999552 52.245998383
 2047.4000000 0.4530000091 -272.3129883  -999.250000 1.8969999552 52.245998383
 2047.5000000 0.4180000126 -272.3129883  -999.250000 1.9400000572 53.171001434
 2047.6000000 0.3950000107 -270.6879883  -999.250000 1.9819999933 50.776000977
 2047.7000000 0.3950000107 -272.5629883  -999.250000 1.9819999933 50.776000977
 2047.8000000 0.3959999979 -272.5629883  -999.250000 2.0030000210 46.683998108
 2047.9000000 0.3989999890 -273.7500000  -999.250000 1.9839999676 48.597999573
 2048.0000000 0.3989999890 -274.2500000  -999.250000 1.9839999676 48.597999573
 2048.1000000 0.3989999890 -274.2500000  -999.250000 1.9989999533 45.730998993
 2048.2000000 0.4050000012 -269.6879883  -999.250000 2.0079998970 48.327999115
 2048.3000000 0.4050000012 -267.9379883  -999.250000 2.0079998970 48.327999115
 2048.4000000 0.3919999897 -267.9379883  -999.250000 2.0239999294 48.222000122
 2048.5000000 0.4239999950 -269.2500000  -999.250000 2.0290000439 48.542999268
 2048.6000000 0.4239999950 -269.9379883  -999.250000 2.0290000439 48.542999268
 2048.7000000 0.4149999917 -269.9379883  -999.250000 2.0079998970 47.159999847
 2048.8000000 0.4259999990 -269.7500000  -999.250000 1.9759999514 45.512001038
 2048.9000000 0.4259999990 -269.7500000  -999.250000 1.9759999514 45.512001038
 2049.0000000 0.4280000031 -269.8129883  -999.250000 1.9479999542 51.208999634
 2049.1000000 0.4339999855 -272.0000000  -999.250000 1.9379999638 53.164001465
 2049.2000000 0.4339999855 -272.0000000  -999.250000 1.9379999638 53.164001465
 2049.3000000 0.4239999950 -270.0629883  -999.250000 1.9349999428 53.029998779
 2049.4000000 0.4160000086 -270.8129883  -999.250000 1.9270000458 50.508998871
 2049.5000000 0.4160000086 -270.8129883  -999.250000 1.9270000458 50.508998871
 2049.6000000 0.4160000086 -272.5000000  -999.250000 1.9500000477 51.265998840
 2049.7000000 0.4160000086 -272.0000000  -999.250000 1.9500000477 51.265998840
 2049.8000000 0.4390000105 -272.0000000  -999.250000 1.9559999704 52.837001801
 2049.9000000 0.4819999933 -271.4379883  -999.250000 1.9589999914 52.301998138
 2050.0000000 0.4819999933 -271.0000000  -999.250000 1.9589999914 52.301998138
 2050.1000000 0.4569999874 -271.0000000  -999.250000 1.9670000076 52.051998138
