# LAS format log file from PETREL
# Project units are specified as depth units
#==================================================================
~Version information
VERS.   2.0:
WRAP.   NO:
#==================================================================
~Well
STRT.m   0.0000                                    :START DEPTH    
STOP.m   3831.0001                                 :STOP DEPTH     
STEP.m   0.1000                                    :STEP           
NULL.    -999.25                                   :NULL VALUE     
COMP.    Fletcher Challenge Energy                 :COMPANY        
WELL.    Pohokura-2                                :WELL           
FLD .    Pohokura                                  :FIELD          
LOC .    LAT -38.9081310  LON 174.2621355          :LOCATION       
LATI.    -38.9081310                               :SURF. LATITUDE 
LONG.   174.2621355                               :SURF. LONGITUDE
EKB .m   30.200                                    :KB ELEVATION   
EGL .m   -36.940                                   :GROUND LEVEL   
CTRY.    New Zealand                               :COUNTRY        
SRVC.                                              :SERVICE COMPANY
DATE.    27-6-2000 (D-M-Y)                         :LOG DATE       
UWI .    GEO391  
#==================================================================
~Curve
DEPT .m                   : DEPTH
CNL .m3/m3                : CNL
SP .mV                    : SP
BHC .us/ft                : BHC
FDC .g/cm3                : FDC
GRI .API                  : GRI
~Parameter
#==================================================================
~Ascii
# ...
 3376.2001000 0.3339999914 -178.3750000  -999.250000 2.2390000820 82.261001587
 3376.3001000 0.3339999914 -178.3750000  -999.250000 2.2390000820 82.261001587
 3376.4001000 0.3310000002 -178.4379883  -999.250000 2.2139999866 80.981002808
 3376.5001000 0.3269999921 -178.1250000  -999.250000 2.1889998913 80.591003418
 3376.6001000 0.3269999921 -178.1250000  -999.250000 2.1889998913 80.591003418
 3376.7001000 0.3230000138 -178.1880035  -999.250000 2.1889998913 80.202003479
 3376.8001000 0.3230000138 -178.0630035  -999.250000 2.1889998913 80.202003479
 3376.9001000 0.3190000057 -178.0630035  -999.250000 2.1949999332 83.926002502
 3377.0001000 0.3140000105 -177.8129883  -999.250000 2.1889998913 87.976997375
 3377.1001000 0.3140000105 -178.0000000  -999.250000 2.1889998913 87.976997375
 3377.2001000 0.3140000105 -178.0000000  -999.250000 2.1689999104 88.865997314
 3377.3001000 0.3179999888 -176.8750000  -999.250000 2.1419999599 88.813003540
 3377.4001000 0.3179999888 -177.0000000  -999.250000 2.1419999599 88.813003540
 3377.5001000 0.3230000138 -177.0000000  -999.250000 2.1289999485 88.761001587
 3377.6001000 0.3230000138 -177.8129883  -999.250000 2.1540000439 88.708000183
 3377.7001000 0.3230000138 -178.1250000  -999.250000 2.1540000439 88.708000183
 3377.8001000 0.3170000017 -178.1250000  -999.250000 2.1789999008 88.698997498
 3377.9001000 0.3109999895 -178.4379883  -999.250000 2.1960000992 88.750000000
 3378.0001000 0.3109999895 -179.5000000  -999.250000 2.1960000992 88.750000000
 3378.1001000 0.3059999943 -179.5000000  -999.250000 2.2049999237 88.188003540
 3378.2001000 0.3019999862 -178.5000000  -999.250000 2.2030000687 90.666999817
 3378.3001000 0.3019999862 -177.1879883  -999.250000 2.2030000687 90.666999817
 3378.4001000 0.2969999909 -177.1879883  -999.250000 2.2039999962 89.200996399
 3378.5001000 0.2939999998 -178.8129883  -999.250000 2.2449998856 87.920997620
 3378.6001000 0.2939999998 -178.3750000  -999.250000 2.2449998856 87.920997620
 3378.7001000 0.2939999998 -178.3750000  -999.250000 2.2760000229 87.635002136
 3378.8001000 0.2840000093 -178.4379883  -999.250000 2.2339999676 87.347999573
 3378.9001000 0.2840000093 -179.0630035  -999.250000 2.2339999676 87.347999573
 3379.0001000 0.2930000126 -179.0630035  -999.250000 2.1700000763 87.599998474
 3379.1001000 0.3070000112 -179.3130035  -999.250000 2.1010000706 88.016998291
 3379.2001000 0.3070000112 -178.5000000  -999.250000 2.1010000706 88.016998291
 3379.3001000 0.3140000105 -178.5000000  -999.250000 2.0659999847 80.598999023
 3379.4001000 0.3140000105 -177.8750000  -999.250000 2.0269999504 80.801002502
 3379.5001000 0.3140000105 -177.8750000  -999.250000 2.0269999504 80.801002502
 3379.6001000 0.3140000105 -179.6250000  -999.250000 1.9839999676 81.002998352
 3379.7001000 0.3149999976 -179.4379883  -999.250000 1.9950000048 80.804000854
 3379.8001000 0.3149999976 -179.4379883  -999.250000 1.9950000048 80.804000854
 3379.9001000 0.3140000105 -177.1879883  -999.250000 2.0320000648 80.503997803
 3380.0001000 0.3140000105 -179.3130035  -999.250000 2.0320000648 80.503997803
 3380.1001000 0.3370000124 -179.3130035  -999.250000 2.0880000591 80.205001831
 3380.2001000 0.3129999936 -180.2500000  -999.250000 2.1159999371 79.904998779
 3380.3001000 0.3129999936 -179.1250000  -999.250000 2.1159999371 79.904998779
 3380.4001000 0.3079999983 -179.1250000  -999.250000 2.1300001144 79.651000977
 3380.5001000 0.3030000031 -180.5630035  -999.250000 2.1340000629 80.242996216
 3380.6001000 0.3030000031 -174.4380035  -999.250000 2.1340000629 80.242996216
 3380.7001000 0.3050000072 -174.4380035  -999.250000 2.1219999790 80.835998535
 3380.8001000 0.3109999895 -177.9380035  -999.250000 2.1170001030 81.429000854
 3380.9001000 0.3109999895 -179.1250000  -999.250000 2.1170001030 81.429000854
 3381.0001000 0.3160000145 -179.1250000  -999.250000 2.0980000496 82.022003174
 3381.1001000 0.2960000038 -178.0630035  -999.250000 2.0659999847 86.959999084
 3381.2001000 0.2960000038 -178.0000000  -999.250000 2.0659999847 86.959999084
 3381.3001000 0.2910000086 -178.0000000  -999.250000 2.0420000553 90.820999146
 3381.4001000 0.2890000045 -178.9380035  -999.250000 2.0320000648 91.626998901
 3381.5001000 0.2890000045 -178.1880035  -999.250000 2.0320000648 91.626998901
 3381.6001000 0.2879999876 -178.1880035  -999.250000 2.0239999294 91.612998962
 3381.7001000 0.2870000005 -180.5000000  -999.250000 2.0190000534 90.231002808
 3381.8001000 0.2870000005 -179.4379883  -999.250000 2.0190000534 90.231002808
 3381.9001000 0.2820000052 -179.4379883  -999.250000 2.0810000896 84.261001587
 3382.0001000 0.2759999931 -178.3750000  -999.250000 2.1219999790 84.556999207
 3382.1001000 0.2759999931 -180.1880035  -999.250000 2.1219999790 84.556999207
 3382.2001000 0.2700000107 -180.1880035  -999.250000 2.1280000210 84.683998108
 3382.3001000 0.2639999986 -180.5000000  -999.250000 2.0769999027 84.203002930
 3382.4001000 0.2639999986 -180.5000000  -999.250000 2.0769999027 84.203002930
 3382.5001000 0.2579999864 -181.0000000  -999.250000 2.0429999828 83.722000122
 3382.6001000 0.2549999952 -179.5630035  -999.250000 2.0399999619 83.297996521
 3382.7001000 0.2549999952 -179.5630035  -999.250000 2.0399999619 83.297996521
 3382.8001000 0.2540000081 -177.9380035  -999.250000 2.0380001068 83.970001221
 3382.9001000 0.2529999912 -178.6880035  -999.250000 2.0369999409 84.641998291
 3383.0001000 0.2529999912 -178.6880035  -999.250000 2.0369999409 84.641998291
 3383.1001000 0.2930000126 -178.5630035  -999.250000 2.0769999027 87.561996460
 3383.2001000 0.2930000126 -178.3750000  -999.250000 2.0769999027 87.561996460
 3383.3001000 0.2800000012 -178.3750000  -999.250000 2.1700000763 84.777999878
 3383.4001000 0.2800000012 -178.0000000  -999.250000 2.2509999275 82.846000671
 3383.5001000 0.2800000012 -178.7500000  -999.250000 2.2509999275 82.846000671
 3383.6001000 0.2829999924 -178.7500000  -999.250000 2.3010001183 80.914001465
 3383.7001000 0.3039999902 -178.8129883  -999.250000 2.3039999008 79.317001343
 3383.8001000 0.3039999902 -178.9380035  -999.250000 2.3039999008 79.317001343
 3383.9001000 0.3070000112 -178.9380035  -999.250000 2.3229999542 79.509002686
 3384.0001000 0.3100000024 -179.1880035  -999.250000 2.3250000477 79.700996399
 3384.1001000 0.3100000024 -179.5000000  -999.250000 2.3250000477 79.700996399
 3384.2001000 0.3129999936 -179.5000000  -999.250000 2.2760000229 79.892997742
 3384.3001000 0.3120000064 -178.1880035  -999.250000 2.2290000916 81.427001953
 3384.4001000 0.3120000064 -179.6250000  -999.250000 2.2290000916 81.427001953
 3384.5001000 0.3050000072 -179.6250000  -999.250000 2.1210000515 82.208999634
 3384.6001000 0.2980000079 -180.3130035  -999.250000 2.0360000134 81.549003601
 3384.7001000 0.2980000079 -178.8129883  -999.250000 2.0360000134 81.549003601
 3384.8001000 0.2910000086 -178.8129883  -999.250000 1.9700000286 80.813003540
 3384.9001000 0.2849999964 -178.8129883  -999.250000 1.9589999914 80.496002197
 3385.0001000 0.2849999964 -179.9380035  -999.250000 1.9589999914 80.496002197
 3385.1001000 0.3070000112 -179.9380035  -999.250000 1.9559999704 81.283996582
 3385.2001000 0.2969999909 -179.2500000  -999.250000 1.9520000219 82.070999146
 3385.3001000 0.2969999909 -178.9380035  -999.250000 1.9520000219 82.070999146
 3385.4001000 0.2919999957 -178.9380035  -999.250000 1.9479999542 82.859001160
 3385.5001000 0.2879999876 -179.3130035  -999.250000 1.9889999628 78.683998108
 3385.6001000 0.2879999876 -179.3130035  -999.250000 1.9889999628 78.683998108
 3385.7001000 0.2840000093 -179.0000000  -999.250000 2.0569999218 76.233001709
 3385.8001000 0.2829999924 -178.6880035  -999.250000 2.1080000401 77.672996521
 3385.9001000 0.2829999924 -178.6880035  -999.250000 2.1080000401 77.672996521
 3386.0001000 0.2860000134 -178.0630035  -999.250000 2.0899999142 79.111999512
 3386.1001000 0.2899999917 -178.5630035  -999.250000 2.0639998913 80.728996277
 3386.2001000 0.2899999917 -178.5630035  -999.250000 2.0639998913 80.728996277
 3386.3001000 0.3000000119 -179.2500000  -999.250000 2.0369999409 83.287002563
