# LAS format log file from PETREL
# Project units are specified as depth units
#==================================================================
~Version information
VERS.   2.0:
WRAP.   NO:
#==================================================================
~Well
STRT.m   0.0000                                    :START DEPTH    
STOP.m   3831.0001                                 :STOP DEPTH     
STEP.m   0.1000                                    :STEP           
NULL.    -999.25                                   :NULL VALUE     
COMP.    Fletcher Challenge Energy                 :COMPANY        
WELL.    Pohokura-2                                :WELL           
FLD .    Pohokura                                  :FIELD          
LOC .    LAT -38.9081310  LON 174.2621355          :LOCATION       
LATI.    -38.9081310                               :SURF. LATITUDE 
LONG.   174.2621355                               :SURF. LONGITUDE
EKB .m   30.200                                    :KB ELEVATION   
EGL .m   -36.940                                   :GROUND LEVEL   
CTRY.    New Zealand                               :COUNTRY        
SRVC.                                              :SERVICE COMPANY
DATE.    27-6-2000 (D-M-Y)                         :LOG DATE       
UWI .    GEO391  
#==================================================================
~Curve
DEPT .m                   : DEPTH
CNL .m3/m3                : CNL
SP .mV                    : SP
BHC .us/ft                : BHC
FDC .g/cm3                : FDC
GRI .API                  : GRI
~Parameter
#==================================================================
~Ascii
# ...
 693.60000000 0.4979999959 -93.62500000 113.10500336  -999.250000 75.000000000
 693.70000000 0.5090000033 -91.25000000 94.765998840  -999.250000 69.523002625
 693.80000000 0.5090000033 -78.50000000 94.765998840  -999.250000 69.523002625
 693.90000000 0.4440000057 -78.50000000 83.964996338  -999.250000 66.125000000
 694.00000000 0.2849999964 -82.93800354 70.898002625  -999.250000 65.492996216
 694.10000000 0.2849999964 -98.62500000 70.898002625  -999.250000 65.492996216
 694.20000000 0.1909999996 -98.62500000 54.452999115  -999.250000 70.524002075
 694.30000000 0.1550000012 -76.93800354 65.830001831  -999.250000 71.364997864
 694.40000000 0.1550000012 -93.12500000 65.830001831  -999.250000 71.364997864
 694.50000000 0.1659999937 -93.12500000 76.444999695  -999.250000 74.703002930
 694.60000000 0.2329999954 -85.43800354 92.265998840  -999.250000 78.361000061
 694.70000000 0.2329999954 -85.00000000 92.265998840  -999.250000 78.361000061
 694.80000000 0.2809999883 -85.00000000 104.44300079  -999.250000 80.637001038
 694.90000000 0.3350000083 -81.93800354 111.35700226  -999.250000 82.638000488
 695.00000000 0.3350000083 -91.37500000 111.35700226  -999.250000 82.638000488
 695.10000000 0.3490000069 -91.37500000 112.26599884  -999.250000 85.000999451
 695.20000000 0.3240000010 -67.18800354 111.96299744  -999.250000 88.827003479
 695.30000000 0.3240000010 -102.5630035 111.96299744  -999.250000 88.827003479
 695.40000000 0.3330000043 -102.5630035 111.09400177  -999.250000 91.235000610
 695.50000000 0.3219999969 -72.12500000 109.66799927  -999.250000 91.745002747
 695.60000000 0.3219999969 -89.43800354 109.66799927  -999.250000 91.745002747
 695.70000000 0.3400000036 -89.43800354 109.41400146  -999.250000 91.259002686
 695.80000000 0.3280000091 -90.81300354 110.04900360  -999.250000 90.436996460
 695.90000000 0.3280000091 -85.37500000 110.04900360  -999.250000 90.436996460
 696.00000000 0.3019999862 -85.37500000 110.47899628  -999.250000 86.578002930
 696.10000000 0.3160000145 -89.31300354 111.32800293  -999.250000 83.152999878
 696.20000000 0.3160000145 -77.62500000 111.32800293  -999.250000 83.152999878
 696.30000000 0.3199999928 -77.62500000 111.50399780  -999.250000 82.813003540
 696.40000000 0.3499999940 -81.31300354 111.17199707  -999.250000 87.703002930
 696.50000000 0.3499999940 -81.31300354 111.17199707  -999.250000 87.703002930
 696.60000000 0.3440000117 -96.37500000 110.89800262  -999.250000 87.678001404
 696.70000000 0.3499999940 -84.31300354 110.44899750  -999.250000 91.999000549
 696.80000000 0.3499999940 -84.31300354 110.44899750  -999.250000 91.999000549
 696.90000000 0.3499999940 -73.62500000 110.22499847  -999.250000 87.079002380
 697.00000000 0.3499999940 -100.3130035 110.22499847  -999.250000 87.079002380
 697.10000000 0.3370000124 -100.3130035 109.85399628  -999.250000 90.333999634
 697.20000000 0.3190000057 -87.12500000 109.49199677  -999.250000 89.982002258
 697.30000000 0.3190000057 -85.43800354 109.49199677  -999.250000 89.982002258
 697.40000000 0.3240000010 -85.43800354 109.23799896  -999.250000 93.266998291
 697.50000000 0.3400000036 -89.50000000 109.18900299  -999.250000 97.067001343
 697.60000000 0.3400000036 -84.68800354 109.18900299  -999.250000 97.067001343
 697.70000000 0.3479999900 -84.68800354 109.74600220  -999.250000 97.133003235
 697.80000000 0.3630000055 -87.18800354 109.20899963  -999.250000 92.328002930
 697.90000000 0.3630000055 -88.00000000 109.20899963  -999.250000 92.328002930
 698.00000000 0.3459999859 -88.00000000 108.11499786  -999.250000 85.599998474
 698.10000000 0.3689999878 -84.25000000 108.67199707  -999.250000 77.304000854
 698.20000000 0.3689999878 -88.31300354 108.67199707  -999.250000 77.304000854
 698.30000000 0.3490000069 -88.31300354 108.79900360  -999.250000 76.569000244
 698.40000000 0.3519999981 -85.81300354 109.89299774  -999.250000 78.957000732
 698.50000000 0.3519999981 -89.25000000 109.89299774  -999.250000 78.957000732
 698.60000000 0.3350000083 -89.25000000 110.17600250  -999.250000 84.252998352
 698.70000000 0.3449999988 -86.56300354 109.88300323  -999.250000 84.606002808
 698.80000000 0.3449999988 -86.75000000 109.88300323  -999.250000 84.606002808
 698.90000000 0.3709999919 -86.75000000 109.60900116  -999.250000 83.811996460
 699.00000000 0.3610000014 -83.75000000 110.56600189  -999.250000 79.990997314
 699.10000000 0.3610000014 -85.43800354 110.56600189  -999.250000 79.990997314
 699.20000000 0.3519999981 -85.43800354 111.35700226  -999.250000 83.719001770
 699.30000000 0.3490000069 -83.75000000 111.76799774  -999.250000 84.183998108
 699.40000000 0.3490000069 -87.12500000 111.76799774  -999.250000 84.183998108
 699.50000000 0.3700000048 -87.12500000 112.12899780  -999.250000 83.321998596
 699.60000000 0.3529999852 -85.87500000 112.18800354  -999.250000 80.727996826
 699.70000000 0.3529999852 -85.87500000 112.18800354  -999.250000 80.727996826
 699.80000000 0.3359999955 -87.62500000 111.82599640  -999.250000 82.628997803
 699.90000000 0.3269999921 -89.25000000 111.97299957  -999.250000 82.367996216
 700.00000000 0.3269999921 -89.25000000 111.97299957  -999.250000 82.367996216
 700.10000000 0.3529999852 -83.06300354 111.84600067  -999.250000 79.362998962
 700.20000000 0.3529999852 -87.56300354 111.84600067  -999.250000 79.362998962
 700.30000000 0.3689999878 -87.56300354 111.95300293  -999.250000 74.796997070
 700.40000000 0.3819999993 -84.93800354 111.71900177  -999.250000 75.230003357
 700.50000000 0.3819999993 -85.75000000 111.71900177  -999.250000 75.230003357
 700.60000000 0.3829999864 -85.75000000 111.56300354  -999.250000 77.153999329
 700.70000000 0.4129999876 -86.68800354 112.15799713  -999.250000 77.338996887
 700.80000000 0.4129999876 -87.12500000 112.15799713  -999.250000 77.338996887
 700.90000000 0.4449999928 -87.12500000 112.20700073  -999.250000 77.099998474
 701.00000000 0.4650000036 -89.50000000 105.13700104  -999.250000 79.333000183
 701.10000000 0.4650000036 -88.25000000 105.13700104  -999.250000 79.333000183
 701.20000000 0.3919999897 -88.25000000 95.214996338  -999.250000 80.759002686
 701.30000000 0.2980000079 -90.00000000 84.678001404  -999.250000 82.098999023
 701.40000000 0.2980000079 -87.25000000 84.678001404  -999.250000 82.098999023
 701.50000000 0.2849999964 -87.25000000 84.013999939  -999.250000 80.398002625
 701.60000000 0.3079999983 -85.43800354 91.405998230  -999.250000 82.567001343
 701.70000000 0.3079999983 -83.31300354 91.405998230  -999.250000 82.567001343
 701.80000000 0.3359999955 -83.31300354 100.73200226  -999.250000 85.811996460
 701.90000000 0.3420000076 -84.18800354 110.29299927  -999.250000 89.630996704
 702.00000000 0.3420000076 -85.25000000 110.29299927  -999.250000 89.630996704
 702.10000000 0.3499999940 -85.25000000 111.37699890  -999.250000 89.333999634
 702.20000000 0.3440000117 -85.75000000 110.95700073  -999.250000 91.376998901
 702.30000000 0.3440000117 -84.93800354 110.95700073  -999.250000 91.376998901
 702.40000000 0.3409999907 -84.93800354 111.66000366  -999.250000 93.538002014
 702.50000000 0.3310000002 -88.81300354 111.75800323  -999.250000 91.180000305
 702.60000000 0.3310000002 -85.37500000 111.75800323  -999.250000 91.180000305
 702.70000000 0.3389999866 -85.37500000 111.96299744  -999.250000 89.680000305
 702.80000000 0.3100000024 -84.25000000 112.72499847  -999.250000 89.431999207
 702.90000000 0.3100000024 -84.25000000 112.72499847  -999.250000 89.431999207
 703.00000000 0.3389999866 -83.12500000 112.61699677  -999.250000 94.042999268
 703.10000000 0.3560000062 -83.06300354 112.26599884  -999.250000 88.609001160
 703.20000000 0.3560000062 -83.06300354 112.26599884  -999.250000 88.609001160
 703.30000000 0.4219999909 -84.00000000 112.28500366  -999.250000 80.668998718
 703.40000000 0.4219999909 -87.06300354 112.28500366  -999.250000 80.668998718
 703.50000000 0.4050000012 -87.06300354 112.47100067  -999.250000 72.223999023
 703.60000000 0.4059999883 -89.50000000 112.45099640  -999.250000 72.980003357
 703.70000000 0.4059999883 -89.18800354 112.45099640  -999.250000 72.980003357
