# LAS format log file from PETREL
# Project units are specified as depth units
#==================================================================
~Version information
VERS.   2.0:
WRAP.   NO:
#==================================================================
~Well
STRT.m   0.0000                                    :START DEPTH    
STOP.m   3831.0001                                 :STOP DEPTH     
STEP.m   0.1000                                    :STEP           
NULL.    -999.25                                   :NULL VALUE     
COMP.    Fletcher Challenge Energy                 :COMPANY        
WELL.    Pohokura-2                                :WELL           
FLD .    Pohokura                                  :FIELD          
LOC .    LAT -38.9081310  LON 174.2621355          :LOCATION       
LATI.    -38.9081310                               :SURF. LATITUDE 
LONG.   174.2621355                               :SURF. LONGITUDE
EKB .m   30.200                                    :KB ELEVATION   
EGL .m   -36.940                                   :GROUND LEVEL   
CTRY.    New Zealand                               :COUNTRY        
SRVC.                                              :SERVICE COMPANY
DATE.    27-6-2000 (D-M-Y)                         :LOG DATE       
UWI .    GEO391  
#==================================================================
~Curve
DEPT .m                   : DEPTH
CNL .m3/m3                : CNL
SP .mV                    : SP
BHC .us/ft                : BHC
FDC .g/cm3                : FDC
GRI .API                  : GRI
~Parameter
#==================================================================
~Ascii
# ...
 1366.8000000 0.3759999871 -91.31300354 89.950996399  -999.250000 73.510002136
 1366.9000000 0.3759999871 -91.31300354 89.950996399  -999.250000 73.510002136
 1367.0000000 0.3680000007 -80.25000000 90.859001160  -999.250000 84.914001465
 1367.1000000 0.3680000007 -83.00000000 90.859001160  -999.250000 84.914001465
 1367.2000000 0.3549999893 -83.00000000 91.269996643  -999.250000 95.291000366
 1367.3000000 0.3319999874 -86.62500000 92.265998840  -999.250000 99.583999634
 1367.4000000 0.3319999874 -80.37500000 92.265998840  -999.250000 99.583999634
 1367.5000000 0.3600000143 -80.37500000 91.835998535  -999.250000 96.736000061
 1367.6000000 0.3529999852 -80.87500000 91.513999939  -999.250000 96.612998962
 1367.7000000 0.3529999852 -83.56301117 91.513999939  -999.250000 96.612998962
 1367.8000000 0.3720000088 -83.56301117 91.484001160  -999.250000 99.156997681
 1367.9000000 0.3160000145 -80.75000000 91.611000061  -999.250000 108.01799774
 1368.0000000 0.3160000145 -85.68800354 91.611000061  -999.250000 108.01799774
 1368.1000000 0.2899999917 -85.68800354 91.943000793  -999.250000 105.37699890
 1368.2000000 0.2590000033 -87.81300354 91.719001770  -999.250000 103.43800354
 1368.3000000 0.2590000033 -89.68800354 91.719001770  -999.250000 103.43800354
 1368.4000000 0.2840000093 -89.68800354 91.513999939  -999.250000 99.472999573
 1368.5000000 0.2980000079 -87.12500000 91.055000305  -999.250000 102.12699890
 1368.6000000 0.2980000079 -86.31300354 91.055000305  -999.250000 102.12699890
 1368.7000000 0.3219999969 -86.31300354 91.698997498  -999.250000 100.67199707
 1368.8000000 0.3149999976 -86.43801117 91.435997009  -999.250000 101.09300232
 1368.9000000 0.3149999976 -80.81300354 91.435997009  -999.250000 101.09300232
 1369.0000000 0.3000000119 -80.81300354 91.171997070  -999.250000 101.97899628
 1369.1000000 0.2980000079 -82.43800354 91.737998962  -999.250000 104.12899780
 1369.2000000 0.2980000079 -83.81300354 91.737998962  -999.250000 104.12899780
 1369.3000000 0.2790000141 -83.81300354 90.653999329  -999.250000 102.13999939
 1369.4000000 0.2820000052 -86.31300354 90.605003357  -999.250000 97.072998047
 1369.5000000 0.2820000052 -86.31300354 90.605003357  -999.250000 97.072998047
 1369.6000000 0.3009999990 -82.25000000 89.931999207  -999.250000 95.122001648
 1369.7000000 0.3050000072 -86.18800354 90.410003662  -999.250000 90.199996948
 1369.8000000 0.3050000072 -86.18800354 90.410003662  -999.250000 90.199996948
 1369.9000000 0.3009999990 -83.56301117 90.166000366  -999.250000 93.930999756
 1370.0000000 0.2700000107 -83.43800354 90.410003662  -999.250000 94.883003235
 1370.1000000 0.2700000107 -83.43800354 90.410003662  -999.250000 94.883003235
 1370.2000000 0.2750000060 -80.43800354 90.722999573  -999.250000 97.384002686
 1370.3000000 0.2750000060 -82.12500000 90.722999573  -999.250000 97.384002686
 1370.4000000 0.2829999924 -82.12500000 90.224998474  -999.250000 95.082000732
 1370.5000000 0.2809999883 -82.31300354 88.935997009  -999.250000 93.469001770
 1370.6000000 0.2809999883 -82.43800354 88.935997009  -999.250000 93.469001770
 1370.7000000 0.2700000107 -82.43800354 89.063003540  -999.250000 91.514999390
 1370.8000000 0.2809999883 -84.75000000 89.491996765  -999.250000 92.588996887
 1370.9000000 0.2809999883 -86.12500000 89.491996765  -999.250000 92.588996887
 1371.0000000 0.3240000010 -86.12500000 90.351997375  -999.250000 94.264999390
 1371.1000000 0.3459999859 -83.93800354 91.289001465  -999.250000 92.569000244
 1371.2000000 0.3459999859 -85.12500000 91.289001465  -999.250000 92.569000244
 1371.3000000 0.3779999912 -85.12500000 92.089996338  -999.250000 91.471000671
 1371.4000000 0.3729999959 -86.12500000 91.494003296  -999.250000 93.032997131
 1371.5000000 0.3729999959 -85.87500000 91.494003296  -999.250000 93.032997131
 1371.6000000 0.3790000081 -85.87500000 92.069999695  -999.250000 95.541999817
 1371.7000000 0.3549999893 -87.25000000 92.099998474  -999.250000 99.306999207
 1371.8000000 0.3549999893 -80.68800354 92.099998474  -999.250000 99.306999207
 1371.9000000 0.3300000131 -80.68800354 91.366996765  -999.250000 96.478996277
 1372.0000000 0.3190000057 -92.31300354 91.719001770  -999.250000 95.491996765
 1372.1000000 0.3190000057 -82.62500000 91.719001770  -999.250000 95.491996765
 1372.2000000 0.3199999928 -82.62500000 91.073997498  -999.250000 95.526000977
 1372.3000000 0.3249999881 -81.25000000 90.771003723  -999.250000 95.452003479
 1372.4000000 0.3249999881 -86.62500000 90.771003723  -999.250000 95.452003479
 1372.5000000 0.3230000138 -86.62500000 90.801002502  -999.250000 92.583000183
 1372.6000000 0.3149999976 -85.56300354 91.269996643  -999.250000 95.529998779
 1372.7000000 0.3149999976 -85.56300354 91.269996643  -999.250000 95.529998779
 1372.8000000 0.3149999976 -83.68800354 91.503997803  -999.250000 99.329002380
 1372.9000000 0.3420000076 -84.75000000 91.943000793  -999.250000 99.614997864
 1373.0000000 0.3420000076 -84.75000000 91.943000793  -999.250000 99.614997864
 1373.1000000 0.3379999995 -83.50000000 92.080001831  -999.250000 93.169998169
 1373.2000000 0.3379999995 -83.56301117 92.080001831  -999.250000 93.169998169
 1373.3000000 0.3269999921 -83.56301117 91.914001465  -999.250000 94.943000793
 1373.4000000 0.3269999921 -81.62500000 90.224998474  -999.250000 97.096000671
 1373.5000000 0.3269999921 -77.50000000 90.224998474  -999.250000 97.096000671
 1373.6000000 0.3079999983 -77.50000000 86.474998474  -999.250000 100.63500214
 1373.7000000 0.2899999917 -84.43800354 85.898002625  -999.250000 97.446998596
 1373.8000000 0.2899999917 -86.81300354 85.898002625  -999.250000 97.446998596
 1373.9000000 0.3129999936 -86.81300354 85.878997803  -999.250000 93.711997986
 1374.0000000 0.3300000131 -85.18800354 86.796997070  -999.250000 87.053001404
 1374.1000000 0.3300000131 -85.12500000 86.796997070  -999.250000 87.053001404
 1374.2000000 0.3379999995 -85.12500000 89.248001099  -999.250000 81.653999329
 1374.3000000 0.3109999895 -83.31300354 89.688003540  -999.250000 86.291999817
 1374.4000000 0.3109999895 -82.93800354 89.688003540  -999.250000 86.291999817
 1374.5000000 0.3100000024 -82.93800354 88.916000366  -999.250000 90.777999878
 1374.6000000 0.3000000119 -83.25000000 89.198997498  -999.250000 93.122001648
 1374.7000000 0.3000000119 -87.18800354 89.198997498  -999.250000 93.122001648
 1374.8000000 0.2890000045 -87.18800354 89.277000427  -999.250000 92.964996338
 1374.9000000 0.2739999890 -88.00000000 87.246002197  -999.250000 95.377998352
 1375.0000000 0.2739999890 -84.56300354 87.246002197  -999.250000 95.377998352
 1375.1000000 0.2860000134 -84.56300354 86.289001465  -999.250000 103.53199768
 1375.2000000 0.2949999869 -88.81300354 85.244003296  -999.250000 105.22000122
 1375.3000000 0.2949999869 -87.50000000 85.244003296  -999.250000 105.22000122
 1375.4000000 0.2989999950 -87.50000000 84.765998840  -999.250000 102.76200104
 1375.5000000 0.2949999869 -85.00000000 87.333999634  -999.250000 99.032997131
 1375.6000000 0.2949999869 -88.37500000 87.333999634  -999.250000 99.032997131
 1375.7000000 0.2980000079 -88.37500000 88.525001526  -999.250000 101.72599792
 1375.8000000 0.3129999936 -86.56300354 89.765998840  -999.250000 104.49800110
 1375.9000000 0.3129999936 -86.56300354 89.765998840  -999.250000 104.49800110
 1376.0000000 0.3100000024 -85.93800354 91.357002258  -999.250000 107.12100220
 1376.1000000 0.3030000031 -84.00000000 91.669998169  -999.250000 104.52999878
 1376.2000000 0.3030000031 -84.00000000 91.669998169  -999.250000 104.52999878
 1376.3000000 0.3019999862 -83.87500000 91.444999695  -999.250000 104.00099945
 1376.4000000 0.3019999862 -83.31300354 91.444999695  -999.250000 104.00099945
 1376.5000000 0.3160000145 -83.31300354 92.724998474  -999.250000 98.355003357
 1376.6000000 0.2890000045 -87.75000000 91.064002991  -999.250000 99.521003723
 1376.7000000 0.2890000045 -87.43800354 91.064002991  -999.250000 99.521003723
 1376.8000000 0.2829999924 -87.43800354 90.273002625  -999.250000 100.96600342
 1376.9000000 0.2820000052 -87.62500000 90.097999573  -999.250000 105.81800079
