# LAS format log file from PETREL
# Project units are specified as depth units
#==================================================================
~Version information
VERS.   2.0:
WRAP.   NO:
#==================================================================
~Well
STRT.m   0.0000                                    :START DEPTH    
STOP.m   3831.0001                                 :STOP DEPTH     
STEP.m   0.1000                                    :STEP           
NULL.    -999.25                                   :NULL VALUE     
COMP.    Fletcher Challenge Energy                 :COMPANY        
WELL.    Pohokura-2                                :WELL           
FLD .    Pohokura                                  :FIELD          
LOC .    LAT -38.9081310  LON 174.2621355          :LOCATION       
LATI.    -38.9081310                               :SURF. LATITUDE 
LONG.   174.2621355                               :SURF. LONGITUDE
EKB .m   30.200                                    :KB ELEVATION   
EGL .m   -36.940                                   :GROUND LEVEL   
CTRY.    New Zealand                               :COUNTRY        
SRVC.                                              :SERVICE COMPANY
DATE.    27-6-2000 (D-M-Y)                         :LOG DATE       
UWI .    GEO391  
#==================================================================
~Curve
DEPT .m                   : DEPTH
CNL .m3/m3                : CNL
SP .mV                    : SP
BHC .us/ft                : BHC
FDC .g/cm3                : FDC
GRI .API                  : GRI
~Parameter
#==================================================================
~Ascii
# ...
 469.20000000 0.5260000229  -999.250000 56.132999420  -999.250000 59.238998413
 469.30000000 0.5260000229  -999.250000 56.132999420  -999.250000 59.238998413
 469.40000000 0.5279999971  -999.250000 56.221000671  -999.250000 56.729999542
 469.50000000 0.5339999795  -999.250000 56.542999268  -999.250000 53.043998718
 469.60000000 0.5339999795  -999.250000 56.542999268  -999.250000 53.043998718
 469.70000000 0.5490000248  -999.250000 56.444999695  -999.250000 53.408000946
 469.80000000 0.5339999795  -999.250000 56.533000946  -999.250000 47.167999268
 469.90000000 0.5339999795  -999.250000 56.533000946  -999.250000 47.167999268
 470.00000000 0.5339999795  -999.250000 63.867000580  -999.250000 50.570999146
 470.10000000 0.5310000181  -999.250000 56.903999329  -999.250000 49.443000793
 470.20000000 0.5310000181  -999.250000 56.903999329  -999.250000 49.443000793
 470.30000000 0.5709999800  -999.250000 57.030998230  -999.250000 48.384998322
 470.40000000 0.6240000129  -999.250000 56.943000793  -999.250000 47.505001068
 470.50000000 0.6240000129  -999.250000 56.943000793  -999.250000 47.505001068
 470.60000000 0.6280000210  -999.250000 57.080001831  -999.250000 47.547000885
 470.70000000 0.6150000095  -999.250000 57.012001038  -999.250000 49.148998260
 470.80000000 0.6150000095  -999.250000 57.012001038  -999.250000 49.148998260
 470.90000000 0.5780000091  -999.250000 56.846000671  -999.250000 50.666999817
 471.00000000 0.5389999747  -999.250000 56.835998535  -999.250000 52.146999359
 471.10000000 0.5389999747  -999.250000 56.835998535  -999.250000 52.146999359
 471.20000000 0.4939999878  -999.250000 56.835998535  -999.250000 52.588001251
 471.30000000 0.5260000229  -999.250000 56.835998535  -999.250000 50.994998932
 471.40000000 0.5260000229  -999.250000 56.835998535  -999.250000 50.994998932
 471.50000000 0.5490000248  -999.250000 56.865001678  -999.250000 52.070999146
 471.60000000 0.5490000248  -999.250000 56.865001678  -999.250000 52.070999146
 471.70000000 0.5509999990  -999.250000 56.797000885  -999.250000 54.817001343
 471.80000000 0.4970000088  -999.250000 56.571998596  -999.250000 56.002998352
 471.90000000 0.4970000088  -999.250000 56.571998596  -999.250000 56.002998352
 472.00000000 0.5680000186  -999.250000 56.484001160  -999.250000 53.064998627
 472.10000000 0.5680000186  -999.250000 56.562999725  -999.250000 52.611999512
 472.20000000 0.5680000186  -999.250000 56.562999725  -999.250000 52.611999512
 472.30000000 0.5699999928  -999.250000 56.522998810  -999.250000 51.041999817
 472.40000000 0.5049999952  -999.250000 56.522998810  -999.250000 53.151000977
 472.50000000 0.5049999952  -999.250000 56.522998810  -999.250000 53.151000977
 472.60000000 0.5440000296  -999.250000 56.571998596  -999.250000 55.939998627
 472.70000000 0.5479999781  -999.250000 56.493999481  -999.250000 56.509998322
 472.80000000 0.5479999781  -999.250000 56.493999481  -999.250000 56.509998322
 472.90000000 0.5239999890  -999.250000 56.474998474  -999.250000 56.874000549
 473.00000000 0.4979999959  -999.250000 56.513999939  -999.250000 57.058998108
 473.10000000 0.4979999959  -999.250000 56.513999939  -999.250000 57.058998108
 473.20000000 0.5000000000  -999.250000 56.582000732  -999.250000 59.648998260
 473.30000000 0.5019999743  -999.250000 56.338001251  -999.250000 62.974998474
 473.40000000 0.5019999743  -999.250000 56.338001251  -999.250000 62.974998474
 473.50000000 0.5090000033  -999.250000 56.416000366  -999.250000 60.937000275
 473.60000000 0.4469999969  -999.250000 56.425998688  -999.250000 58.881999969
 473.70000000 0.4469999969  -999.250000 56.425998688  -999.250000 58.881999969
 473.80000000 0.4920000136  -999.250000 56.504001617  -999.250000 53.986000061
 473.90000000 0.4939999878  -999.250000 56.620998383  -999.250000 54.816001892
 474.00000000 0.4939999878  -999.250000 56.620998383  -999.250000 54.816001892
 474.10000000 0.5410000086  -999.250000 56.914001465  -999.250000 60.057998657
 474.20000000 0.5000000000  -999.250000 56.933998108  -999.250000 62.537998199
 474.30000000 0.5000000000  -999.250000 56.933998108  -999.250000 62.537998199
 474.40000000 0.4639999866  -999.250000 57.090000153  -999.250000 58.948001862
 474.50000000 0.4690000117  -999.250000 56.903999329  -999.250000 54.257999420
 474.60000000 0.4690000117  -999.250000 56.903999329  -999.250000 54.257999420
 474.70000000 0.4670000076  -999.250000 56.914001465  -999.250000 54.581001282
 474.80000000 0.4670000076  -999.250000 56.914001465  -999.250000 54.581001282
 474.90000000 0.4580000043  -999.250000 56.816001892  -999.250000 55.708000183
 475.00000000 0.4589999914  -999.250000 56.963001251  -999.250000 57.201999664
 475.10000000 0.4589999914  -999.250000 56.963001251  -999.250000 57.201999664
 475.20000000 0.4589999914  -999.250000 56.952999115  -999.250000 56.387001038
 475.30000000 0.5170000196  -999.250000 56.992000580  -999.250000 58.609001160
 475.40000000 0.5170000196  -999.250000 56.992000580  -999.250000 58.609001160
 475.50000000 0.4990000129  -999.250000 56.914001465  -999.250000 56.248001099
 475.60000000 0.5099999905  -999.250000 56.895000458  -999.250000 56.110000610
 475.70000000 0.5099999905  -999.250000 56.895000458  -999.250000 56.110000610
 475.80000000 0.4799999893  -999.250000 56.816001892  -999.250000 58.029998779
 475.90000000 0.4560000002  -999.250000 56.748001099  -999.250000 59.508998871
 476.00000000 0.4560000002  -999.250000 56.748001099  -999.250000 59.508998871
 476.10000000 0.4199999869  -999.250000 56.680000305  -999.250000 62.289001465
 476.20000000 0.4210000038  -999.250000 56.757999420  -999.250000 60.365001678
 476.30000000 0.4210000038  -999.250000 56.757999420  -999.250000 60.365001678
 476.40000000 0.3980000019  -999.250000 56.729000092  -999.250000 60.056999207
 476.50000000 0.4129999876  -999.250000 56.640998840  -999.250000 54.862998962
 476.60000000 0.4129999876  -999.250000 56.640998840  -999.250000 54.862998962
 476.70000000 0.4390000105  -999.250000 56.571998596  -999.250000 54.474998474
 476.80000000 0.4970000088  -999.250000 56.425998688  -999.250000 53.729000092
 476.90000000 0.4970000088  -999.250000 56.425998688  -999.250000 53.729000092
 477.00000000 0.4779999852  -999.250000 56.308998108  -999.250000 55.255001068
 477.10000000 0.4289999902  -999.250000 56.289001465  -999.250000 53.648998260
 477.20000000 0.4289999902  -999.250000 56.289001465  -999.250000 53.648998260
 477.30000000 0.4169999957  -999.250000 56.191001892  -999.250000 51.619998932
 477.40000000 0.4390000105  -999.250000 56.484001160  -999.250000 54.876998901
 477.50000000 0.4390000105  -999.250000 56.484001160  -999.250000 54.876998901
 477.60000000 0.4530000091  -999.250000 56.582000732  -999.250000 55.992000580
 477.70000000 0.4379999936  -999.250000 56.455001831  -999.250000 60.603000641
 477.80000000 0.4379999936  -999.250000 56.455001831  -999.250000 60.603000641
 477.90000000 0.4210000038  -999.250000 56.474998474  -999.250000 54.798000336
 478.00000000 0.4210000038  -999.250000 56.474998474  -999.250000 54.798000336
 478.10000000 0.4189999998  -999.250000 56.522998810  -999.250000 53.372001648
 478.20000000 0.4379999936  -999.250000 56.395999908  -999.250000 52.206001282
 478.30000000 0.4379999936  -999.250000 56.395999908  -999.250000 52.206001282
 478.40000000 0.4930000007  -999.250000 56.425998688  -999.250000 56.090000153
 478.50000000 0.5339999795  -999.250000 56.425998688  -999.250000 60.169998169
 478.60000000 0.5339999795  -999.250000 56.425998688  -999.250000 60.169998169
 478.70000000 0.5400000215  -999.250000 56.562999725  -999.250000 57.816001892
 478.80000000 0.5389999747  -999.250000 56.875000000  -999.250000 51.208000183
 478.90000000 0.5389999747  -999.250000 56.875000000  -999.250000 51.208000183
 479.00000000 0.5410000086  -999.250000 56.465000153  -999.250000 47.005001068
 479.10000000 0.5519999862  -999.250000 56.308998108  -999.250000 47.715000153
 479.20000000 0.5519999862  -999.250000 56.308998108  -999.250000 47.715000153
 479.30000000 0.5090000033  -999.250000 57.167999268  -999.250000 54.196998596
