# LAS format log file from PETREL
# Project units are specified as depth units
#==================================================================
~Version information
VERS.   2.0:
WRAP.   NO:
#==================================================================
~Well
STRT.m   149.0000                                  :START DEPTH    
STOP.m   4238.0445                                 :STOP DEPTH     
STEP.m   0.1524                                    :STEP           
NULL.    -999.25                                   :NULL VALUE     
COMP.                                              :COMPANY        
WELL.    Witiora-1                                 :WELL           
FLD .                                              :FIELD          
LOC .    LAT -39.1115760  LON 173.4752001          :LOCATION       
LATI.    -39.1115760                               :SURF. LATITUDE 
LONG.    173.4752001                               :SURF. LONGITUDE
EKB .m   26.000                                    :KB ELEVATION   
EGL .m   -128.000                                  :GROUND LEVEL   
CTRY.                                              :COUNTRY        
SRVC.                                              :SERVICE COMPANY
DATE.    --                                        :LOG DATE       
UWI .    GEO656                                    :UNIQUE WELL ID 
#==================================================================
~Curve
DEPT .m                   : DEPTH
CNL .m3/m3                : CNL
DRH .g/cm3                : DRH
ILD .ohm.m                : ILD
ILM .ohm.m                : ILM
SP .mV                    : SP
BHC .us/ft                : BHC
FDC .g/cm3                : FDC
GRI .API                  : GRI
~Parameter
#==================================================================
~Ascii
# ...
 2366.7248000 0.2797851861 0.0000244141 3.0585939884 2.8437500000 -25.42188072 86.000000000 2.4316411018 75.312500000
 2366.8772000 0.2617188096 0.0000151367 3.0175778866 2.8164060116 -25.65625000 85.750000000 2.4316411018 73.562500000
 2367.0296000 0.2763671875 0.0000288086 2.9902338982 2.7812500000 -26.14063072 85.375000000 2.4550778866 76.750000000
 2367.1820000 0.2680664063 0.0000185547 2.9433588982 2.7324221134 -26.87500000 85.375000000 2.4277338982 74.312500000
 2367.3344000 0.2846679986 0.0000136719 2.8906250000 2.6894528866 -27.40625000 85.125000000 2.3945310116 76.875000000
 2367.4868000 0.2861328125 -0.000002441 2.8593750000 2.6718750000 -27.17188263 84.875000000 2.3730471134 72.437500000
 2367.6392000 0.2954101861 -0.000010254 2.8691411018 2.6289060116 -27.15625000 84.625000000 2.3730471134 70.437500000
 2367.7916000 0.2988280952 -0.000005859 2.9042971134 2.6347661018 -26.89063263 85.250000000 2.3847661018 72.625000000
 2367.9440000 0.2900390923 -0.000003906 2.9687500000 2.6738278866 -27.17188263 85.625000000 2.4062500000 74.125000000
 2368.0964000 0.2792969048 0.0000146484 3.0507810116 2.7617189884 -26.40625000 86.125000000 2.3964838982 81.562500000
 2368.2488000 0.2626953125 0.0000000000 3.1289060116 2.9199221134 -26.14063072 86.250000000 2.3964838982 81.312500000
 2368.4012000 0.2724609077 0.0000000000 3.1660161018 3.0781250000 -25.87500000 86.000000000 2.3984379768 80.437500000
 2368.5536000 0.2729491889 -0.000001953 3.1875000000 3.1953129768 -25.84375000 86.750000000 2.4335939884 76.687500000
 2368.7060000 0.2797851861 0.0000180664 3.1796879768 3.1855471134 -27.10938072 86.500000000 2.4316411018 78.312500000
 2368.8584000 0.2817383111 0.0000126953 3.1933588982 3.0976560116 -27.37500000 86.875000000 2.4316411018 78.437500000
 2369.0108000 0.2807616889 0.0000058594 3.1855471134 3.0214838982 -28.14063072 87.375000000 2.4316411018 75.000000000
 2369.1632000 0.2861328125 0.0000014648 3.1621088982 2.9726560116 -27.67188072 87.250000000 2.4355471134 69.375000000
 2369.3156000 0.2709960938 0.0000107422 3.1230471134 2.9218750000 -27.40625000 86.750000000 2.4531250000 72.062500000
 2369.4680000 0.2680664063 0.0000185547 3.0507810116 2.8769528866 -26.89063263 86.375000000 2.4257810116 75.937500000
 2369.6204000 0.2744140923 0.0000161133 2.9746088982 2.8515629768 -26.90625000 85.750000000 2.4257810116 80.937500000
 2369.7728000 0.2778320014 0.0000024414 2.9316411018 2.8437500000 -26.39063072 86.750000000 2.3730471134 78.500000000
 2369.9252000 0.2934570014 -0.000003418 2.8925778866 2.8066411018 -26.37500000 85.500000000 2.3710939884 73.625000000
 2370.0776000 0.2866210938 -0.000006836 2.8691411018 2.8046879768 -26.64063072 86.000000000 2.3828129768 73.687500000
 2370.2300000 0.2900390923 -0.000003906 2.8710939884 2.8027338982 -26.65625000 85.750000000 2.3828129768 74.375000000
 2370.3824000 0.2729491889 0.0000092773 2.8867189884 2.8164060116 -26.93750000 85.875000000 2.3945310116 77.625000000
 2370.5348000 0.2812500000 0.0000195313 2.9101560116 2.8222661018 -26.42188072 86.000000000 2.4472661018 75.562500000
 2370.6872000 0.2768554986 0.0000541992 2.9082028866 2.8378911018 -26.40625000 86.250000000 2.4394528866 74.062500000
 2370.8396000 0.2890625000 0.0000468750 2.8652338982 2.8574221134 -26.14063072 85.375000000 2.4394528866 75.125000000
 2370.9920000 0.2841796875 0.0000380859 2.7832028866 2.8359379768 -25.62500000 86.000000000 2.4316411018 77.875000000
 2371.1444000 0.2968750000 0.0000151367 2.7070310116 2.7656250000 -26.39063072 85.375000000 2.4082028866 78.375000000
 2371.2968000 0.3046875000 -0.000002930 2.5898439884 2.6445310116 -26.17188263 85.625000000 2.4101560116 77.500000000
 2371.4492000 0.2895508111 -0.000001953 2.5351560116 2.4707028866 -27.15625000 86.500000000 2.4062500000 71.937500000
 2371.6016000 0.2885741889 -0.000004395 2.4863278866 2.2910161018 -27.14063072 86.125000000 2.4062500000 72.812500000
 2371.7540000 0.2905273139 0.0000034180 2.4667971134 2.2187500000 -27.90625000 87.500000000 2.4101560116 74.125000000
 2371.9064000 0.2905273139 0.0000166016 2.4453129768 2.2402338982 -27.89063263 88.875000000 2.4023439884 79.000000000
 2372.0588000 0.2939453125 0.0000283203 2.4550778866 2.2089838982 -28.17188072 86.375000000 2.3671879768 84.625000000
 2372.2112000 0.2851563096 0.0000234375 2.4687500000 2.3183588982 -27.90625000 87.750000000 2.3671879768 78.500000000
 2372.3636000 0.2919921875 0.0000048828 2.5136721134 2.4746088982 -27.39063072 87.500000000 2.3378911018 73.062500000
 2372.5160000 0.2929688096 -0.000004883 2.6074221134 2.6816411018 -27.15625000 84.750000000 2.3671879768 68.875000000
 2372.6684000 0.2900390923 -0.000000488 2.7285161018 2.6894528866 -26.43750000 86.250000000 2.4062500000 70.562500000
 2372.8208000 0.2778320014 0.0000166016 2.8320310116 2.7343750000 -26.67188072 85.375000000 2.4062500000 77.687500000
 2372.9732000 0.2636719048 0.0000234375 2.8769528866 2.7226560116 -26.15625000 85.125000000 2.3984379768 81.062500000
 2373.1256000 0.2749023139 0.0000297852 2.9218750000 2.7128911018 -26.89063263 85.500000000 2.4003911018 82.687500000
 2373.2780000 0.3017578125 0.0000092773 2.9257810116 2.6972661018 -26.87500000 85.125000000 2.4140629768 77.062500000
 2373.4304000 0.3144530952 0.0000034180 2.9296879768 2.6992189884 -27.10938072 85.125000000 2.4082028866 72.187500000
 2373.5828000 0.3056640923 -0.000005371 2.9355471134 2.7089838982 -26.87500000 85.375000000 2.4082028866 76.062500000
 2373.7352000 0.2905273139 0.0000097656 2.9609379768 2.7441411018 -26.39063072 85.250000000 2.4296879768 80.062500000
 2373.8876000 0.2954101861 0.0000151367 2.9433588982 2.7812500000 -26.12500000 85.750000000 2.4609379768 86.375000000
 2374.0400000 0.2939453125 0.0000332031 2.9648439884 2.7773439884 -26.14063072 85.125000000 2.4414060116 88.125000000
 2374.1924000 0.2875976861 0.0000112305 3.0039060116 2.7832028866 -26.37500000 85.250000000 2.4414060116 82.812500000
 2374.3448000 0.2827148139 -0.000001465 3.0273439884 2.7949221134 -26.14063072 85.875000000 2.4257810116 75.625000000
 2374.4972000 0.2724609077 -0.000008789 3.0761721134 2.8183588982 -26.15625000 85.875000000 2.3984379768 73.812500000
 2374.6496000 0.2744140923 -0.000006348 3.1171879768 2.8339838982 -25.92188072 86.375000000 2.4003911018 81.062500000
 2374.8020000 0.2607421875 -0.000001465 3.1914060116 2.8652338982 -26.15625000 86.250000000 2.4003911018 82.750000000
 2374.9544000 0.2729491889 -0.000002930 3.2792971134 2.9785161018 -26.65625000 86.500000000 2.4082028866 80.187500000
 2375.1068000 0.2832030952 -0.000004883 3.3535161018 3.1250000000 -26.92188072 86.250000000 2.4433588982 77.687500000
 2375.2592000 0.2841796875 0.0000048828 3.3632810116 3.2304689884 -27.93750000 85.250000000 2.4746088982 77.437500000
 2375.4116000 0.2763671875 0.0000224609 3.3339838982 3.1738278866 -27.43750000 84.625000000 2.4687500000 74.625000000
 2375.5640000 0.2626953125 0.0000263672 3.2539060116 2.9863278866 -27.42188072 84.750000000 2.4687500000 76.875000000
 2375.7164000 0.2783203125 0.0000058594 3.0664060116 2.8535161018 -27.15625000 86.625000000 2.4648439884 78.875000000
 2375.8688000 0.2690429986 -0.000007813 2.7460939884 2.6679689884 -27.43750000 88.250000000 2.4511721134 81.375000000
 2376.0212000 0.2988280952 -0.000001465 2.3554689884 2.3652338982 -27.17188263 90.000000000 2.4335939884 81.687500000
 2376.1736000 0.2958984077 0.0000200195 1.9355469942 1.9687500000 -26.67188072 90.250000000 2.4335939884 78.312500000
 2376.3260000 0.3061523139 0.0000229492 1.7001949549 1.6240229607 -26.65625000 90.750000000 2.4003911018 74.812500000
 2376.4784000 0.2861328125 0.0000073242 1.5693360567 1.4140629768 -26.39063072 91.000000000 2.3593750000 67.125000000
 2376.6308000 0.2944335938 0.0000107422 1.4609379768 1.3085939884 -26.12500000 90.000000000 2.3378911018 64.250000000
 2376.7832000 0.3090820014 0.0000195313 1.3466800451 1.2421879768 -25.14063072 90.000000000 2.3378911018 66.312500000
 2376.9356000 0.3071289063 0.0000302734 1.2421879768 1.1796879768 -25.35938072 89.750000000 2.3125000000 65.312500000
