# LAS format log file from PETREL
# Project units are specified as depth units
#==================================================================
~Version information
VERS.   2.0:
WRAP.   NO:
#==================================================================
~Well
STRT.m   149.0000                                  :START DEPTH    
STOP.m   4238.0445                                 :STOP DEPTH     
STEP.m   0.1524                                    :STEP           
NULL.    -999.25                                   :NULL VALUE     
COMP.                                              :COMPANY        
WELL.    Witiora-1                                 :WELL           
FLD .                                              :FIELD          
LOC .    LAT -39.1115760  LON 173.4752001          :LOCATION       
LATI.    -39.1115760                               :SURF. LATITUDE 
LONG.    173.4752001                               :SURF. LONGITUDE
EKB .m   26.000                                    :KB ELEVATION   
EGL .m   -128.000                                  :GROUND LEVEL   
CTRY.                                              :COUNTRY        
SRVC.                                              :SERVICE COMPANY
DATE.    --                                        :LOG DATE       
UWI .    GEO656                                    :UNIQUE WELL ID 
#==================================================================
~Curve
DEPT .m                   : DEPTH
CNL .m3/m3                : CNL
DRH .g/cm3                : DRH
ILD .ohm.m                : ILD
ILM .ohm.m                : ILM
SP .mV                    : SP
BHC .us/ft                : BHC
FDC .g/cm3                : FDC
GRI .API                  : GRI
~Parameter
#==================================================================
~Ascii
# ...
 4232.1009000 0.1025390998 0.0002221680 90.562500000 2000.0000000 -39.75000000  -999.250000 2.5371088982 75.875000000
 4232.2533000 0.1025390998 0.0002128906 88.312500000 2000.0000000 -39.28125000  -999.250000 2.5292971134 75.875000000
 4232.4057000 0.1025390998 0.0002075195 86.937500000 2000.0000000 -38.81250000  -999.250000 2.5312500000 75.875000000
 4232.5581000 0.1025390998 0.0002089844 88.062500000 2000.0000000 -38.84375000  -999.250000 2.5468750000 75.875000000
 4232.7105000 0.1025390998 0.0002211914 89.812500000 2000.0000000 -38.90625000  -999.250000 2.5429689884 75.875000000
 4232.8629000 0.1025390998 0.0002167969 88.312500000 2000.0000000 -38.96875000  -999.250000 2.5429689884 75.875000000
 4233.0153000 0.1025390998 0.0002329102 90.000000000 2000.0000000 -39.53125000  -999.250000 2.5605471134 75.875000000
 4233.1677000 0.1025390998 0.0002368164 88.312500000 2000.0000000 -39.34375000  -999.250000 2.5605471134 75.875000000
 4233.3201000 0.1025390998 0.0002460938 88.312500000 2000.0000000 -39.68750000  -999.250000 2.5703129768 75.875000000
 4233.4725000 0.1025390998 0.0002363281 89.062500000 2000.0000000 -40.03125000  -999.250000 2.5585939884 75.875000000
 4233.6249000 0.1025390998 0.0002329102 87.500000000 2000.0000000 -38.87500000  -999.250000 2.5527338982 75.875000000
 4233.7773000 0.1025390998 0.0002290039 90.625000000 2000.0000000 -37.50000000  -999.250000 2.5546879768 75.875000000
 4233.9297000 0.1025390998 0.0002290039 89.062500000 2000.0000000 -41.25000000  -999.250000 2.5625000000 75.875000000
 4234.0821000 0.1025390998 0.0002348633 90.625000000 2000.0000000 -44.00000000  -999.250000 2.5585939884 75.875000000
 4234.2345000 0.1025390998 0.0002299805 87.562500000 2000.0000000 -49.75000000  -999.250000 2.5585939884 75.875000000
 4234.3869000 0.1025390998 0.0002177734 86.875000000 2000.0000000 -53.37500000  -999.250000 2.5468750000 75.875000000
 4234.5393000 0.1025390998 0.0001962891 89.937500000 2000.0000000 -52.50000000  -999.250000 2.5234379768 75.875000000
 4234.6917000 0.1025390998 0.0001967773 89.812500000 2000.0000000 -56.00000000  -999.250000 2.5234379768 75.875000000
 4234.8441000 0.1025390998 0.0001943359 87.562500000 2000.0000000 -62.00000000  -999.250000 2.5351560116 75.875000000
 4234.9965000 0.1025390998 0.0002055664 87.500000000 2000.0000000 -65.00000000  -999.250000 2.5195310116 75.875000000
 4235.1489000 0.1025390998 0.0001933594 87.562500000 2000.0000000 -66.50000000  -999.250000 2.5195310116 75.875000000
 4235.3013000 0.1025390998 0.0001977539 87.562500000 2000.0000000 -36.50000000  -999.250000 2.5156250000 75.875000000
 4235.4537000 0.1025390998 0.0001943359 87.500000000 2000.0000000 6.0000000000  -999.250000 2.5156250000 75.875000000
 4235.6061000 0.1025390998 0.0002070313 87.562500000 2000.0000000 4.5000000000  -999.250000 2.5273439884 75.875000000
 4235.7585000 0.1025390998 0.0002080078 87.437500000 2000.0000000 4.0000000000  -999.250000 2.5312500000 75.875000000
 4235.9109000 0.1025390998 0.0002021484 87.500000000 2000.0000000 5.5000000000  -999.250000 2.5234379768 75.875000000
 4236.0633000 0.1025390998 0.0002084961 87.437500000 2000.0000000 57.000000000  -999.250000 2.5253911018 75.875000000
 4236.2157000 0.1025390998 0.0002060547 87.562500000 2000.0000000 63.500003815  -999.250000 2.5332028866 75.875000000
 4236.3681000 0.1025390998 0.0002148438 87.625000000 2000.0000000 64.500000000  -999.250000 2.5292971134 75.875000000
 4236.5205000 0.1025390998 0.0002109375 87.500000000  -999.250000  -999.250000  -999.250000 2.5371088982  -999.250000
 4236.6729000 0.1025390998 0.0002163086  -999.250000  -999.250000  -999.250000  -999.250000 2.5332028866  -999.250000
 4236.8253000 0.1025390998 0.0002099609  -999.250000  -999.250000  -999.250000  -999.250000 2.5332028866  -999.250000
 4236.9777000 0.1025390998 0.0002006836  -999.250000  -999.250000  -999.250000  -999.250000 2.5195310116  -999.250000
 4237.1301000 0.1025390998 0.0001967773  -999.250000  -999.250000  -999.250000  -999.250000 2.5156250000  -999.250000
 4237.2825000 0.1025390998 0.0001967773  -999.250000  -999.250000  -999.250000  -999.250000 2.5156250000  -999.250000
 4237.4349000  -999.250000  -999.250000  -999.250000  -999.250000  -999.250000  -999.250000  -999.250000  -999.250000
 4237.5873000  -999.250000  -999.250000  -999.250000  -999.250000  -999.250000  -999.250000  -999.250000  -999.250000
 4237.7397000  -999.250000  -999.250000  -999.250000  -999.250000  -999.250000  -999.250000  -999.250000  -999.250000
 4237.8921000  -999.250000  -999.250000  -999.250000  -999.250000  -999.250000  -999.250000  -999.250000  -999.250000
 4238.0445000  -999.250000  -999.250000  -999.250000  -999.250000  -999.250000  -999.250000  -999.250000  -999.250000
