# LAS format log file from PETREL
# Project units are specified as depth units
#==================================================================
~Version information
VERS.   2.0:
WRAP.   NO:
#==================================================================
~Well
STRT.m   149.0000                                  :START DEPTH    
STOP.m   4238.0445                                 :STOP DEPTH     
STEP.m   0.1524                                    :STEP           
NULL.    -999.25                                   :NULL VALUE     
COMP.                                              :COMPANY        
WELL.    Witiora-1                                 :WELL           
FLD .                                              :FIELD          
LOC .    LAT -39.1115760  LON 173.4752001          :LOCATION       
LATI.    -39.1115760                               :SURF. LATITUDE 
LONG.    173.4752001                               :SURF. LONGITUDE
EKB .m   26.000                                    :KB ELEVATION   
EGL .m   -128.000                                  :GROUND LEVEL   
CTRY.                                              :COUNTRY        
SRVC.                                              :SERVICE COMPANY
DATE.    --                                        :LOG DATE       
UWI .    GEO656                                    :UNIQUE WELL ID 
#==================================================================
~Curve
DEPT .m                   : DEPTH
CNL .m3/m3                : CNL
DRH .g/cm3                : DRH
ILD .ohm.m                : ILD
ILM .ohm.m                : ILM
SP .mV                    : SP
BHC .us/ft                : BHC
FDC .g/cm3                : FDC
GRI .API                  : GRI
~Parameter
#==================================================================
~Ascii
# ...
 2905.6112000 0.2919921875 0.0000253906 3.4492189884 3.0957028866 -24.90625000 81.500000000 2.4335939884 61.500000000
 2905.7636000 0.3120116889 0.0000214844 3.3203129768 3.0039060116 -25.17188072 81.125000000 2.4335939884 60.312500000
 2905.9160000 0.2861328125 0.0000185547 3.2050778866 2.8964838982 -25.15625000 81.500000000 2.4296879768 59.625000000
 2906.0684000 0.2753905952 0.0000224609 3.1660161018 2.8085939884 -25.65625000 81.375000000 2.4296879768 57.906250000
 2906.2208000 0.2607421875 0.0000073242 3.1738278866 2.7968750000 -26.17188263 81.750000000 2.4335939884 57.500000000
 2906.3732000 0.2661133111 0.0000195313 3.1835939884 2.9121088982 -26.15625000 82.750000000 2.4218750000 60.468750000
 2906.5256000 0.2548828125 0.0000200195 3.1933588982 2.9804689884 -26.39063072 82.625000000 2.4257810116 62.656250000
 2906.6780000 0.2670898139 0.0000180664 3.1875000000 2.9609379768 -26.15625000 83.000000000 2.4257810116 66.125000000
 2906.8304000 0.2773438096 0.0000000000 3.1757810116 2.9667971134 -25.89063072 83.625000000 2.4042971134 67.375000000
 2906.9828000 0.2905273139 -0.000004395 3.2617189884 3.0000000000 -25.42188072 83.375000000 2.4257810116 64.812500000
 2907.1352000 0.2802734077 -0.000000488 3.3339838982 3.0253911018 -24.90625000 84.000000000 2.4589838982 64.062500000
 2907.2876000 0.2656250000 0.0000131836 3.2675778866 3.0312500000 -23.89063072 84.625000000 2.4589838982 66.250000000
 2907.4400000 0.2529296875 0.0000317383 3.1953129768 3.0195310116 -24.15625000 84.000000000 2.4902338982 65.937500000
 2907.5924000 0.2602539063 0.0000332031 3.1503911018 2.9882810116 -23.89063072 83.500000000 2.4394528866 67.312500000
 2907.7448000 0.2827148139 0.0000180664 3.1054689884 2.9121088982 -24.67188072 83.250000000 2.4335939884 61.593750000
 2907.8972000 0.3022460938 0.0000136719 3.0957028866 2.8281250000 -24.43750000 83.000000000 2.4316411018 61.375000000
 2908.0496000 0.3159179986 -0.000000977 3.0957028866 2.7851560116 -24.68750000 82.875000000 2.4316411018 58.875000000
 2908.2020000 0.3095703125 -0.000010254 3.0820310116 2.7265629768 -24.67188072 82.750000000 2.3984379768 56.750000000
 2908.3544000 0.2836914063 -0.000018555 3.0703129768 2.7949221134 -24.93750000 82.250000000 2.3906250000 54.906250000
 2908.5068000 0.2778320014 -0.000017578 3.0957028866 2.8906250000 -25.18750000 82.625000000 2.4101560116 54.593750000
 2908.6592000 0.2583008111 -0.000007813 3.1230471134 2.9082028866 -24.92188072 83.875000000 2.4101560116 59.406250000
 2908.8116000 0.2851563096 -0.000007813 3.0898439884 2.8671879768 -25.45313072 85.250000000 2.3925778866 63.562500000
 2908.9640000 0.2724609077 -0.000011231 3.0683588982 2.8046879768 -25.68750000 86.500000000 2.3750000000 67.062500000
 2909.1164000 0.2836914063 -0.000013184 3.1445310116 2.8339838982 -26.42188072 87.875000000 2.3925778866 65.250000000
 2909.2688000 0.2812500000 -0.000011719 3.1914060116 2.9277338982 -26.42188072 87.000000000 2.3925778866 68.625000000
 2909.4212000 0.2836914063 -0.000007324 3.2167971134 3.0722661018 -26.43750000 85.625000000 2.4238278866 68.625000000
 2909.5736000 0.2973633111 0.0000014648 3.2148439884 3.1015629768 -25.93750000 84.875000000 2.4863278866 71.750000000
 2909.7260000 0.2988280952 0.0000151367 3.1855471134 3.0429689884 -25.92188072 85.625000000 2.4902338982 75.187500000
 2909.8784000 0.3149414063 0.0000131836 3.1601560116 2.9921879768 -25.43750000 84.750000000 2.4707028866 77.312500000
 2910.0308000 0.2895508111 -0.000000488 3.1796879768 2.9960939884 -25.43750000 84.625000000 2.4707028866 71.625000000
 2910.1832000 0.2778320014 -0.000001953 3.2675778866 3.0234379768 -25.17188072 85.000000000 2.4726560116 68.750000000
 2910.3356000 0.2763671875 -0.000002441 3.3320310116 3.0253911018 -24.65625000 85.500000000 2.4863278866 65.437500000
 2910.4880000 0.2871094048 0.0000024414 3.3828129768 3.1132810116 -24.39063072 86.750000000 2.4746088982 75.062500000
 2910.6404000 0.2851563096 -0.000010742 3.3828129768 3.1933588982 -24.12500000 88.250000000 2.4746088982 77.562500000
 2910.7928000 0.2705078125 -0.000002930 3.3476560116 3.1796879768 -23.85938263 88.750000000 2.4726560116 80.312500000
 2910.9452000 0.2832030952 -0.000009766 3.3222661018 3.1269528866 -23.84375000 88.625000000 2.4375000000 77.187500000
 2911.0976000 0.2871094048 -0.000007324 3.3203129768 3.1054689884 -24.56250000 87.625000000 2.4453129768 72.375000000
 2911.2500000 0.2963866889 -0.000015137 3.3652338982 3.0644528866 -24.82813072 86.750000000 2.4453129768 68.937500000
 2911.4024000 0.2978515923 -0.000004395 3.3925778866 3.0742189884 -25.34375000 84.500000000 2.4980471134 66.437500000
 2911.5548000 0.3134765923 0.0000034180 3.3574221134 3.0800778866 -25.09375000 83.375000000 2.5449221134 69.187500000
 2911.7072000 0.3222655952 0.0000263672 3.2285161018 3.0214838982 -25.10938072 82.875000000 2.5039060116 67.875000000
 2911.8596000 0.3188476861 0.0000273438 3.1406250000 2.8867189884 -25.62500000 82.375000000 2.4804689884 66.250000000
 2912.0120000 0.3281250000 0.0000322266 3.1347661018 2.7832028866 -25.89063072 83.000000000 2.4804689884 59.312500000
 2912.1644000 0.3310546875 0.0000170898 3.0917971134 2.7597661018 -25.87500000 83.000000000 2.4257810116 58.937500000
 2912.3168000 0.3256835938 0.0000083008 3.0214838982 2.7519528866 -25.60938072 83.375000000 2.4277338982 59.156250000
 2912.4692000 0.3164063096 0.0000073242 2.9628911018 2.7656250000 -25.62500000 83.625000000 2.4160161018 64.812500000
 2912.6216000 0.3022460938 0.0000131836 2.9433588982 2.7011721134 -25.10938072 84.125000000 2.4160161018 60.375000000
 2912.7740000 0.2807616889 -0.000000488 2.9843750000 2.6386721134 -25.12500000 85.125000000 2.3945310116 62.656250000
 2912.9264000 0.2685546875 -0.000006348 3.0800778866 2.6933588982 -24.39063072 85.750000000 2.3613278866 57.843750000
 2913.0788000 0.2890625000 -0.000009766 3.1855471134 2.8320310116 -24.15625000 86.500000000 2.3535161018 59.218750000
 2913.2312000 0.3017578125 -0.000006836 3.2421879768 2.9804689884 -23.64063072 86.750000000 2.3535161018 57.218750000
 2913.3836000 0.3286133111 -0.000006348 3.2773439884 3.1015629768 -23.87500000 85.500000000 2.3476560116 60.437500000
 2913.5360000 0.3100585938 -0.000008789 3.3085939884 3.1816411018 -23.89063072 85.750000000 2.3710939884 63.000000000
 2913.6884000 0.3120116889 -0.000004883 3.3671879768 3.2363278866 -24.62500000 86.000000000 2.4062500000 61.937500000
 2913.8408000 0.2856445014 -0.000005859 3.4375000000 3.2343750000 -24.64063072 86.125000000 2.4296879768 63.031250000
 2913.9932000 0.2749023139 -0.000002930 3.4843750000 3.1699221134 -25.40625000 82.375000000 2.4296879768 67.187500000
 2914.1456000 0.2768554986 -0.000004883 3.5410161018 3.1816411018 -25.89063072 80.375000000 2.4902338982 65.437500000
 2914.2980000 0.2739258111 0.0000151367 3.5566411018 3.3183588982 -26.12500000 78.125000000 2.5078129768 60.531250000
 2914.4504000 0.2880859077 0.0000141602 3.5468750000 3.4531250000 -26.14063072 78.125000000 2.5253911018 51.125000000
 2914.6028000 0.2832030952 0.0000292969 3.4980471134 3.5058588982 -25.62500000 81.250000000 2.5253911018 52.437500000
 2914.7552000 0.3002929986 0.0000415039 3.4609379768 3.4394528866 -25.85938072 83.875000000 2.5058588982 54.343750000
 2914.9076000 0.3076171875 0.0000708008 3.4570310116 3.3359379768 -25.12500000 86.125000000 2.4257810116 56.625000000
 2915.0600000 0.3061523139 0.0000502930 3.5683588982 3.2949221134 -25.60938072 85.250000000 2.4023439884 50.968750000
 2915.2124000 0.2929688096 0.0000263672 3.6503911018 3.3437500000 -25.60938072 84.250000000 2.4023439884 47.937500000
 2915.3648000 0.2895508111 0.0000117188 3.7207028866 3.3906250000 -25.87500000 83.875000000 2.4101560116 48.718750000
 2915.5172000 0.3129883111 0.0000263672 3.7519528866 3.4003911018 -25.40625000 85.375000000 2.4277338982 52.625000000
 2915.6696000 0.3129883111 0.0000297852 3.7167971134 3.3945310116 -25.64063072 86.125000000 2.4042971134 56.968750000
 2915.8220000 0.2988280952 0.0000122070 3.6679689884 3.3906250000 -25.65625000 85.500000000 2.3984379768 57.406250000
