# LAS format log file from PETREL
# Project units are specified as depth units
#==================================================================
~Version information
VERS.   2.0:
WRAP.   NO:
#==================================================================
~Well
STRT.m   149.0000                                  :START DEPTH    
STOP.m   4238.0445                                 :STOP DEPTH     
STEP.m   0.1524                                    :STEP           
NULL.    -999.25                                   :NULL VALUE     
COMP.                                              :COMPANY        
WELL.    Witiora-1                                 :WELL           
FLD .                                              :FIELD          
LOC .    LAT -39.1115760  LON 173.4752001          :LOCATION       
LATI.    -39.1115760                               :SURF. LATITUDE 
LONG.    173.4752001                               :SURF. LONGITUDE
EKB .m   26.000                                    :KB ELEVATION   
EGL .m   -128.000                                  :GROUND LEVEL   
CTRY.                                              :COUNTRY        
SRVC.                                              :SERVICE COMPANY
DATE.    --                                        :LOG DATE       
UWI .    GEO656                                    :UNIQUE WELL ID 
#==================================================================
~Curve
DEPT .m                   : DEPTH
CNL .m3/m3                : CNL
DRH .g/cm3                : DRH
ILD .ohm.m                : ILD
ILM .ohm.m                : ILM
SP .mV                    : SP
BHC .us/ft                : BHC
FDC .g/cm3                : FDC
GRI .API                  : GRI
~Parameter
#==================================================================
~Ascii
# ...
 2107.6448000 0.3007813096 -0.000005371 1.7968750000 1.7099610567 -25.31250000 89.625000000 2.3261721134 71.062500000
 2107.7972000 0.2880859077 0.0000073242 1.7812500000 1.6933590174 -25.81250000 89.375000000 2.3320310116 75.437500000
 2107.9496000 0.2871094048 0.0000034180 1.8076169491 1.7119139433 -25.32813072 89.875000000 2.3359379768 71.625000000
 2108.1020000 0.2744140923 0.0000102539 1.8632810116 1.7460939884 -25.57813263 89.250000000 2.3515629768 71.875000000
 2108.2544000 0.2651366889 0.0000200195 1.9775389433 1.7998050451 -24.84375000 87.250000000 2.3515629768 66.875000000
 2108.4068000 0.2802734077 0.0000214844 2.1035161018 1.9492189884 -25.10938072 82.250000000 2.3476560116 68.687500000
 2108.5592000 0.2763671875 0.0000141602 2.1621088982 2.2265629768 -24.09375000 78.125000000 2.2988278866 68.687500000
 2108.7116000 0.2934570014 -0.000000977 2.1562500000 2.4218750000 -24.09375000 75.625000000 2.2910161018 66.812500000
 2108.8640000 0.2900390923 -0.000005859 2.1464838982 2.3144528866 -24.10938072 77.500000000 2.2910161018 71.125000000
 2109.0164000 0.2661133111 -0.000018555 2.1875000000 2.1191411018 -23.62500000 83.625000000 2.2910161018 77.687500000
 2109.1688000 0.2475585938 -0.000003906 2.2421879768 2.0410161018 -23.89063072 87.750000000 2.4218750000 84.250000000
 2109.3212000 0.2143554986 0.0000034180 2.2343750000 2.0449221134 -23.37500000 89.875000000 2.4941411018 79.000000000
 2109.4736000 0.2407227010 0.0000649414 2.1562500000 1.9697270393 -24.14063263 89.625000000 2.4042971134 75.437500000
 2109.6260000 0.2602539063 0.0000229492 1.9941409826 1.8671879768 -24.17188072 89.000000000 2.4042971134 75.187500000
 2109.7784000 0.2841796875 0.0000297852 1.8369139433 1.7900389433 -24.90625000 88.625000000 2.3710939884 81.000000000
 2109.9308000 0.2900390923 0.0000092773 1.7646479607 1.7216800451 -25.17188072 89.000000000 2.3691411018 78.875000000
 2110.0832000 0.2739258111 0.0000375977 1.7402340174 1.6689449549 -25.15625000 89.750000000 2.3554689884 74.687500000
 2110.2356000 0.2939453125 0.0000302734 1.7500000000 1.6416020393 -25.65625000 90.375000000 2.3554689884 72.500000000
 2110.3880000 0.2924804986 0.0000341797 1.7695310116 1.6533199549 -25.64063072 90.375000000 2.3554689884 67.875000000
 2110.5404000 0.3085938096 0.0000244141 1.7753909826 1.6835939884 -26.12500000 89.875000000 2.3125000000 67.437500000
 2110.6928000 0.3007813096 0.0000146484 1.8017580509 1.7294919491 -25.64063072 89.375000000 2.3007810116 64.562500000
 2110.8452000 0.2910155952 0.0000200195 1.8662110567 1.7832030058 -25.65625000 88.875000000 2.2812500000 69.437500000
 2110.9976000 0.2768554986 0.0000107422 1.9121090174 1.8378909826 -24.89063072 89.000000000 2.2812500000 71.250000000
 2111.1500000 0.2553710938 0.0000346680 1.9580080509 1.9052729607 -24.62500000 89.000000000 2.3164060116 73.062500000
 2111.3024000 0.2626953125 0.0000249023 2.0195310116 1.9794919491 -24.59375000 89.875000000 2.3242189884 74.062500000
 2111.4548000 0.2592773139 0.0000224609 2.0761721134 2.0156250000 -24.60938072 89.750000000 2.3027338982 72.437500000
 2111.6072000 0.2685546875 -0.000002441 2.1250000000 2.0292971134 -25.09375000 89.500000000 2.3027338982 77.750000000
 2111.7596000 0.2690429986 -0.000003906 2.1503911018 2.0449221134 -24.60938072 89.625000000 2.2910161018 73.437500000
 2111.9120000 0.2783203125 0.0000136719 2.1601560116 2.0449221134 -24.82813072 89.625000000 2.3183588982 76.562500000
 2112.0644000 0.2890625000 0.0000214844 2.1582028866 2.0390629768 -25.06250000 89.625000000 2.3359379768 68.000000000
 2112.2168000 0.2871094048 0.0000273438 2.1562500000 2.0332028866 -25.31250000 89.875000000 2.3359379768 70.125000000
 2112.3692000 0.2934570014 0.0000361328 2.1660161018 2.0273439884 -25.57813263 90.125000000 2.3476560116 69.000000000
 2112.5216000 0.2724609077 0.0000429688 2.1777338982 2.0312500000 -25.32813072 90.375000000 2.3613278866 75.687500000
 2112.6740000 0.2612304986 0.0000454102 2.1738278866 2.0449221134 -25.84375000 90.125000000 2.3535161018 75.687500000
 2112.8264000 0.2573241889 0.0000273438 2.1718750000 2.0683588982 -25.60938072 90.625000000 2.3378911018 74.937500000
 2112.9788000 0.2841796875 0.0000185547 2.1718750000 2.0820310116 -26.09375000 90.625000000 2.3378911018 74.375000000
 2113.1312000 0.3017578125 0.0000258789 2.1679689884 2.0839838982 -25.84375000 91.000000000 2.3496088982 79.250000000
 2113.2836000 0.3017578125 0.0000288086 2.1679689884 2.0742189884 -25.60938072 91.250000000 2.3671879768 76.937500000
 2113.4360000 0.2783203125 0.0000390625 2.1660161018 2.0449221134 -25.34375000 90.875000000 2.3437500000 74.437500000
 2113.5884000 0.2832030952 0.0000190430 2.1640629768 2.0292971134 -25.59375000 90.750000000 2.3437500000 70.312500000
 2113.7408000 0.2885741889 0.0000219727 2.1523439884 2.0078129768 -26.60938072 90.750000000 2.3378911018 74.500000000
 2113.8932000 0.2851563096 0.0000195313 2.1542971134 1.9960939884 -26.59375000 91.125000000 2.3535161018 78.312500000
 2114.0456000 0.2812500000 0.0000322266 2.1503911018 1.9921879768 -27.07813072 90.500000000 2.3554689884 80.000000000
 2114.1980000 0.2617188096 0.0000302734 2.1406250000 1.9931639433 -26.32813072 90.750000000 2.3554689884 76.312500000
 2114.3504000 0.2675780952 0.0000214844 2.1347661018 1.9804689884 -26.34375000 91.250000000 2.3398439884 75.062500000
 2114.5028000 0.2495117038 0.0000214844 2.1386721134 1.9667969942 -26.60938072 90.875000000 2.3593750000 72.125000000
 2114.6552000 0.2675780952 0.0000107422 2.1445310116 1.9736330509 -26.10938072 91.000000000 2.3750000000 75.312500000
 2114.8076000 0.2641601861 0.0000239258 2.1464838982 1.9833979607 -26.12500000 91.250000000 2.3515629768 70.750000000
 2114.9600000 0.2807616889 0.0000234375 2.1445310116 1.9853520393 -25.40625000 91.125000000 2.3515629768 69.187500000
 2115.1124000 0.2773438096 0.0000405273 2.1425778866 1.9892580509 -25.14063072 91.000000000 2.3652338982 72.187500000
 2115.2648000 0.2714844048 0.0000478516 2.1523439884 1.9951169491 -24.90625000 91.750000000 2.4062500000 72.562500000
 2115.4172000 0.2651366889 0.0000561523 2.1484379768 1.9912110567 -24.89063072 91.875000000 2.3789060116 75.875000000
 2115.5696000 0.2495117038 0.0000361328 2.1503911018 1.9921879768 -24.62500000 91.375000000 2.3789060116 70.250000000
 2115.7220000 0.2734375000 0.0000302734 2.1484379768 1.9853520393 -24.64063072 91.375000000 2.3750000000 70.562500000
 2115.8744000 0.2670898139 0.0000209961 2.1562500000 1.9824219942 -25.12500000 91.375000000 2.3554689884 67.687500000
 2116.0268000 0.2827148139 0.0000224609 2.1679689884 1.9765629768 -24.89063072 91.500000000 2.3476560116 71.250000000
 2116.1792000 0.2817383111 0.0000185547 2.1777338982 1.9853520393 -25.87500000 91.250000000 2.3476560116 73.812500000
 2116.3316000 0.3027344048 0.0000131836 2.1835939884 1.9824219942 -26.09375000 91.000000000 2.3417971134 79.375000000
 2116.4840000 0.3208008111 0.0000024414 2.1835939884 1.9755860567 -26.35938072 91.375000000 2.3476560116 78.375000000
 2116.6364000 0.3110351861 0.0000209961 2.1914060116 1.9785159826 -26.62500000 90.750000000 2.3691411018 80.500000000
 2116.7888000 0.3139648139 0.0000317383 2.1914060116 1.9833979607 -26.85938072 91.250000000 2.3964838982 75.625000000
 2116.9412000 0.2763671875 0.0000395508 2.2070310116 1.9697270393 -27.37500000 91.875000000 2.3964838982 74.750000000
 2117.0936000 0.3022460938 0.0000043945 2.2011721134 1.9667969942 -26.89063263 92.000000000 2.3554689884 73.375000000
 2117.2460000 0.2895508111 -0.000001953 2.2148439884 1.9960939884 -27.12500000 92.375000000 2.3320310116 77.312500000
 2117.3984000 0.3090820014 -0.000000977 2.2343750000 2.0253911018 -26.10938072 92.875000000 2.3554689884 76.937500000
 2117.5508000 0.2880859077 0.0000190430 2.2402338982 2.0546879768 -25.87500000 93.500000000 2.3554689884 69.625000000
 2117.7032000 0.2968750000 0.0000092773 2.2441411018 2.0761721134 -25.14063072 92.750000000 2.3398439884 72.937500000
 2117.8556000 0.2963866889 -0.000000488 2.2519528866 2.1015629768 -24.90625000 92.750000000 2.3339838982 72.562500000
