# LAS format log file from PETREL
# Project units are specified as depth units
#==================================================================
~Version information
VERS.   2.0:
WRAP.   NO:
#==================================================================
~Well
STRT.m   149.0000                                  :START DEPTH    
STOP.m   4238.0445                                 :STOP DEPTH     
STEP.m   0.1524                                    :STEP           
NULL.    -999.25                                   :NULL VALUE     
COMP.                                              :COMPANY        
WELL.    Witiora-1                                 :WELL           
FLD .                                              :FIELD          
LOC .    LAT -39.1115760  LON 173.4752001          :LOCATION       
LATI.    -39.1115760                               :SURF. LATITUDE 
LONG.    173.4752001                               :SURF. LONGITUDE
EKB .m   26.000                                    :KB ELEVATION   
EGL .m   -128.000                                  :GROUND LEVEL   
CTRY.                                              :COUNTRY        
SRVC.                                              :SERVICE COMPANY
DATE.    --                                        :LOG DATE       
UWI .    GEO656                                    :UNIQUE WELL ID 
#==================================================================
~Curve
DEPT .m                   : DEPTH
CNL .m3/m3                : CNL
DRH .g/cm3                : DRH
ILD .ohm.m                : ILD
ILM .ohm.m                : ILM
SP .mV                    : SP
BHC .us/ft                : BHC
FDC .g/cm3                : FDC
GRI .API                  : GRI
~Parameter
#==================================================================
~Ascii
# ...
 2636.1680000 0.2626953125 0.0000014648 1.6953129768 1.5781250000 -24.06250000 84.500000000 2.2968750000 40.125000000
 2636.3204000 0.2441405952 0.0000112305 1.7070310116 1.5771479607 -24.82813072 84.125000000 2.3222661018 42.625000000
 2636.4728000 0.2426757962 0.0000058594 1.7255860567 1.5703129768 -24.82813072 85.000000000 2.3144528866 43.937500000
 2636.6252000 0.2402344048 0.0000185547 1.7617189884 1.5517580509 -24.84375000 81.875000000 2.2988278866 43.531250000
 2636.7776000 0.2475585938 0.0000102539 1.7714840174 1.5820310116 -24.60938072 77.625000000 2.2988278866 43.968750000
 2636.9300000 0.2426757962 0.0000043945 1.7568360567 1.6083979607 -25.07813072 75.000000000 2.2890629768 42.406250000
 2637.0824000 0.2343750000 -0.000002441 1.7451169491 1.5908199549 -25.34375000 74.750000000 2.3066411018 43.406250000
 2637.2348000 0.2187500000 -0.000005371 1.7431639433 1.5458979607 -25.35938072 78.125000000 2.3593750000 42.968750000
 2637.3872000 0.1879882962 -0.000004395 1.7294919491 1.5400389433 -25.32813072 83.250000000 2.3593750000 44.656250000
 2637.5396000 0.1718750000 0.0000000000 1.7509770393 1.5605469942 -25.09375000 84.500000000 2.4257810116 43.281250000
 2637.6920000 0.1791992038 -0.000001953 1.7050780058 1.5849610567 -25.35938072 84.625000000 2.3789060116 45.031250000
 2637.8444000 0.2075195014 0.0000083008 1.6796879768 1.5839840174 -24.84375000 84.750000000 2.3125000000 46.843750000
 2637.9968000 0.2338867038 0.0000073242 1.6826169491 1.5751949549 -24.56250000 84.875000000 2.2988278866 45.906250000
 2638.1492000 0.2470702976 0.0000102539 1.6914060116 1.5810550451 -23.82813072 85.250000000 2.2988278866 43.750000000
 2638.3016000 0.2529296875 0.0000073242 1.7148439884 1.6005860567 -23.82813072 85.500000000 2.3105471134 41.531250000
 2638.4540000 0.2490233928 -0.000001465 1.7509770393 1.6181639433 -23.59375000 85.875000000 2.3183588982 41.218750000
 2638.6064000 0.2617188096 0.0000126953 1.7851560116 1.6318360567 -23.85938263 85.875000000 2.3046879768 40.937500000
 2638.7588000 0.2675780952 0.0000058594 1.8261719942 1.6699219942 -23.62500000 86.500000000 2.3046879768 42.250000000
 2638.9112000 0.2714844048 0.0000087891 1.8720699549 1.7148439884 -23.64063072 85.500000000 2.3105471134 43.500000000
 2639.0636000 0.2661133111 0.0000058594 1.9042969942 1.7626949549 -23.87500000 84.750000000 2.3105471134 45.093750000
 2639.2160000 0.2666015923 0.0000048828 1.9042969942 1.8056639433 -24.14063263 83.875000000 2.3144528866 46.750000000
 2639.3684000 0.2714844048 0.0000112305 1.8828129768 1.8017580509 -24.90625000 84.250000000 2.3144528866 44.937500000
 2639.5208000 0.2626953125 0.0000083008 1.8564449549 1.7636719942 -24.64063072 83.875000000 2.3085939884 41.000000000
 2639.6732000 0.2631835938 -0.000000977 1.8427729607 1.7246090174 -24.87500000 85.000000000 2.3183588982 39.687500000
 2639.8256000 0.2416992038 0.0000190430 1.8427729607 1.7011719942 -25.14063072 84.750000000 2.3105471134 40.625000000
 2639.9780000 0.2529296875 0.0000131836 1.8349610567 1.6787110567 -25.37500000 85.000000000 2.3417971134 43.718750000
 2640.1304000 0.2558594048 0.0000327148 1.8154300451 1.6523439884 -25.64063072 85.125000000 2.3417971134 44.281250000
 2640.2828000 0.2880859077 0.0000122070 1.7890629768 1.6435550451 -25.12500000 85.250000000 2.3027338982 48.218750000
 2640.4352000 0.2797851861 0.0000229492 1.7695310116 1.6621090174 -25.14063072 85.500000000 2.2792971134 49.968750000
 2640.5876000 0.2885741889 0.0000029297 1.7431639433 1.6884770393 -24.65625000 86.000000000 2.2734379768 54.250000000
 2640.7400000 0.2680664063 -0.000003418 1.7324219942 1.6591800451 -24.42188263 86.500000000 2.2734379768 52.906250000
 2640.8924000 0.2534179986 -0.000007813 1.7285159826 1.6201169491 -23.65625000 86.625000000 2.2695310116 55.062500000
 2641.0448000 0.2333983928 -0.000005859 1.7373050451 1.6054689884 -23.90625000 86.500000000 2.3085939884 48.531250000
 2641.1972000 0.2353516072 0.0000000000 1.7460939884 1.6103520393 -23.39063072 86.000000000 2.3066411018 47.718750000
 2641.3496000 0.2465820014 -0.000003906 1.7490229607 1.6171879768 -23.65625000 85.625000000 2.3066411018 41.968750000
 2641.5020000 0.2392577976 0.0000029297 1.7412110567 1.6230469942 -23.89063072 85.250000000 2.3222661018 40.718750000
 2641.6544000 0.2451172024 0.0000000000 1.7402340174 1.6347659826 -24.15625000 85.625000000 2.3105471134 38.125000000
 2641.8068000 0.2475585938 0.0000131836 1.7509770393 1.6533199549 -24.42188263 85.000000000 2.2871088982 40.406250000
 2641.9592000 0.2373047024 0.0000117188 1.7617189884 1.6865229607 -24.17188072 84.250000000 2.2871088982 43.406250000
 2642.1116000 0.2290039063 0.0000224609 1.7783199549 1.6992189884 -24.43750000 85.375000000 2.2871088982 46.781250000
 2642.2640000 0.2314452976 0.0000263672 1.7978520393 1.7070310116 -24.18750000 84.875000000 2.3007810116 43.250000000
 2642.4164000 0.2529296875 0.0000307617 1.8095699549 1.7167969942 -24.67188072 84.375000000 2.3105471134 45.343750000
 2642.5688000 0.2602539063 0.0000278320 1.8134770393 1.7314449549 -24.40625000 84.875000000 2.3085939884 47.437500000
 2642.7212000 0.2607421875 0.0000390625 1.8095699549 1.7392580509 -24.64063072 84.375000000 2.3085939884 51.281250000
 2642.8736000 0.2578125000 0.0000288086 1.8095699549 1.7324219942 -24.90625000 84.250000000 2.3007810116 48.312500000
 2643.0260000 0.2363280952 0.0000244141 1.7939449549 1.7275389433 -25.14063072 84.500000000 2.2910161018 48.375000000
 2643.1784000 0.2358397990 0.0000068359 1.7802729607 1.7314449549 -25.67188072 83.875000000 2.3066411018 45.937500000
 2643.3308000 0.2397460938 0.0000146484 1.7382810116 1.7265629768 -25.43750000 83.625000000 2.3066411018 48.218750000
 2643.4832000 0.2456054986 0.0000239258 1.6708979607 1.6865229607 -25.43750000 84.250000000 2.3261721134 46.093750000
 2643.6356000 0.2402344048 0.0000483398 1.6054689884 1.6083979607 -24.92188072 84.125000000 2.3730471134 49.125000000
 2643.7880000 0.2324219048 0.0000595703 1.5488280058 1.5400389433 -24.93750000 85.125000000 2.3574221134 44.875000000
 2643.9404000 0.2368164063 0.0000463867 1.5156250000 1.4931639433 -24.68750000 85.500000000 2.3535161018 43.906250000
 2644.0928000 0.2451172024 0.0000390625 1.5156250000 1.4531250000 -24.92188072 86.125000000 2.3535161018 40.375000000
 2644.2452000 0.2504883111 0.0000317383 1.5478520393 1.4414060116 -24.20313072 85.875000000 2.3281250000 45.906250000
 2644.3976000 0.2485352010 0.0000283203 1.6357419491 1.5087889433 -24.18750000 85.875000000 2.3046879768 46.031250000
 2644.5500000 0.2602539063 0.0000351563 1.8203129768 1.6806639433 -24.43750000 81.500000000 2.3046879768 50.093750000
 2644.7024000 0.2587890923 0.0000327148 2.0644528866 1.9873050451 -24.67188072 78.375000000 2.3046879768 45.843750000
 2644.8548000 0.2607421875 0.0000307617 2.2949221134 2.4023439884 -24.40625000 76.500000000 2.3046879768 50.562500000
 2645.0072000 0.2465820014 0.0000122070 2.5644528866 2.7617189884 -24.39063072 75.500000000 2.2988278866 48.218750000
 2645.1596000 0.2211914063 -0.000005371 2.9375000000 3.1406250000 -25.12500000 76.750000000 2.3730471134 54.093750000
 2645.3120000 0.1894530952 -0.000010742 3.4335939884 3.5058588982 -24.90625000 78.125000000 2.4882810116 52.250000000
 2645.4644000 0.1713867038 -0.000016113 4.1875000000 3.9238278866 -25.39063072 78.375000000 2.4882810116 53.937500000
 2645.6168000 0.1831054986 -0.000009277 4.8867192268 4.2226557732 -25.35938072 77.750000000 2.5703129768 54.687500000
 2645.7692000 0.1875000000 -0.000010742 5.1171879768 4.3007807732 -25.62500000 77.500000000 2.5664060116 55.062500000
 2645.9216000 0.1899414063 -0.000007324 5.0234379768 4.2734379768 -25.60938072 78.250000000 2.5781250000 52.500000000
 2646.0740000 0.1850585938 -0.000003906 4.8437500000 4.2617192268 -26.12500000 78.000000000 2.5781250000 49.125000000
 2646.2264000 0.1958007962 0.0000102539 4.6835942268 4.1757807732 -26.14063072 78.125000000 2.6054689884 49.687500000
 2646.3788000 0.1948242038 0.0000014648 4.6250000000 4.1250000000 -26.17188263 78.375000000 2.5781250000 51.437500000
