# LAS format log file from PETREL
# Project units are specified as depth units
#==================================================================
~Version information
VERS.   2.0:
WRAP.   NO:
#==================================================================
~Well
STRT.m   149.0000                                  :START DEPTH    
STOP.m   4238.0445                                 :STOP DEPTH     
STEP.m   0.1524                                    :STEP           
NULL.    -999.25                                   :NULL VALUE     
COMP.                                              :COMPANY        
WELL.    Witiora-1                                 :WELL           
FLD .                                              :FIELD          
LOC .    LAT -39.1115760  LON 173.4752001          :LOCATION       
LATI.    -39.1115760                               :SURF. LATITUDE 
LONG.    173.4752001                               :SURF. LONGITUDE
EKB .m   26.000                                    :KB ELEVATION   
EGL .m   -128.000                                  :GROUND LEVEL   
CTRY.                                              :COUNTRY        
SRVC.                                              :SERVICE COMPANY
DATE.    --                                        :LOG DATE       
UWI .    GEO656                                    :UNIQUE WELL ID 
#==================================================================
~Curve
DEPT .m                   : DEPTH
CNL .m3/m3                : CNL
DRH .g/cm3                : DRH
ILD .ohm.m                : ILD
ILM .ohm.m                : ILM
SP .mV                    : SP
BHC .us/ft                : BHC
FDC .g/cm3                : FDC
GRI .API                  : GRI
~Parameter
#==================================================================
~Ascii
# ...
 3434.1344000 0.3251953125 0.0000058594 2.7089838982 2000.0000000 -2.750000000 87.500000000 2.4238278866 66.812500000
 3434.2868000 0.3188476861 -0.000016113 2.8632810116 2000.0000000 -3.500000000 85.125000000 2.4550778866 68.875000000
 3434.4392000 0.3022460938 -0.000007813 2.7929689884 9.0000000000 -3.500000000 84.750000000 2.4550778866 66.250000000
 3434.5916000 0.3061523139 0.0000341797 2.7734379768 1.9013669491 -3.500000000 88.875000000 2.5214838982 69.687500000
 3434.7440000 0.2973633111 0.0000766602 2.7734379768 2000.0000000 -3.000000000 87.000000000 2.5390629768 68.312500000
 3434.8964000 0.2827148139 0.0001000977 2.7929689884 2000.0000000 -3.000000000 85.000000000 2.4687500000 67.000000000
 3435.0488000 0.2783203125 0.0000874023 2.8867189884 9.0000000000 -2.250000000 85.375000000 2.3984379768 65.437500000
 3435.2012000 0.2910155952 0.0000654297 2.6113278866 9.0000000000 -3.000000000 83.750000000 2.3984379768 68.687500000
 3435.3536000 0.3295898139 0.0000576172 2.4042971134 2000.0000000 -3.000000000 85.125000000 2.3359379768 70.750000000
 3435.5060000 0.3305664063 0.0000532227 2.1777338982 9.0000000000 -3.500000000 87.500000000 2.3398439884 68.562500000
 3435.6584000 0.3251953125 0.0000717773 2.1621088982 2000.0000000 -3.750000000 84.000000000 2.3339838982 70.250000000
 3435.8108000 0.3217773139 0.0000825195 2.1484379768 9.0000000000 -4.000000000 86.500000000 2.3339838982 68.125000000
 3435.9632000 0.3349609077 0.0001015625 2.1464838982 2000.0000000 -4.000000000 86.500000000 2.3574221134 71.125000000
 3436.1156000 0.3559570014 0.0001000977 2.1328129768 9.0000000000 -3.750000000 89.875000000 2.3222661018 69.375000000
 3436.2680000 0.3574219048 0.0001171875 2.0800778866 2.3808588982 -1.000000000 92.750000000 2.2773439884 72.562500000
 3436.4204000 0.3642578125 0.0000947266 2.0976560116 2.3808588982 -2.250000000 90.500000000 2.2773439884 75.750000000
 3436.5728000 0.3378905952 0.0000771484 2.1054689884 9.0000000000 -2.250000000 89.250000000 2.3125000000 74.687500000
 3436.7252000 0.3413085938 0.0000434570 2.1953129768 2000.0000000 -2.250000000 89.875000000 2.3730471134 74.812500000
 3436.8776000 0.3261719048 0.0000375977 2.2558588982 2000.0000000 -2.500000000 89.750000000 2.4160161018 72.312500000
 3437.0300000 0.3422851861 0.0000659180 2.2578129768 2000.0000000 -3.000000000 86.875000000 2.4433588982 72.312500000
 3437.1824000 0.3427734077 0.0001015625 2.2656250000 2000.0000000 -3.250000000 90.250000000 2.4433588982 66.500000000
 3437.3348000 0.3593750000 0.0001333008 2.2929689884 9.0000000000 -3.500000000 91.750000000 2.4433588982 65.625000000
 3437.4872000 0.3496094048 0.0001210938 2.3730471134 9.0000000000 -3.500000000 88.875000000 2.3300778866 68.000000000
 3437.6396000 0.3354491889 0.0000688477 2.4667971134 4.6992192268 -3.500000000 89.375000000 2.3476560116 72.937500000
 3437.7920000 0.3242188096 0.0000957031 2.4375000000 1.9013669491 -3.750000000 87.875000000 2.3476560116 75.187500000
 3437.9444000 0.3266601861 0.0000722656 2.4589838982 2000.0000000 -3.000000000 88.125000000 2.3242189884 73.312500000
 3438.0968000 0.3354491889 0.0001225586 2.4882810116 2000.0000000 -2.500000000 89.625000000 2.3593750000 72.687500000
 3438.2492000 0.3242188096 0.0001157227 2.5000000000 2000.0000000 -3.000000000 93.000000000 2.4062500000 69.000000000
 3438.4016000 0.3251953125 0.0001455078 2.4941411018 2000.0000000 -3.500000000 92.500000000 2.4062500000 70.625000000
 3438.5540000 0.3261719048 0.0001069336 2.4941411018 2000.0000000 -3.750000000 92.875000000 2.4296879768 72.625000000
 3438.7064000 0.3232421875 0.0000473633 2.4394528866 2000.0000000 -3.750000000 90.625000000 2.3496088982 71.937500000
 3438.8588000 0.3320313096 0.0000483398 2.3691411018 2000.0000000 -3.000000000 89.625000000 2.3417971134 71.875000000
 3439.0112000 0.3315429986 0.0000708008 2.3417971134 2000.0000000 -2.500000000 90.000000000 2.4082028866 71.375000000
 3439.1636000 0.3525390923 0.0001333008 2.3496088982 2000.0000000 -2.000000000 89.375000000 2.4082028866 65.062500000
 3439.3160000 0.3530273139 0.0001503906 2.3222661018 2000.0000000 -2.500000000 85.125000000 2.4511721134 64.375000000
 3439.4684000 0.3579101861 0.0001513672 2.2812500000 1.9013669491 -3.250000000 87.750000000 2.4121088982 63.500000000
 3439.6208000 0.3569335938 0.0000961914 2.3105471134 1.3476560116 -3.500000000 88.250000000 2.3710939884 70.437500000
 3439.7732000 0.3388671875 0.0000307617 2.2871088982 2000.0000000 -3.500000000 89.375000000 2.3710939884 71.125000000
 3439.9256000 0.3398438096 0.0000053711 2.3808588982 2000.0000000 -3.500000000 88.250000000 2.3613278866 66.687500000
 3440.0780000 0.3305664063 0.0000083008 2.3183588982 2000.0000000 -2.250000000 89.625000000 2.3750000000 66.625000000
 3440.2304000 0.3427734077 0.0000434570 2.2851560116 2000.0000000 -3.250000000 92.500000000 2.4042971134 64.625000000
 3440.3828000 0.3320313096 0.0000805664 2.3007810116 9.0000000000 -2.750000000 90.750000000 2.4042971134 72.312500000
 3440.5352000 0.3291015923 0.0000776367 2.3105471134 2000.0000000 -2.750000000 92.500000000 2.4023439884 73.375000000
 3440.6876000 0.3266601861 0.0000537109 2.3085939884 2000.0000000 -3.000000000 89.875000000 2.3554689884 74.375000000
 3440.8400000 0.3378905952 0.0000737305 2.2851560116 2000.0000000 -3.250000000 90.875000000 2.3574221134 71.687500000
 3440.9924000 0.3417969048 0.0000825195 2.2265629768 2000.0000000 -3.500000000 93.375000000 2.3085939884 72.187500000
 3441.1448000 0.3344726861 0.0000810547 2.2871088982 4.6992192268 -3.500000000 92.125000000 2.3085939884 73.187500000
 3441.2972000 0.3383789063 0.0001020508 2.2792971134 2000.0000000 -3.000000000 92.875000000 2.2812500000 71.250000000
 3441.4496000 0.3496094048 0.0001059570 2.2441411018 2000.0000000 -3.250000000 90.750000000 2.3378911018 67.375000000
 3441.6020000 0.3691405952 0.0001181641 2.1816411018 2000.0000000 -3.250000000 91.375000000 2.3671879768 67.062500000
 3441.7544000 0.3779296875 0.0000922852 2.1582028866 4.6992192268 -3.250000000 92.875000000 2.3671879768 68.250000000
 3441.9068000 0.3657226861 0.0001269531 2.1093750000 2000.0000000 -3.500000000 92.625000000 2.4101560116 72.062500000
 3442.0592000 0.3789063096 0.0001459961 2.0546879768 2000.0000000 -2.750000000 91.625000000 2.3867189884 72.062500000
 3442.2116000 0.3813476861 0.0001528320 2.0312500000 2000.0000000 -2.750000000 93.500000000 2.4003911018 70.000000000
 3442.3640000 0.3984375000 0.0001850586 2.0253911018 2000.0000000 -3.250000000 92.000000000 2.4003911018 66.875000000
 3442.5164000 0.3774414063 0.0002451172 2.0039060116 2000.0000000 -3.250000000 89.000000000 2.4335939884 64.312500000
 3442.6688000 0.3774414063 0.0002617188 2.1269528866 2000.0000000 -1.500000000 93.875000000 2.2949221134 65.250000000
 3442.8212000 0.3642578125 0.0002006836 2.1972661018 2000.0000000 -2.500000000 94.875000000 2.2285161018 70.062500000
 3442.9736000 0.3818359077 0.0001357422 2.2011721134 2000.0000000 -2.750000000 89.625000000 2.2636721134 73.312500000
 3443.1260000 0.3745116889 0.0001020508 2.1542971134 2000.0000000 -3.500000000 88.750000000 2.2636721134 73.125000000
 3443.2784000 0.3554688096 0.0000913086 2.1347661018 2000.0000000 -3.500000000 91.250000000 2.3261721134 67.062500000
 3443.4308000 0.3188476861 0.0000908203 2.1542971134 2000.0000000 -4.250000000 91.750000000 2.3164060116 66.187500000
 3443.5832000 0.3095703125 0.0001347656 2.1562500000 2000.0000000 -3.750000000 92.625000000 2.2597661018 65.500000000
 3443.7356000 0.3247070014 0.0001611328 2.1601560116 2000.0000000 -3.750000000 93.000000000 2.2597661018 71.750000000
 3443.8880000 0.3354491889 0.0001816406 2.1699221134 2000.0000000 -3.500000000 95.375000000 2.2382810116 70.562500000
 3444.0404000 0.3242188096 0.0001528320 2.1601560116 2000.0000000 -3.000000000 96.125000000 2.2558588982 67.812500000
 3444.1928000 0.3349609077 0.0001420898 2.0937500000 9.0000000000 -2.750000000 94.750000000 2.3359379768 68.312500000
 3444.3452000 0.3666991889 0.0001801758 1.9130860567 2000.0000000 -2.750000000 96.375000000 2.3359379768 72.750000000
