# LAS format log file from PETREL
# Project units are specified as depth units
#==================================================================
~Version information
VERS.   2.0:
WRAP.   NO:
#==================================================================
~Well
STRT.m   149.0000                                  :START DEPTH    
STOP.m   4238.0445                                 :STOP DEPTH     
STEP.m   0.1524                                    :STEP           
NULL.    -999.25                                   :NULL VALUE     
COMP.                                              :COMPANY        
WELL.    Witiora-1                                 :WELL           
FLD .                                              :FIELD          
LOC .    LAT -39.1115760  LON 173.4752001          :LOCATION       
LATI.    -39.1115760                               :SURF. LATITUDE 
LONG.    173.4752001                               :SURF. LONGITUDE
EKB .m   26.000                                    :KB ELEVATION   
EGL .m   -128.000                                  :GROUND LEVEL   
CTRY.                                              :COUNTRY        
SRVC.                                              :SERVICE COMPANY
DATE.    --                                        :LOG DATE       
UWI .    GEO656                                    :UNIQUE WELL ID 
#==================================================================
~Curve
DEPT .m                   : DEPTH
CNL .m3/m3                : CNL
DRH .g/cm3                : DRH
ILD .ohm.m                : ILD
ILM .ohm.m                : ILM
SP .mV                    : SP
BHC .us/ft                : BHC
FDC .g/cm3                : FDC
GRI .API                  : GRI
~Parameter
#==================================================================
~Ascii
# ...
 221.54240000  -999.250000  -999.250000  -999.250000 2000.0000000 -152.7500000 56.750000000  -999.250000 34.281250000
 221.69480000  -999.250000  -999.250000  -999.250000 2000.0000000 -153.1250000 65.875000000  -999.250000 35.156250000
 221.84720000  -999.250000  -999.250000  -999.250000 2000.0000000 -153.1250000 48.750000000  -999.250000 38.156250000
 221.99960000  -999.250000  -999.250000  -999.250000 2000.0000000 -152.5000000 56.250000000  -999.250000 37.031250000
 222.15200000  -999.250000  -999.250000  -999.250000 2000.0000000 -151.7500000 57.625000000  -999.250000 35.000000000
 222.30440000  -999.250000  -999.250000  -999.250000 2000.0000000 -150.7500000 57.125000000  -999.250000 32.125000000
 222.45680000  -999.250000  -999.250000  -999.250000 2000.0000000 -151.0000000 56.750000000  -999.250000 30.625000000
 222.60920000  -999.250000  -999.250000  -999.250000 2000.0000000 -151.2500000 57.250000000  -999.250000 29.953130722
 222.76160000  -999.250000  -999.250000  -999.250000 2000.0000000 -151.7500000 55.750000000  -999.250000 31.890630722
 222.91400000  -999.250000  -999.250000  -999.250000 2000.0000000 -152.5000000 55.125000000  -999.250000 32.437500000
 223.06640000  -999.250000  -999.250000  -999.250000 2000.0000000 -152.5000000 56.000000000  -999.250000 36.843750000
 223.21880000  -999.250000  -999.250000  -999.250000 2000.0000000 -153.2500000 56.375000000  -999.250000 35.375000000
 223.37120000  -999.250000  -999.250000  -999.250000 2000.0000000 -153.5000000 56.875000000  -999.250000 36.343750000
 223.52360000  -999.250000  -999.250000  -999.250000 2000.0000000 -153.8750000 56.625000000  -999.250000 36.343750000
 223.67600000  -999.250000  -999.250000  -999.250000 2000.0000000 -154.6250000 57.375000000  -999.250000 36.093750000
 223.82840000  -999.250000  -999.250000  -999.250000 2000.0000000 -154.8750000 56.500000000  -999.250000 36.937500000
 223.98080000  -999.250000  -999.250000  -999.250000 2000.0000000 -155.2500000 56.875000000  -999.250000 35.625000000
 224.13320000  -999.250000  -999.250000  -999.250000 2000.0000000 -156.0000000 56.875000000  -999.250000 36.875000000
 224.28560000  -999.250000  -999.250000  -999.250000 412.00000000 -155.8750000 57.000000000  -999.250000 35.125000000
 224.43800000  -999.250000  -999.250000  -999.250000 188.62500000 -157.0000000 57.000000000  -999.250000 34.781250000
 224.59040000  -999.250000  -999.250000  -999.250000 2000.0000000 -157.1250000 56.875000000  -999.250000 36.218750000
 224.74280000  -999.250000  -999.250000  -999.250000 2000.0000000 -157.8750000 56.625000000  -999.250000 38.531250000
 224.89520000  -999.250000  -999.250000  -999.250000 2000.0000000 -158.2500000 56.750000000  -999.250000 36.437500000
 225.04760000  -999.250000  -999.250000  -999.250000 2000.0000000 -157.2500000 56.750000000  -999.250000 35.218750000
 225.20000000  -999.250000  -999.250000  -999.250000 2000.0000000 -157.0000000 56.375000000  -999.250000 34.937500000
 225.35240000  -999.250000  -999.250000  -999.250000 2000.0000000 -156.0000000 56.625000000  -999.250000 36.125000000
 225.50480000  -999.250000  -999.250000  -999.250000 2000.0000000 -155.0000000 56.500000000  -999.250000 35.500000000
 225.65720000  -999.250000  -999.250000  -999.250000 2000.0000000 -154.6250000 56.625000000  -999.250000 30.781250000
 225.80960000  -999.250000  -999.250000  -999.250000 2000.0000000 -153.2500000 56.625000000  -999.250000 31.734380722
 225.96200000  -999.250000  -999.250000  -999.250000 2000.0000000 -152.6250000 56.250000000  -999.250000 31.531250000
 226.11440000  -999.250000  -999.250000  -999.250000 2000.0000000 -152.3750000 56.625000000  -999.250000 34.718750000
 226.26680000  -999.250000  -999.250000  -999.250000 2000.0000000 -151.3750000 56.250000000  -999.250000 34.031250000
 226.41920000  -999.250000  -999.250000  -999.250000 2000.0000000 -151.5000000 56.500000000  -999.250000 34.187500000
 226.57160000  -999.250000  -999.250000  -999.250000 2000.0000000 -150.6250000 56.625000000  -999.250000 34.468750000
 226.72400000  -999.250000  -999.250000  -999.250000 2000.0000000 -150.1250000 56.500000000  -999.250000 34.968750000
 226.87640000  -999.250000  -999.250000  -999.250000 2000.0000000 -149.6250000 56.375000000  -999.250000 33.812500000
 227.02880000  -999.250000  -999.250000  -999.250000 2000.0000000 -148.5000000 57.000000000  -999.250000 34.718750000
 227.18120000  -999.250000  -999.250000  -999.250000 2000.0000000 -148.6250000 56.625000000  -999.250000 35.093750000
 227.33360000  -999.250000  -999.250000  -999.250000 2000.0000000 -148.6250000 56.625000000  -999.250000 36.343750000
 227.48600000  -999.250000  -999.250000  -999.250000 2000.0000000 -148.0000000 57.000000000  -999.250000 35.812500000
 227.63840000  -999.250000  -999.250000  -999.250000 2000.0000000 -147.7500000 56.125000000  -999.250000 37.437500000
 227.79080000  -999.250000  -999.250000  -999.250000 2000.0000000 -146.8750000 56.250000000  -999.250000 37.750000000
 227.94320000  -999.250000  -999.250000  -999.250000 2000.0000000 -147.2500000 57.000000000  -999.250000 37.125000000
 228.09560000  -999.250000  -999.250000  -999.250000 2000.0000000 -147.3750000 56.875000000  -999.250000 34.343750000
 228.24800000  -999.250000  -999.250000  -999.250000 2000.0000000 -147.0000000 57.000000000  -999.250000 36.968750000
 228.40040000  -999.250000  -999.250000  -999.250000 2000.0000000 -146.8750000 56.875000000  -999.250000 36.937500000
 228.55280000  -999.250000  -999.250000  -999.250000 2000.0000000 -146.1250000 57.250000000  -999.250000 39.312500000
 228.70520000  -999.250000  -999.250000  -999.250000 2000.0000000 -145.7500000 57.125000000  -999.250000 35.781250000
 228.85760000  -999.250000  -999.250000  -999.250000 2000.0000000 -145.1250000 56.625000000  -999.250000 38.812500000
 229.01000000  -999.250000  -999.250000  -999.250000 2000.0000000 -144.0000000 56.875000000  -999.250000 37.343750000
 229.16240000  -999.250000  -999.250000  -999.250000 2000.0000000 -143.7500000 56.750000000  -999.250000 37.937500000
 229.31480000  -999.250000  -999.250000  -999.250000 2000.0000000 -143.5000000 57.000000000  -999.250000 34.375000000
 229.46720000  -999.250000  -999.250000  -999.250000 2000.0000000 -143.8750000 56.500000000  -999.250000 32.375000000
 229.61960000  -999.250000  -999.250000  -999.250000 2000.0000000 -144.3750000 56.750000000  -999.250000 34.406250000
 229.77200000  -999.250000  -999.250000  -999.250000 2000.0000000 -143.6250000 56.000000000  -999.250000 37.250000000
 229.92440000  -999.250000  -999.250000  -999.250000 2000.0000000 -144.3750000 56.625000000  -999.250000 37.406250000
 230.07680000  -999.250000  -999.250000  -999.250000 2000.0000000 -144.5000000 56.250000000  -999.250000 35.281250000
 230.22920000  -999.250000  -999.250000  -999.250000 2000.0000000 -144.1250000 56.500000000  -999.250000 32.968750000
 230.38160000  -999.250000  -999.250000  -999.250000 2000.0000000 -144.3750000 57.125000000  -999.250000 36.187500000
 230.53400000  -999.250000  -999.250000  -999.250000 2000.0000000 -143.6250000 56.625000000  -999.250000 39.187500000
 230.68640000  -999.250000  -999.250000  -999.250000 2000.0000000 -143.7500000 56.750000000  -999.250000 40.687500000
 230.83880000  -999.250000  -999.250000  -999.250000 2000.0000000 -143.5000000 56.125000000  -999.250000 42.250000000
 230.99120000  -999.250000  -999.250000  -999.250000 2000.0000000 -143.6250000 57.250000000  -999.250000 42.062500000
 231.14360000  -999.250000  -999.250000  -999.250000 2000.0000000 -144.5000000 56.250000000  -999.250000 39.781250000
 231.29600000  -999.250000  -999.250000  -999.250000 2000.0000000 -145.1250000 57.125000000  -999.250000 37.156250000
 231.44840000  -999.250000  -999.250000  -999.250000 2000.0000000 -146.2500000 57.375000000  -999.250000 35.656250000
 231.60080000  -999.250000  -999.250000  -999.250000 2000.0000000 -147.0000000 57.250000000  -999.250000 37.343750000
 231.75320000  -999.250000  -999.250000  -999.250000 2000.0000000 -147.3750000 56.625000000  -999.250000 38.250000000
