# LAS format log file from PETREL
# Project units are specified as depth units
#==================================================================
~Version information
VERS.   2.0:
WRAP.   NO:
#==================================================================
~Well
STRT.m   149.0000                                  :START DEPTH    
STOP.m   4238.0445                                 :STOP DEPTH     
STEP.m   0.1524                                    :STEP           
NULL.    -999.25                                   :NULL VALUE     
COMP.                                              :COMPANY        
WELL.    Witiora-1                                 :WELL           
FLD .                                              :FIELD          
LOC .    LAT -39.1115760  LON 173.4752001          :LOCATION       
LATI.    -39.1115760                               :SURF. LATITUDE 
LONG.    173.4752001                               :SURF. LONGITUDE
EKB .m   26.000                                    :KB ELEVATION   
EGL .m   -128.000                                  :GROUND LEVEL   
CTRY.                                              :COUNTRY        
SRVC.                                              :SERVICE COMPANY
DATE.    --                                        :LOG DATE       
UWI .    GEO656                                    :UNIQUE WELL ID 
#==================================================================
~Curve
DEPT .m                   : DEPTH
CNL .m3/m3                : CNL
DRH .g/cm3                : DRH
ILD .ohm.m                : ILD
ILM .ohm.m                : ILM
SP .mV                    : SP
BHC .us/ft                : BHC
FDC .g/cm3                : FDC
GRI .API                  : GRI
~Parameter
#==================================================================
~Ascii
# ...
 1309.6784000  -999.250000  -999.250000 0.9204102159 0.9248046875 -60.43750000 117.75000000  -999.250000 53.906250000
 1309.8308000  -999.250000  -999.250000 0.8994141221 0.8618164063 -61.31250000 118.75000000  -999.250000 54.937500000
 1309.9832000  -999.250000  -999.250000 0.9082031250 0.8554688096 -61.31250000 121.50000000  -999.250000 56.000000000
 1310.1356000  -999.250000  -999.250000 0.9643555284 0.8554688096 -61.78125000 121.25000000  -999.250000 59.687500000
 1310.2880000  -999.250000  -999.250000 0.9194335938 0.8828125000 -61.90625000 120.50000000  -999.250000 59.625000000
 1310.4404000  -999.250000  -999.250000 0.9526367188 0.8979492188 -61.53125000 118.75000000  -999.250000 57.281250000
 1310.5928000  -999.250000  -999.250000 0.9580078125 0.9204102159 -61.15625000 116.50000000  -999.250000 56.343750000
 1310.7452000  -999.250000  -999.250000 1.0439449549 0.9404296875 -60.65625000 114.75000000  -999.250000 58.031250000
 1310.8976000  -999.250000  -999.250000 1.0742189884 0.9780272841 -60.90625000 113.75000000  -999.250000 61.906250000
 1311.0500000  -999.250000  -999.250000 1.1015629768 1.0322270393 -60.90625000 114.25000000  -999.250000 64.625000000
 1311.2024000  -999.250000  -999.250000 1.0976560116 1.0947270393 -60.53125000 117.25000000  -999.250000 67.812500000
 1311.3548000  -999.250000  -999.250000 1.1748050451 1.1035159826 -60.90625000 113.25000000  -999.250000 65.875000000
 1311.5072000  -999.250000  -999.250000 1.1943360567 1.1376949549 -60.65625000 121.75000000  -999.250000 66.125000000
 1311.6596000  -999.250000  -999.250000 1.2294919491 1.1621090174 -61.31250000 117.50000000  -999.250000 62.718750000
 1311.8120000  -999.250000  -999.250000 1.2226560116 1.2089840174 -61.43750000 106.50000000  -999.250000 64.250000000
 1311.9644000  -999.250000  -999.250000 1.2441409826 1.2265629768 -61.93750000 122.75000000  -999.250000 67.562500000
 1312.1168000  -999.250000  -999.250000 1.2363280058 1.2070310116 -62.18750000 112.75000000  -999.250000 69.187500000
 1312.2692000  -999.250000  -999.250000 1.2734379768 1.1767580509 -61.31250000 113.25000000  -999.250000 71.500000000
 1312.4216000  -999.250000  -999.250000 1.2822270393 1.1826169491 -61.21875000 127.25000000  -999.250000 66.750000000
 1312.5740000  -999.250000  -999.250000 1.2480469942 1.1621090174 -60.06250000 115.75000000  -999.250000 65.375000000
 1312.7264000  -999.250000  -999.250000 1.2080080509 1.1845699549 -59.93750000 116.50000000  -999.250000 62.625000000
 1312.8788000  -999.250000  -999.250000 1.2373050451 1.1269530058 -59.81250000 117.00000000  -999.250000 63.218750000
 1313.0312000  -999.250000  -999.250000 1.1835939884 1.1337889433 -59.34375000 117.00000000  -999.250000 66.187500000
 1313.1836000  -999.250000  -999.250000 1.1796879768 1.1171879768 -59.59375000 116.75000000  -999.250000 64.500000000
 1313.3360000  -999.250000  -999.250000 1.1542969942 1.1367189884 -59.71875000 116.75000000  -999.250000 67.937500000
 1313.4884000  -999.250000  -999.250000 1.1552729607 1.1386719942 -60.21875000 116.75000000  -999.250000 65.125000000
 1313.6408000  -999.250000  -999.250000 1.1728520393 1.1123050451 -60.56250000 117.00000000  -999.250000 67.375000000
 1313.7932000  -999.250000  -999.250000 1.1572270393 1.0791020393 -60.18750000 117.00000000  -999.250000 63.968750000
 1313.9456000  -999.250000  -999.250000 1.1650389433 1.0947270393 -61.31250000 117.00000000  -999.250000 65.187500000
 1314.0980000  -999.250000  -999.250000 1.1660159826 1.0947270393 -60.93750000 118.25000000  -999.250000 65.562500000
 1314.2504000  -999.250000  -999.250000 1.1777340174 1.1035159826 -61.28125000 118.75000000  -999.250000 68.875000000
 1314.4028000  -999.250000  -999.250000 1.1992189884 1.0927729607 -61.43750000 120.00000000  -999.250000 69.875000000
 1314.5552000  -999.250000  -999.250000 1.1923830509 1.1035159826 -60.81250000 120.25000000  -999.250000 72.687500000
 1314.7076000  -999.250000  -999.250000 1.1376949549 1.1083979607 -60.93750000 117.25000000  -999.250000 70.562500000
 1314.8600000  -999.250000  -999.250000 1.1396479607 1.0917969942 -60.43750000 116.75000000  -999.250000 71.875000000
 1315.0124000  -999.250000  -999.250000 1.2021479607 1.0625000000 -61.06250000 116.50000000  -999.250000 68.500000000
 1315.1648000  -999.250000  -999.250000 1.1435550451 1.0625000000 -61.15625000 116.00000000  -999.250000 69.812500000
 1315.3172000  -999.250000  -999.250000 1.1230469942 1.0820310116 -60.93750000 116.50000000  -999.250000 65.750000000
 1315.4696000  -999.250000  -999.250000 1.1484379768 1.0820310116 -61.18750000 116.00000000  -999.250000 67.875000000
 1315.6220000  -999.250000  -999.250000 1.1699219942 1.0888669491 -60.90625000 115.25000000  -999.250000 65.812500000
 1315.7744000  -999.250000  -999.250000 1.1669919491 1.0830080509 -61.40625000 115.00000000  -999.250000 67.750000000
 1315.9268000  -999.250000  -999.250000 1.1689449549 1.0703129768 -61.40625000 115.00000000  -999.250000 64.437500000
 1316.0792000  -999.250000  -999.250000 1.1152340174 1.0605469942 -60.90625000 115.50000000  -999.250000 66.125000000
 1316.2316000  -999.250000  -999.250000 1.1406250000 1.0634770393 -60.53125000 115.75000000  -999.250000 63.375000000
 1316.3840000  -999.250000  -999.250000 1.0878909826 1.0322270393 -59.90625000 117.00000000  -999.250000 61.781250000
 1316.5364000  -999.250000  -999.250000 1.0185550451 1.0439449549 -60.28125000 118.75000000  -999.250000 60.250000000
 1316.6888000  -999.250000  -999.250000 1.0058590174 0.9609375000 -59.90625000 120.75000000  -999.250000 59.750000000
 1316.8412000  -999.250000  -999.250000 0.9951171875 0.9033203125 -59.78125000 121.50000000  -999.250000 60.781250000
 1316.9936000  -999.250000  -999.250000 0.9521483779 0.9155272841 -59.81250000 121.50000000  -999.250000 60.625000000
 1317.1460000  -999.250000  -999.250000 0.9003906250 0.9047852159 -59.56250000 118.50000000  -999.250000 61.968750000
 1317.2984000  -999.250000  -999.250000 0.8984375000 0.8964843750 -60.31250000 114.25000000  -999.250000 64.062500000
 1317.4508000  -999.250000  -999.250000 0.8593750000 0.8720703125 -60.40625000 114.50000000  -999.250000 61.218750000
 1317.6032000  -999.250000  -999.250000 0.8393555284 0.8339843750 -61.03125000 116.25000000  -999.250000 58.031250000
 1317.7556000  -999.250000  -999.250000 0.8374022841 0.8251953125 -61.53125000 120.25000000  -999.250000 55.843750000
 1317.9080000  -999.250000  -999.250000 0.8525391221 0.8388671875 -61.65625000 123.50000000  -999.250000 56.500000000
 1318.0604000  -999.250000  -999.250000 0.8964843750 0.8496093750 -62.65625381 122.50000000  -999.250000 61.218750000
 1318.2128000  -999.250000  -999.250000 0.8676757813 0.8505858779 -62.40625000 121.25000000  -999.250000 61.500000000
 1318.3652000  -999.250000  -999.250000 0.9135742188 0.8818358779 -62.28125000 120.75000000  -999.250000 62.718750000
 1318.5176000  -999.250000  -999.250000 0.8974608779 0.8940430284 -62.31250000 120.50000000  -999.250000 63.812500000
 1318.6700000  -999.250000  -999.250000 0.9101563096 0.8969727159 -61.93750000 119.75000000  -999.250000 66.312500000
 1318.8224000  -999.250000  -999.250000 0.9555664063 0.8955078125 -61.93750000 120.75000000  -999.250000 67.687500000
 1318.9748000  -999.250000  -999.250000 0.9331055284 0.8740233779 -60.93750000 122.50000000  -999.250000 63.312500000
 1319.1272000  -999.250000  -999.250000 0.9399414063 0.8911132813 -60.93750000 122.25000000  -999.250000 59.156250000
 1319.2796000  -999.250000  -999.250000 0.9243164063 0.8666992188 -60.56250000 121.25000000  -999.250000 54.593750000
 1319.4320000  -999.250000  -999.250000 0.9228516221 0.8979492188 -60.40625000 121.50000000  -999.250000 57.750000000
 1319.5844000  -999.250000  -999.250000 0.9414063096 0.8920897841 -60.15625000 119.50000000  -999.250000 59.843750000
 1319.7368000  -999.250000  -999.250000 0.9223632813 0.9067382813 -59.78125000 119.00000000  -999.250000 62.812500000
 1319.8892000  -999.250000  -999.250000 0.9594727159 0.9565430284 -60.15625000 120.00000000  -999.250000 61.312500000
