# LAS format log file from PETREL
# Project units are specified as depth units
#==================================================================
~Version information
VERS.   2.0:
WRAP.   NO:
#==================================================================
~Well
STRT.m   149.0000                                  :START DEPTH    
STOP.m   4238.0445                                 :STOP DEPTH     
STEP.m   0.1524                                    :STEP           
NULL.    -999.25                                   :NULL VALUE     
COMP.                                              :COMPANY        
WELL.    Witiora-1                                 :WELL           
FLD .                                              :FIELD          
LOC .    LAT -39.1115760  LON 173.4752001          :LOCATION       
LATI.    -39.1115760                               :SURF. LATITUDE 
LONG.    173.4752001                               :SURF. LONGITUDE
EKB .m   26.000                                    :KB ELEVATION   
EGL .m   -128.000                                  :GROUND LEVEL   
CTRY.                                              :COUNTRY        
SRVC.                                              :SERVICE COMPANY
DATE.    --                                        :LOG DATE       
UWI .    GEO656                                    :UNIQUE WELL ID 
#==================================================================
~Curve
DEPT .m                   : DEPTH
CNL .m3/m3                : CNL
DRH .g/cm3                : DRH
ILD .ohm.m                : ILD
ILM .ohm.m                : ILM
SP .mV                    : SP
BHC .us/ft                : BHC
FDC .g/cm3                : FDC
GRI .API                  : GRI
~Parameter
#==================================================================
~Ascii
# ...
 1040.2352000  -999.250000  -999.250000 1.1044919491 1.0732419491 -84.50000000 127.25000000  -999.250000 70.500000000
 1040.3876000  -999.250000  -999.250000 1.1699219942 1.0859379768 -82.56250000 126.50000000  -999.250000 68.750000000
 1040.5400000  -999.250000  -999.250000 1.1552729607 1.0771479607 -81.31250000 127.00000000  -999.250000 70.562500000
 1040.6924000  -999.250000  -999.250000 1.1416020393 1.0673830509 -80.68750000 128.25000000  -999.250000 69.750000000
 1040.8448000  -999.250000  -999.250000 1.1523439884 1.0830080509 -80.18750000 129.50000000  -999.250000 70.125000000
 1040.9972000  -999.250000  -999.250000 1.1376949549 1.0673830509 -79.56250000 129.50000000  -999.250000 70.375000000
 1041.1496000  -999.250000  -999.250000 1.1894530058 1.0751949549 -78.31250000 129.25000000  -999.250000 73.187500000
 1041.3020000  -999.250000  -999.250000 1.1796879768 1.0683590174 -78.68750000 128.75000000  -999.250000 76.812500000
 1041.4544000  -999.250000  -999.250000 1.1796879768 1.0878909826 -79.43750000 127.50000000  -999.250000 75.500000000
 1041.6068000  -999.250000  -999.250000 1.1396479607 1.0849610567 -79.43750000 127.50000000  -999.250000 73.750000000
 1041.7592000  -999.250000  -999.250000 1.1767580509 1.0722659826 -79.81250000 127.00000000  -999.250000 69.750000000
 1041.9116000  -999.250000  -999.250000 1.1923830509 1.0722659826 -79.06250000 126.00000000  -999.250000 70.562500000
 1042.0640000  -999.250000  -999.250000 1.2167969942 1.0625000000 -78.81250000 125.00000000  -999.250000 70.750000000
 1042.2164000  -999.250000  -999.250000 1.2128909826 1.0820310116 -79.31250000 125.25000000  -999.250000 74.000000000
 1042.3688000  -999.250000  -999.250000 1.1572270393 1.0751949549 -78.81250000 126.25000000  -999.250000 72.875000000
 1042.5212000  -999.250000  -999.250000 1.1611330509 1.0732419491 -79.81250000 127.25000000  -999.250000 72.562500000
 1042.6736000  -999.250000  -999.250000 1.1689449549 1.0400389433 -79.75000000 127.75000000  -999.250000 70.312500000
 1042.8260000  -999.250000  -999.250000 1.1689449549 1.0517580509 -79.81250000 129.00000000  -999.250000 72.812500000
 1042.9784000  -999.250000  -999.250000 1.1191409826 1.0458979607 -79.31250000 129.00000000  -999.250000 69.375000000
 1043.1308000  -999.250000  -999.250000 1.1093750000 1.0312500000 -78.68750000 128.25000000  -999.250000 69.125000000
 1043.2832000  -999.250000  -999.250000 1.1269530058 1.0166020393 -78.81250000 129.75000000  -999.250000 65.000000000
 1043.4356000  -999.250000  -999.250000 1.1103520393 0.9975585938 -78.31250000 131.50000000  -999.250000 73.625000000
 1043.5880000  -999.250000  -999.250000 1.1210939884 1.0087889433 -78.56250000 132.00000000  -999.250000 76.812500000
 1043.7404000  -999.250000  -999.250000 1.1083979607 0.9965819716 -78.68750000 132.75000000  -999.250000 76.937500000
 1043.8928000  -999.250000  -999.250000 1.0390629768 0.9829102159 -78.31250000 133.25000000  -999.250000 68.750000000
 1044.0452000  -999.250000  -999.250000 1.0761719942 0.9580078125 -78.68750000 132.25000000  -999.250000 64.375000000
 1044.1976000  -999.250000  -999.250000 1.0498050451 0.9916992188 -78.68750000 131.00000000  -999.250000 65.187500000
 1044.3500000  -999.250000  -999.250000 1.1220699549 1.0048830509 -78.43750000 130.00000000  -999.250000 65.875000000
 1044.5024000  -999.250000  -999.250000 1.0615229607 1.0048830509 -78.56250000 128.75000000  -999.250000 67.437500000
 1044.6548000  -999.250000  -999.250000 1.0771479607 1.0048830509 -78.31250000 128.75000000  -999.250000 68.062500000
 1044.8072000  -999.250000  -999.250000 1.1220699549 1.0048830509 -78.87500000 130.25000000  -999.250000 70.562500000
 1044.9596000  -999.250000  -999.250000 1.0937500000 0.9794921875 -79.06250000 130.50000000  -999.250000 72.625000000
 1045.1120000  -999.250000  -999.250000 1.1386719942 0.9980468750 -79.18750000 130.50000000  -999.250000 72.625000000
 1045.2644000  -999.250000  -999.250000 1.0976560116 1.0048830509 -79.93750000 131.25000000  -999.250000 70.750000000
 1045.4168000  -999.250000  -999.250000 1.1562500000 1.0410159826 -79.93750000 129.75000000  -999.250000 68.125000000
 1045.5692000  -999.250000  -999.250000 1.1191409826 1.0292969942 -79.68750000 129.00000000  -999.250000 70.000000000
 1045.7216000  -999.250000  -999.250000 1.1269530058 1.0302729607 -79.06250000 128.25000000  -999.250000 72.125000000
 1045.8740000  -999.250000  -999.250000 1.1230469942 1.0615229607 -79.31250000 128.00000000  -999.250000 75.625000000
 1046.0264000  -999.250000  -999.250000 1.1025389433 1.0419919491 -79.68750000 127.50000000  -999.250000 73.625000000
 1046.1788000  -999.250000  -999.250000 1.1347659826 1.0556639433 -78.68750000 127.00000000  -999.250000 74.000000000
 1046.3312000  -999.250000  -999.250000 1.1025389433 1.0156250000 -78.68750000 128.75000000  -999.250000 69.062500000
 1046.4836000  -999.250000  -999.250000 1.1445310116 1.0527340174 -78.06250000 128.00000000  -999.250000 66.437500000
 1046.6360000  -999.250000  -999.250000 1.1103520393 1.0390629768 -77.68750000 128.75000000  -999.250000 65.375000000
 1046.7884000  -999.250000  -999.250000 1.1083979607 1.0390629768 -77.68750000 130.00000000  -999.250000 72.250000000
 1046.9408000  -999.250000  -999.250000 1.0878909826 1.0292969942 -77.18750000 131.00000000  -999.250000 73.375000000
 1047.0932000  -999.250000  -999.250000 1.0810550451 1.0078129768 -77.93750000 131.75000000  -999.250000 67.375000000
 1047.2456000  -999.250000  -999.250000 1.0771479607 1.0166020393 -77.68750000 132.50000000  -999.250000 62.656250000
 1047.3980000  -999.250000  -999.250000 1.0537110567 1.0039060116 -78.31250000 133.25000000  -999.250000 65.750000000
 1047.5504000  -999.250000  -999.250000 1.1083979607 1.0214840174 -78.43750000 133.25000000  -999.250000 70.375000000
 1047.7028000  -999.250000  -999.250000 1.0800780058 1.0117189884 -78.68750000 132.00000000  -999.250000 74.562500000
 1047.8552000  -999.250000  -999.250000 1.0937500000 1.0126949549 -79.43750000 132.25000000  -999.250000 71.437500000
 1048.0076000  -999.250000  -999.250000 1.0830080509 1.0058590174 -78.93750000 131.75000000  -999.250000 72.125000000
 1048.1600000  -999.250000  -999.250000 1.0781250000 1.0029300451 -79.50000000 132.75000000  -999.250000 68.562500000
 1048.3124000  -999.250000  -999.250000 1.0644530058 0.9902343750 -79.43750000 133.75000000  -999.250000 68.625000000
 1048.4648000  -999.250000  -999.250000 1.0498050451 0.9868164063 -78.93750000 134.00000000  -999.250000 66.375000000
 1048.6172000  -999.250000  -999.250000 1.0761719942 1.0097659826 -79.43750000 132.75000000  -999.250000 70.187500000
 1048.7696000  -999.250000  -999.250000 1.0830080509 1.0048830509 -78.68750000 132.25000000  -999.250000 71.937500000
 1048.9220000  -999.250000  -999.250000 1.0585939884 1.0000000000 -78.18750000 130.75000000  -999.250000 70.687500000
 1049.0744000  -999.250000  -999.250000 1.0488280058 0.9941406250 -78.06250000 130.00000000  -999.250000 69.937500000
 1049.2268000  -999.250000  -999.250000 1.0507810116 0.9975585938 -76.81250000 130.00000000  -999.250000 65.812500000
 1049.3792000  -999.250000  -999.250000 1.0556639433 0.9882813096 -77.18750000 130.00000000  -999.250000 69.500000000
 1049.5316000  -999.250000  -999.250000 1.0839840174 0.9794921875 -76.31250000 129.25000000  -999.250000 69.000000000
 1049.6840000  -999.250000  -999.250000 1.0205080509 0.9907227159 -76.31250000 130.00000000  -999.250000 74.500000000
 1049.8364000  -999.250000  -999.250000 1.0302729607 0.9946289063 -76.93750000 129.50000000  -999.250000 74.062500000
 1049.9888000  -999.250000  -999.250000 1.0576169491 0.9741210938 -76.43750000 130.25000000  -999.250000 74.062500000
 1050.1412000  -999.250000  -999.250000 1.0654300451 0.9575194716 -76.68750000 130.50000000  -999.250000 73.062500000
 1050.2936000  -999.250000  -999.250000 1.0195310116 0.9672852159 -76.50000000 131.25000000  -999.250000 70.812500000
 1050.4460000  -999.250000  -999.250000 0.9877930284 0.9721680284 -77.00000000 133.00000000  -999.250000 70.187500000
