# LAS format log file from PETREL
# Project units are specified as depth units
#==================================================================
~Version information
VERS.   2.0:
WRAP.   NO:
#==================================================================
~Well
STRT.m   149.0000                                  :START DEPTH    
STOP.m   4238.0445                                 :STOP DEPTH     
STEP.m   0.1524                                    :STEP           
NULL.    -999.25                                   :NULL VALUE     
COMP.                                              :COMPANY        
WELL.    Witiora-1                                 :WELL           
FLD .                                              :FIELD          
LOC .    LAT -39.1115760  LON 173.4752001          :LOCATION       
LATI.    -39.1115760                               :SURF. LATITUDE 
LONG.    173.4752001                               :SURF. LONGITUDE
EKB .m   26.000                                    :KB ELEVATION   
EGL .m   -128.000                                  :GROUND LEVEL   
CTRY.                                              :COUNTRY        
SRVC.                                              :SERVICE COMPANY
DATE.    --                                        :LOG DATE       
UWI .    GEO656                                    :UNIQUE WELL ID 
#==================================================================
~Curve
DEPT .m                   : DEPTH
CNL .m3/m3                : CNL
DRH .g/cm3                : DRH
ILD .ohm.m                : ILD
ILM .ohm.m                : ILM
SP .mV                    : SP
BHC .us/ft                : BHC
FDC .g/cm3                : FDC
GRI .API                  : GRI
~Parameter
#==================================================================
~Ascii
# ...
 3703.5776000 0.2758789063 -0.000008789 3.4824221134 2000.0000000 0.9990234375 81.625000000 2.5214838982 62.781250000
 3703.7300000 0.2944335938 -0.000007324 3.4609379768 2000.0000000 -0.000488300 82.500000000 2.5214838982 63.875000000
 3703.8824000 0.2817383111 -0.000002441 3.4218750000 2000.0000000 -0.250488281 83.000000000 2.5234379768 65.187500000
 3704.0348000 0.2973633111 0.0000034180 3.3945310116 2000.0000000 -0.500488341 83.375000000 2.5429689884 66.375000000
 3704.1872000 0.3017578125 0.0000068359 3.3632810116 2000.0000000 -0.250488281 83.500000000 2.5429689884 65.812500000
 3704.3396000 0.3173828125 -0.000000977 3.3496088982 2000.0000000 3.7480471134 84.625000000 2.5429689884 65.000000000
 3704.4920000 0.3217773139 -0.000001953 3.3378911018 2000.0000000 3.4980471134 83.750000000 2.5468750000 65.750000000
 3704.6444000 0.3276366889 -0.000004883 3.3261721134 2000.0000000 2.4980471134 82.500000000 2.5468750000 70.312500000
 3704.7968000 0.3227539063 -0.000003906 3.3027338982 2000.0000000 1.9980471134 82.625000000 2.5507810116 70.750000000
 3704.9492000 0.3002929986 -0.000008301 3.2792971134 2000.0000000 1.7490229607 82.625000000 2.5507810116 68.625000000
 3705.1016000 0.2802734077 -0.000008789 3.2871088982 2000.0000000 1.2490229607 82.000000000 2.5468750000 68.187500000
 3705.2540000 0.2919921875 -0.000011719 3.2773439884 2000.0000000 0.7495117188 82.000000000 2.5488278866 66.562500000
 3705.4064000 0.3046875000 -0.000009277 3.2773439884 2000.0000000 0.4995117188 80.625000000 2.5546879768 69.125000000
 3705.5588000 0.3090820014 -0.000008789 3.2851560116 2000.0000000 2.4980471134 81.125000000 2.5507810116 64.250000000
 3705.7112000 0.2939453125 -0.000007324 3.2656250000 2000.0000000 2.4980471134 81.500000000 2.5507810116 65.875000000
 3705.8636000 0.2812500000 -0.000005859 3.2519528866 2000.0000000 1.4990230799 80.625000000 2.5488278866 65.187500000
 3706.0160000 0.2792969048 -0.000001465 3.2265629768 2000.0000000 1.7490229607 82.500000000 2.5546879768 64.437500000
 3706.1684000 0.2866210938 -0.000001465 3.2324221134 2000.0000000 1.9980471134 81.125000000 2.5468750000 62.593750000
 3706.3208000 0.2949219048 -0.000003418 3.2226560116 2000.0000000 1.7490229607 80.875000000 2.5468750000 63.843750000
 3706.4732000 0.3105469048 -0.000010742 3.2187500000 2000.0000000 1.7490229607 81.375000000 2.5410161018 63.968750000
 3706.6256000 0.3120116889 -0.000015137 3.1953129768 2000.0000000 1.4990230799 81.750000000 2.5488278866 66.125000000
 3706.7780000 0.3144530952 -0.000014160 3.2011721134 2000.0000000 0.9990234375 80.875000000 2.5507810116 62.437500000
 3706.9304000 0.3051758111 -0.000011231 3.1992189884 2000.0000000 1.2490229607 80.000000000 2.5507810116 65.937500000
 3707.0828000 0.3071289063 -0.000010254 3.1464838982 2000.0000000 1.7490229607 77.750000000 2.5410161018 69.187500000
 3707.2352000 0.2885741889 -0.000003906 3.1074221134 2000.0000000 0.4995117188 77.750000000 2.5253911018 74.375000000
 3707.3876000 0.2924804986 -0.000005371 3.0976560116 2000.0000000 3.4980471134 78.875000000 2.5312500000 72.562500000
 3707.5400000 0.2895508111 0.0000000000 3.1406250000 2000.0000000 3.7480471134 80.250000000 2.5390629768 69.625000000
 3707.6924000 0.3105469048 -0.000001465 3.1796879768 2000.0000000 2.2480471134 81.125000000 2.5390629768 68.812500000
 3707.8448000 0.3066405952 0.0000000000 3.2187500000 2000.0000000 1.9980471134 81.625000000 2.5468750000 71.312500000
 3707.9972000 0.3071289063 -0.000002930 3.2578129768 2000.0000000 3.9960942268 79.500000000 2.5585939884 72.562500000
 3708.1496000 0.3017578125 -0.000002930 3.3007810116 2000.0000000 2.7480471134 79.500000000 2.5839838982 71.687500000
 3708.3020000 0.3095703125 0.0000000000 3.3339838982 2000.0000000 2.2480471134 76.625000000 2.5839838982 68.437500000
 3708.4544000 0.3007813096 0.0000073242 3.3222661018 2000.0000000 1.9980471134 75.750000000 2.6054689884 69.875000000
 3708.6068000 0.2846679986 0.0000126953 3.3593750000 2000.0000000 1.4990230799 75.875000000 2.6035161018 70.375000000
 3708.7592000 0.2778320014 0.0000122070 3.4199221134 2000.0000000 0.9990234375 77.875000000 2.5878911018 73.187500000
 3708.9116000 0.2890625000 0.0000097656 3.4902338982 2000.0000000 1.4990230799 80.000000000 2.5878911018 69.750000000
 3709.0640000 0.3076171875 -0.000001953 3.5253911018 2000.0000000 2.7480471134 81.250000000 2.5625000000 68.750000000
 3709.2164000 0.3061523139 -0.000008301 3.4648439884 2000.0000000 2.7480471134 81.125000000 2.5449221134 72.250000000
 3709.3688000 0.3105469048 -0.000009277 3.4062500000 2000.0000000 1.4990230799 81.625000000 2.5468750000 74.687500000
 3709.5212000 0.3120116889 -0.000004395 3.3789060116 2000.0000000 0.9990234375 81.750000000 2.5507810116 73.687500000
 3709.6736000 0.3071289063 0.0000029297 3.3730471134 2000.0000000 0.7495117188 80.250000000 2.5507810116 70.437500000
 3709.8260000 0.2988280952 0.0000048828 3.3632810116 2000.0000000 0.9990234375 81.375000000 2.5585939884 70.000000000
 3709.9784000 0.2988280952 0.0000063477 3.3769528866 2000.0000000 0.7495117188 82.000000000 2.5527338982 73.375000000
 3710.1308000 0.2973633111 0.0000034180 3.4218750000 2000.0000000 0.9990234375 81.500000000 2.5585939884 74.687500000
 3710.2832000 0.2973633111 0.0000024414 3.4179689884 2000.0000000 1.4990230799 82.250000000 2.5585939884 77.437500000
 3710.4356000 0.2949219048 0.0000024414 3.4257810116 2000.0000000 1.7490229607 81.875000000 2.5722661018 76.187500000
 3710.5880000 0.2993164063 0.0000034180 3.4257810116 2000.0000000 2.2480471134 81.750000000 2.5644528866 73.625000000
 3710.7404000 0.2866210938 0.0000014648 3.4238278866 2000.0000000 1.7490229607 81.750000000 2.5546879768 71.937500000
 3710.8928000 0.2856445014 -0.000001953 3.4101560116 2000.0000000 1.7490229607 82.375000000 2.5546879768 71.687500000
 3711.0452000 0.2866210938 -0.000007813 3.4062500000 2000.0000000 0.7495117188 81.250000000 2.5488278866 73.250000000
 3711.1976000 0.2963866889 -0.000009766 3.4062500000 2000.0000000 0.7495117188 82.875000000 2.5527338982 71.312500000
 3711.3500000 0.2861328125 -0.000008789 3.4179689884 2000.0000000 0.9990234375 82.875000000 2.5468750000 73.875000000
 3711.5024000 0.2807616889 -0.000009766 3.3750000000 2000.0000000 0.7495117188 82.500000000 2.5371088982 77.250000000
 3711.6548000 0.2827148139 -0.000011719 3.3242189884 2000.0000000 0.4995117188  -999.250000 2.5371088982 77.562500000
 3711.8072000 0.3017578125 -0.000012695 3.2656250000 2000.0000000 0.7495117188  -999.250000 2.5312500000 74.437500000
 3711.9596000 0.3139648139 -0.000009277 3.2265629768 2000.0000000 0.7495117188 90.875000000 2.5351560116 69.062500000
 3712.1120000 0.3276366889 -0.000002930 3.2167971134 2000.0000000 0.7495117188 88.250000000 2.4921879768 66.187500000
 3712.2644000 0.3432616889 -0.000003906 3.4042971134 2000.0000000 0.9990234375 83.375000000 2.4921879768 62.875000000
 3712.4168000 0.3593750000 0.0000034180 3.5039060116 2000.0000000 0.7495117188 79.125000000 2.4667971134 60.031250000
 3712.5692000 0.3662109077 0.0000053711 3.4726560116 2000.0000000 0.4995117188 73.875000000 2.5371088982 57.000000000
 3712.7216000 0.3305664063 0.0000068359 3.4511721134 2000.0000000 0.2490234077 77.500000000 2.5976560116 54.093750000
 3712.8740000 0.2700195014 0.0000034180 3.4257810116 2000.0000000 -0.250488281 81.125000000 2.5976560116 59.906250000
 3713.0264000 0.2514648139 0.0000000000 3.3984379768 2000.0000000 0.7495117188 81.500000000 2.6074221134 65.750000000
 3713.1788000 0.2587890923 0.0000000000 3.4863278866 2000.0000000 1.2490229607 82.875000000 2.5605471134 72.500000000
 3713.3312000 0.3046875000 -0.000005371 3.6035161018 2000.0000000 1.4990230799 82.625000000 2.5605471134 69.312500000
 3713.4836000 0.3071289063 -0.000004883 3.5800778866 2000.0000000 0.9990234375 81.750000000 2.5449221134 71.625000000
 3713.6360000 0.3105469048 -0.000007813 3.4785161018 2000.0000000 0.9990234375 82.375000000 2.5449221134 67.187500000
 3713.7884000 0.3002929986 0.0000058594 3.3652338982 2000.0000000 0.7495117188 82.750000000 2.5273439884 67.250000000
