# LAS format log file from PETREL
# Project units are specified as depth units
#==================================================================
~Version information
VERS.   2.0:
WRAP.   NO:
#==================================================================
~Well
STRT.m   149.0000                                  :START DEPTH    
STOP.m   4238.0445                                 :STOP DEPTH     
STEP.m   0.1524                                    :STEP           
NULL.    -999.25                                   :NULL VALUE     
COMP.                                              :COMPANY        
WELL.    Witiora-1                                 :WELL           
FLD .                                              :FIELD          
LOC .    LAT -39.1115760  LON 173.4752001          :LOCATION       
LATI.    -39.1115760                               :SURF. LATITUDE 
LONG.    173.4752001                               :SURF. LONGITUDE
EKB .m   26.000                                    :KB ELEVATION   
EGL .m   -128.000                                  :GROUND LEVEL   
CTRY.                                              :COUNTRY        
SRVC.                                              :SERVICE COMPANY
DATE.    --                                        :LOG DATE       
UWI .    GEO656                                    :UNIQUE WELL ID 
#==================================================================
~Curve
DEPT .m                   : DEPTH
CNL .m3/m3                : CNL
DRH .g/cm3                : DRH
ILD .ohm.m                : ILD
ILM .ohm.m                : ILM
SP .mV                    : SP
BHC .us/ft                : BHC
FDC .g/cm3                : FDC
GRI .API                  : GRI
~Parameter
#==================================================================
~Ascii
# ...
 3164.6912000 0.3447265923 0.0000180664 2.0312500000 1.9111330509 -22.67188072 93.000000000 2.3515629768 66.437500000
 3164.8436000 0.3300780952 0.0000502930 2.0292971134 1.9482419491 -23.15625000 92.625000000 2.4453129768 69.750000000
 3164.9960000 0.3403320014 0.0000747070 1.9843750000 1.9531250000 -22.92188072 93.000000000 2.4160161018 68.250000000
 3165.1484000 0.3657226861 0.0000947266 1.9521479607 1.9316409826 -23.40625000 91.875000000 2.3476560116 69.125000000
 3165.3008000 0.3925780952 0.0000234375 1.9472659826 1.9287110567 -23.39063072 92.125000000 2.3476560116 72.562500000
 3165.4532000 0.3945313096 0.0000185547 1.9365229607 1.9414060116 -24.17188072 91.625000000 2.3613278866 71.375000000
 3165.6056000 0.3906250000 -0.000003906 1.9208979607 1.9189449549 -23.93750000 91.250000000 2.4433588982 67.125000000
 3165.7580000 0.3935546875 0.0000356445 1.9072270393 1.8417969942 -24.42188263 91.250000000 2.4589838982 59.531250000
 3165.9104000 0.3608398139 0.0000346680 1.9111330509 1.7968750000 -24.45313072 92.625000000 2.4589838982 59.125000000
 3166.0628000 0.3632813096 0.0000737305 1.9082030058 1.8017580509 -24.45313072 96.875000000 2.5019528866 61.312500000
 3166.2152000 0.3188476861 0.0001196289 1.9433590174 1.8417969942 -24.21875000 94.375000000 2.4882810116 65.687500000
 3166.3676000 0.3281250000 0.0001313477 1.9511719942 1.8955080509 -24.46875000 95.125000000 2.4492189884 68.250000000
 3166.5200000 0.3212890923 0.0001264648 1.9423830509 1.9707030058 -24.46875000 94.375000000 2.4042971134 66.000000000
 3166.6724000 0.4018554986 0.0000908203 1.9140629768 1.9765629768 -24.45313072 93.875000000 2.4042971134 71.500000000
 3166.8248000 0.4086914063 0.0001069336 1.9101560116 1.9414060116 -24.45313072 93.625000000 2.3789060116 72.750000000
 3166.9772000 0.4174804986 0.0001015625 1.9179689884 1.9062500000 -23.68750000 93.500000000 2.3476560116 73.750000000
 3167.1296000 0.3564453125 0.0000527344 1.9599610567 1.8808590174 -23.68750000 90.875000000 2.3652338982 64.750000000
 3167.2820000 0.3588866889 0.0000209961 2.0195310116 1.8613280058 -23.42188263 91.250000000 2.3652338982 69.687500000
 3167.4344000 0.3535155952 0.0000278320 2.0644528866 1.8632810116 -23.65625000 89.000000000 2.4199221134 68.312500000
 3167.5868000 0.3818359077 0.0000458984 2.0605471134 1.9023439884 -23.14063072 89.625000000 2.4296879768 69.500000000
 3167.7392000 0.3774414063 0.0000815430 2.0585939884 1.9746090174 -23.65625000 92.125000000 2.3339838982 65.437500000
 3167.8916000 0.3896484077 0.0000415039 2.0488278866 2.0371088982 -23.15625000 91.125000000 2.3339838982 68.000000000
 3168.0440000 0.3842773139 0.0000366211 2.0253911018 2.0332028866 -23.42188263 92.000000000 2.3183588982 71.062500000
 3168.1964000 0.3911133111 0.0000161133 2.0019528866 1.9794919491 -23.18750000 92.750000000 2.3671879768 71.875000000
 3168.3488000 0.3647460938 0.0000332031 1.9814449549 1.8359379768 -23.46875000 95.625000000 2.4042971134 74.625000000
 3168.5012000 0.3549804986 0.0000166016 1.9892580509 1.7792969942 -22.96875000 95.750000000 2.4453129768 75.875000000
 3168.6536000 0.3564453125 0.0000170898 1.9912110567 1.8056639433 -23.45313072 98.500000000 2.4453129768 74.375000000
 3168.8060000 0.3999023139 0.0000537109 1.9941409826 1.9023439884 -23.45313072 96.000000000 2.4433588982 69.625000000
 3168.9584000 0.4311523139 0.0001347656 1.9814449549 1.9492189884 -23.93750000 98.625000000 2.4218750000 67.875000000
 3169.1108000 0.4428710938 0.0001918945 1.9541020393 1.9960939884 -24.68750000 97.375000000 2.3632810116 69.875000000
 3169.2632000 0.4306640923 0.0001689453 1.9160159826 1.9912110567 -24.67188072 98.000000000 2.3632810116 68.125000000
 3169.4156000 0.4199219048 0.0001210938 1.9482419491 1.9482419491 -24.65625000 95.250000000 2.2988278866 65.625000000
 3169.5680000 0.4121094048 0.0000825195 2.0078129768 1.9199219942 -24.65625000 94.750000000 2.2636721134 59.500000000
 3169.7204000 0.3720703125 0.0000571289 2.0703129768 1.9462889433 -24.14063263 91.250000000 2.2910161018 66.375000000
 3169.8728000 0.3559570014 0.0000278320 2.1386721134 2.0390629768 -23.40625000 93.125000000 2.2910161018 66.750000000
 3170.0252000 0.3466796875 0.0000249023 2.1406250000 2.1191411018 -23.42188263 91.000000000 2.3554689884 66.812500000
 3170.1776000 0.3540039063 0.0000629883 2.1289060116 2.1347661018 -22.90625000 91.875000000 2.4179689884 66.187500000
 3170.3300000 0.3613280952 0.0000961914 2.1054689884 2.0937500000 -23.14063072 91.875000000 2.3886721134 73.062500000
 3170.4824000 0.3681640923 0.0000849609 2.0703129768 2.0312500000 -22.67188072 92.750000000 2.3437500000 77.812500000
 3170.6348000 0.3969726861 0.0000063477 2.0410161018 1.9414060116 -23.15625000 93.500000000 2.3437500000 74.062500000
 3170.7872000 0.3789063096 -0.000012695 1.9882810116 1.9082030058 -23.14063072 94.500000000 2.4140629768 73.062500000
 3170.9396000 0.3710938096 -0.000012207 1.9492189884 1.8613280058 -23.15625000 94.250000000 2.4550778866 66.562500000
 3171.0920000 0.3725585938 0.0000200195 1.9199219942 1.8193360567 -22.89063072 95.375000000 2.4960939884 69.937500000
 3171.2444000 0.3955078125 0.0000644531 1.8789060116 1.8173830509 -23.12500000 95.125000000 2.4960939884 63.281250000
 3171.3968000 0.4082030952 0.0000395508 1.8154300451 1.7998050451 -23.35938072 94.625000000 2.4726560116 65.437500000
 3171.5492000 0.3955078125 0.0000454102 1.8085939884 1.7812500000 -23.87500000 96.375000000 2.4140629768 66.062500000
 3171.7016000 0.3740234077 0.0000336914 1.8007810116 1.7724610567 -23.89063072 95.625000000 2.3925778866 69.562500000
 3171.8540000 0.3808594048 0.0000590820 1.8154300451 1.7880860567 -23.40625000 94.375000000 2.3925778866 71.875000000
 3172.0064000 0.3754883111 0.0000737305 1.8251949549 1.8105469942 -23.64063072 95.375000000 2.3925778866 63.593750000
 3172.1588000 0.3598633111 0.0000678711 1.7978520393 1.8105469942 -24.12500000 91.750000000 2.4023439884 64.437500000
 3172.3112000 0.3359375000 0.0000976563 1.7744139433 1.7763669491 -24.64063072 90.375000000 2.4003911018 63.562500000
 3172.4636000 0.3432616889 0.0000815430 1.7587889433 1.7099610567 -24.15625000 92.125000000 2.4394528866 64.375000000
 3172.6160000 0.3676758111 0.0000991211 1.7431639433 1.6357419491 -23.93750000 93.375000000 2.4394528866 63.937500000
 3172.7684000 0.3876953125 0.0000800781 1.7236330509 1.6044919491 -23.17188072 95.625000000 2.4316411018 62.625000000
 3172.9208000 0.3818359077 0.0001147461 1.6933590174 1.5732419491 -23.40625000 97.125000000 2.3847661018 68.312500000
 3173.0732000 0.3950195014 0.0001108398 1.6796879768 1.5566409826 -23.18750000 97.625000000 2.3750000000 68.937500000
 3173.2256000 0.3940429986 0.0001318359 1.6767580509 1.5908199549 -23.21875000 98.750000000 2.3750000000 72.375000000
 3173.3780000 0.3930664063 0.0000893555 1.6835939884 1.6787110567 -22.95313072 97.750000000 2.3183588982 71.437500000
 3173.5304000 0.4008789063 0.0000859375 1.6835939884 1.7226560116 -22.95313072 95.250000000 2.2285161018 71.687500000
 3173.6828000 0.3852539063 0.0000864258 1.6806639433 1.7021479607 -23.18750000 97.625000000 2.2558588982 68.937500000
 3173.8352000 0.4418945014 0.0000986328 1.6435550451 1.6503909826 -23.46875000 96.500000000 2.2558588982 68.062500000
 3173.9876000 0.4384765923 0.0001132813 1.6621090174 1.5888669491 -23.70313263 96.000000000 2.2851560116 67.187500000
 3174.1400000 0.4228515923 0.0001059570 1.7109379768 1.5605469942 -23.45313072 95.375000000 2.2714838982 71.562500000
 3174.2924000 0.4057616889 0.0001074219 1.7216800451 1.5888669491 -23.45313072 98.000000000 2.2207028866 71.687500000
 3174.4448000 0.3793945014 0.0000942383 1.7402340174 1.6435550451 -23.43750000 94.500000000 2.2285161018 69.062500000
 3174.5972000 0.4052734077 0.0000966797 1.8134770393 1.6611330509 -23.92188072 92.125000000 2.2285161018 63.093750000
 3174.7496000 0.4008789063 0.0001147461 1.7929689884 1.8193360567 -23.67188072 90.625000000 2.2968750000 56.000000000
 3174.9020000 0.4155273139 0.0001699219 1.7753909826 1.9707030058 -23.65625000 92.500000000 2.3203129768 57.781250000
