# LAS format log file from PETREL
# Project units are specified as depth units
#==================================================================
~Version information
VERS.   2.0:
WRAP.   NO:
#==================================================================
~Well
STRT.m   149.0000                                  :START DEPTH    
STOP.m   4238.0445                                 :STOP DEPTH     
STEP.m   0.1524                                    :STEP           
NULL.    -999.25                                   :NULL VALUE     
COMP.                                              :COMPANY        
WELL.    Witiora-1                                 :WELL           
FLD .                                              :FIELD          
LOC .    LAT -39.1115760  LON 173.4752001          :LOCATION       
LATI.    -39.1115760                               :SURF. LATITUDE 
LONG.    173.4752001                               :SURF. LONGITUDE
EKB .m   26.000                                    :KB ELEVATION   
EGL .m   -128.000                                  :GROUND LEVEL   
CTRY.                                              :COUNTRY        
SRVC.                                              :SERVICE COMPANY
DATE.    --                                        :LOG DATE       
UWI .    GEO656                                    :UNIQUE WELL ID 
#==================================================================
~Curve
DEPT .m                   : DEPTH
CNL .m3/m3                : CNL
DRH .g/cm3                : DRH
ILD .ohm.m                : ILD
ILM .ohm.m                : ILM
SP .mV                    : SP
BHC .us/ft                : BHC
FDC .g/cm3                : FDC
GRI .API                  : GRI
~Parameter
#==================================================================
~Ascii
# ...
 3962.6576000 0.2065429986 0.0000014648 6.2968750000 2000.0000000 -1.500976920 71.875000000 2.5117189884 57.406250000
 3962.8100000 0.2084960938 0.0000014648 6.6289057732 2000.0000000 -1.750977039 70.750000000 2.5097661018 62.937500000
 3962.9624000 0.2211914063 -0.000002441 6.6640629768 2000.0000000 -3.001953125 71.000000000 2.5097661018 63.531250000
 3963.1148000 0.2324219048 0.0000000000 6.6250000000 2000.0000000 -0.750488281 69.500000000 2.5351560116 64.937500000
 3963.2672000 0.2216797024 0.0000034180 6.6132807732 2000.0000000 -2.251952887 69.250000000 2.6171879768 61.593750000
 3963.4196000 0.2011719048 0.0000073242 6.6289057732 2000.0000000 -2.001952887 71.375000000 2.6210939884 61.437500000
 3963.5720000 0.1835937947 0.0000029297 6.6289057732 2000.0000000 -2.001952887 69.250000000 2.6210939884 59.750000000
 3963.7244000 0.1684570014 -0.000003418 6.6171879768 2000.0000000 -2.251952887 69.375000000 2.6054689884 59.375000000
 3963.8768000 0.1674804986 -0.000010254 6.6054692268 2000.0000000 -2.501952887 69.000000000 2.5976560116 60.093750000
 3964.0292000 0.1645507962 -0.000008301 6.6328129768 2000.0000000 -4.250000000 67.625000000 2.5957028866 60.062500000
 3964.1816000 0.1748047024 -0.000009766 6.8320307732 2000.0000000 -2.001952887 67.875000000 2.6015629768 61.437500000
 3964.3340000 0.1752929986 -0.000008301 7.6015629768 2000.0000000 -0.250488281 68.125000000 2.6015629768 63.937500000
 3964.4864000 0.1767577976 -0.000011719 7.8828129768 2000.0000000 -0.000488300 68.625000000 2.6015629768 62.531250000
 3964.6388000 0.1845702976 -0.000007813 7.5546879768 2000.0000000 -1.000977039 68.875000000 2.6035161018 58.656250000
 3964.7912000 0.1948242038 -0.000010742 6.6132807732 2000.0000000 -1.750977039 70.375000000 2.5820310116 56.125000000
 3964.9436000 0.2070312947 -0.000018555 6.7734379768 2000.0000000 -2.251952887 70.625000000 2.5820310116 58.218750000
 3965.0960000 0.1992187947 -0.000026367 6.8007807732 2000.0000000 -2.501952887 69.250000000 2.5644528866 60.937500000
 3965.2484000 0.1860352010 -0.000022949 6.8125000000 2000.0000000 -0.750488281 68.500000000 2.6152338982 62.000000000
 3965.4008000 0.1904297024 -0.000018066 6.8242192268 9.0000000000 -2.751952887 68.750000000 2.6367189884 73.062500000
 3965.5532000 0.2045897990 -0.000016602 6.8320307732 2000.0000000 -2.001952887 69.125000000 2.6367189884 85.812500000
 3965.7056000 0.2202147990 -0.000015137 6.8398442268 2000.0000000 1.2490229607 70.000000000 2.6328129768 93.250000000
 3965.8580000 0.2192382962 -0.000007324 6.8476557732 2000.0000000 -1.250977039 70.750000000 2.6347661018 95.375000000
 3966.0104000 0.2148437947 0.0000000000 6.8125000000 2000.0000000 -1.500976920 70.875000000 2.6386721134 90.375000000
 3966.1628000 0.2075195014 0.0000014648 6.8046879768 2000.0000000 -2.751952887 71.625000000 2.6093750000 89.250000000
 3966.3152000 0.2001952976 -0.000004395 6.7500000000 2000.0000000 -2.751952887 74.375000000 2.6093750000 77.875000000
 3966.4676000 0.1977539063 -0.000006348 6.7265629768 2000.0000000 -3.001953125 74.875000000 2.5410161018 62.875000000
 3966.6200000 0.2006835938 -0.000006348 6.7656250000 2000.0000000 -4.500000000 74.500000000 2.4394528866 47.156250000
 3966.7724000 0.1923827976 0.0000000000 6.7695307732 2000.0000000 -0.250488281 76.750000000 2.4238278866 41.562500000
 3966.9248000 0.1796875000 0.0000000000 6.6835942268 2000.0000000 -2.001952887 76.250000000 2.4238278866 44.281250000
 3967.0772000 0.1669922024 -0.000003418 6.7070307732 2000.0000000 -2.251952887 76.000000000 2.4121088982 45.250000000
 3967.2296000 0.1640625000 -0.000009277 6.7617192268 2000.0000000 -2.751952887 75.000000000 2.4042971134 45.312500000
 3967.3820000 0.1689452976 -0.000003906 6.7617192268 2000.0000000 -2.751952887 76.250000000 2.4140629768 43.062500000
 3967.5344000 0.1723632962 -0.000002441 6.8007807732 2000.0000000 -2.751952887 73.625000000 2.4140629768 44.906250000
 3967.6868000 0.1782227010 0.0000014648 6.8906250000 2000.0000000 -2.501952887 74.125000000 2.4335939884 41.125000000
 3967.8392000 0.1635742038 -0.000009277 7.1132807732 2000.0000000 -2.251952887 73.750000000 2.4453129768 41.718750000
 3967.9916000 0.1591797024 -0.000014648 7.3750000000 2000.0000000 -2.251952887 73.875000000 2.4355471134 41.406250000
 3968.1440000 0.1596679986 -0.000024414 7.7773442268 2000.0000000 -2.751952887 73.250000000 2.4433588982 45.250000000
 3968.2964000 0.1718750000 -0.000024902 8.0781250000 2000.0000000 -2.501952887 71.500000000 2.4433588982 48.031250000
 3968.4488000 0.1723632962 -0.000016113 8.1328134537 2000.0000000 -3.001953125 70.875000000 2.4550778866 50.750000000
 3968.6012000 0.1689452976 -0.000007813 8.5234384537 2000.0000000 -3.501952887 69.625000000 2.5117189884 53.093750000
 3968.7536000 0.1523437947 -0.000003418 8.8203134537 2000.0000000 -2.251952887 68.250000000 2.5214838982 53.843750000
 3968.9060000 0.1396483928 -0.000000488 9.1953134537 2000.0000000 -4.500000000 67.250000000 2.5214838982 53.687500000
 3969.0584000 0.1284179986 -0.000002441 9.7031250000 2000.0000000 -3.251952887 66.625000000 2.5175778866 53.656250000
 3969.2108000 0.1254882962 0.0000024414 10.281250000 2000.0000000 -0.500488341 64.375000000 2.5605471134 53.187500000
 3969.3632000 0.1293945014 0.0000034180 10.953129768 2000.0000000 -2.501952887 64.375000000 2.5937500000 53.687500000
 3969.5156000 0.1240234002 0.0000063477 11.539059639 2000.0000000 -3.501952887 64.750000000 2.5937500000 52.312500000
 3969.6680000 0.1318358928 0.0000058594 12.421879768 2000.0000000 -2.751952887 64.375000000 2.6152338982 56.687500000
 3969.8204000 0.1254882962 0.0000014648 12.687500000 2000.0000000 -3.251952887 64.875000000 2.6054689884 59.781250000
 3969.9728000 0.1264647990 0.0000000000 12.968750000 2000.0000000 -2.751952887 63.875000000 2.6015629768 59.093750000
 3970.1252000 0.1264647990 0.0000000000 13.578129768 2000.0000000 -4.000000000 64.375000000 2.6113278866 59.281250000
 3970.2776000 0.1284179986 0.0000043945 13.296879768 2000.0000000 -2.251952887 64.625000000 2.6113278866 55.343750000
 3970.4300000 0.1357422024 0.0000014648 13.039059639 2000.0000000 -0.250488281 63.750000000 2.6054689884 57.406250000
 3970.5824000 0.1367187947 -0.000000977 12.507809639 2000.0000000 -3.751952887 64.750000000 2.6015629768 54.906250000
 3970.7348000 0.1430664063 -0.000004395 12.078129768 2000.0000000 -3.501952887 65.125000000 2.6113278866 57.375000000
 3970.8872000 0.1372070014 -0.000004883 11.757809639 2000.0000000 -3.751952887 64.250000000 2.6113278866 54.968750000
 3971.0396000 0.1328125000 -0.000006348 11.664059639 2000.0000000 -3.751952887 64.250000000 2.6113278866 53.656250000
 3971.1920000 0.1240234002 -0.000006836 11.554690361 2000.0000000 -4.250000000 64.375000000 2.6074221134 53.906250000
 3971.3444000 0.1333007962 0.0000000000 11.250000000 2000.0000000 -4.000000000 64.625000000 2.5937500000 56.312500000
 3971.4968000 0.1367187947 -0.000002441 10.523440361 2000.0000000 -2.251952887 64.750000000 2.5937500000 60.250000000
 3971.6492000 0.1372070014 -0.000006348 9.9062500000 2000.0000000 -3.251952887 65.125000000 2.5917971134 61.625000000
 3971.8016000 0.1381835938 -0.000012207 9.5468750000 2000.0000000 -4.250000000 65.375000000 2.5644528866 61.343750000
 3971.9540000 0.1420897990 -0.000002930 9.2031250000 2000.0000000 -4.000000000 65.250000000 2.5566411018 57.000000000
 3972.1064000 0.1440429986 0.0000068359 9.6875000000 2000.0000000 -4.500000000 65.375000000 2.5703129768 55.187500000
 3972.2588000 0.1435547024 0.0000136719 10.609379768 2000.0000000 -3.501952887 64.125000000 2.5703129768 54.781250000
 3972.4112000 0.1445312947 0.0000151367 10.890629768 2000.0000000 -4.250000000 65.250000000 2.5800778866 55.031250000
 3972.5636000 0.1464844048 0.0000190430 11.132809639 2000.0000000 -4.000000000 65.750000000 2.6093750000 54.968750000
 3972.7160000 0.1445312947 0.0000122070 11.125000000 2000.0000000 -4.000000000 66.500000000 2.6210939884 56.781250000
 3972.8684000 0.1362304986 0.0000073242 11.976559639 2000.0000000 -3.501952887 66.875000000 2.6210939884 62.500000000
