# LAS format log file from PETREL
# Project units are specified as depth units
#==================================================================
~Version information
VERS.   2.0:
WRAP.   NO:
#==================================================================
~Well
STRT.m   149.0000                                  :START DEPTH    
STOP.m   4238.0445                                 :STOP DEPTH     
STEP.m   0.1524                                    :STEP           
NULL.    -999.25                                   :NULL VALUE     
COMP.                                              :COMPANY        
WELL.    Witiora-1                                 :WELL           
FLD .                                              :FIELD          
LOC .    LAT -39.1115760  LON 173.4752001          :LOCATION       
LATI.    -39.1115760                               :SURF. LATITUDE 
LONG.    173.4752001                               :SURF. LONGITUDE
EKB .m   26.000                                    :KB ELEVATION   
EGL .m   -128.000                                  :GROUND LEVEL   
CTRY.                                              :COUNTRY        
SRVC.                                              :SERVICE COMPANY
DATE.    --                                        :LOG DATE       
UWI .    GEO656                                    :UNIQUE WELL ID 
#==================================================================
~Curve
DEPT .m                   : DEPTH
CNL .m3/m3                : CNL
DRH .g/cm3                : DRH
ILD .ohm.m                : ILD
ILM .ohm.m                : ILM
SP .mV                    : SP
BHC .us/ft                : BHC
FDC .g/cm3                : FDC
GRI .API                  : GRI
~Parameter
#==================================================================
~Ascii
# ...
 1568.7584000  -999.250000  -999.250000 1.4306639433 1.3554689884 -84.75000000 110.50000000  -999.250000 77.500000000
 1568.9108000  -999.250000  -999.250000 1.4462889433 1.3554689884 -85.00000000 110.25000000  -999.250000 78.312500000
 1569.0632000  -999.250000  -999.250000 1.4501949549 1.3457030058 -85.25000000 112.00000000  -999.250000 76.687500000
 1569.2156000  -999.250000  -999.250000 1.4697270393 1.3251949549 -85.25000000 111.50000000  -999.250000 73.000000000
 1569.3680000  -999.250000  -999.250000 1.4091800451 1.3330080509 -85.00000000 111.75000000  -999.250000 69.562500000
 1569.5204000  -999.250000  -999.250000 1.4326169491 1.3251949549 -85.37500000 112.50000000  -999.250000 70.937500000
 1569.6728000  -999.250000  -999.250000 1.4423830509 1.3300780058 -85.25000000 111.25000000  -999.250000 73.812500000
 1569.8252000  -999.250000  -999.250000 1.4111330509 1.3085939884 -85.43750000 110.75000000  -999.250000 77.000000000
 1569.9776000  -999.250000  -999.250000 1.4599610567 1.3281250000 -85.75000000 113.25000000  -999.250000 76.125000000
 1570.1300000  -999.250000  -999.250000 1.4375000000 1.3134770393 -85.50000000 112.50000000  -999.250000 74.687500000
 1570.2824000  -999.250000  -999.250000 1.4345699549 1.3251949549 -85.25000000 114.75000000  -999.250000 75.687500000
 1570.4348000  -999.250000  -999.250000 1.4472659826 1.3193360567 -85.12500000 112.75000000  -999.250000 76.437500000
 1570.5872000  -999.250000  -999.250000 1.4306639433 1.3378909826 -85.87500000 112.00000000  -999.250000 77.812500000
 1570.7396000  -999.250000  -999.250000 1.4453129768 1.3544919491 -86.12500000 112.75000000  -999.250000 72.562500000
 1570.8920000  -999.250000  -999.250000 1.4316409826 1.3085939884 -86.50000000 111.50000000  -999.250000 72.500000000
 1571.0444000  -999.250000  -999.250000 1.3955080509 1.3583979607 -85.87500000 112.75000000  -999.250000 71.187500000
 1571.1968000  -999.250000  -999.250000 1.4892580509 1.3300780058 -85.50000000 112.75000000  -999.250000 72.625000000
 1571.3492000  -999.250000  -999.250000 1.4365229607 1.3652340174 -85.87500000 112.50000000  -999.250000 72.750000000
 1571.5016000  -999.250000  -999.250000 1.4082030058 1.3896479607 -85.56250000 109.75000000  -999.250000 71.875000000
 1571.6540000  -999.250000  -999.250000 1.4404300451 1.4150389433 -85.37500000 109.50000000  -999.250000 70.812500000
 1571.8064000  -999.250000  -999.250000 1.4843750000 1.4238280058 -85.00000000 109.50000000  -999.250000 68.500000000
 1571.9588000  -999.250000  -999.250000 1.3886719942 1.4023439884 -84.62500000 108.75000000  -999.250000 70.875000000
 1572.1112000  -999.250000  -999.250000 1.3945310116 1.4072270393 -84.62500000 108.50000000  -999.250000 77.250000000
 1572.2636000  -999.250000  -999.250000 1.4609379768 1.4257810116 -84.37500000 106.75000000  -999.250000 82.125000000
 1572.4160000  -999.250000  -999.250000 1.4257810116 1.4375000000 -84.62500000 108.00000000  -999.250000 81.812500000
 1572.5684000  -999.250000  -999.250000 1.4794919491 1.3935550451 -84.25000000 105.75000000  -999.250000 80.687500000
 1572.7208000  -999.250000  -999.250000 1.4726560116 1.4052729607 -84.12500000 105.00000000  -999.250000 77.562500000
 1572.8732000  -999.250000  -999.250000 1.5478520393 1.4931639433 -84.62500000 103.75000000  -999.250000 78.687500000
 1573.0256000  -999.250000  -999.250000 1.5390629768 1.4609379768 -84.50000000 103.75000000  -999.250000 77.375000000
 1573.1780000  -999.250000  -999.250000 1.5576169491 1.4833979607 -85.25000000 107.50000000  -999.250000 77.625000000
 1573.3304000  -999.250000  -999.250000 1.5986330509 1.5302729607 -84.68750000 108.50000000  -999.250000 76.687500000
 1573.4828000  -999.250000  -999.250000 1.5371090174 1.5136719942 -85.37500000 110.50000000  -999.250000 76.750000000
 1573.6352000  -999.250000  -999.250000 1.5781250000 1.5244139433 -85.62500000 111.25000000  -999.250000 77.125000000
 1573.7876000  -999.250000  -999.250000 1.5830080509 1.5205080509 -85.43750000 108.50000000  -999.250000 72.750000000
 1573.9400000  -999.250000  -999.250000 1.5126949549 1.5019530058 -86.18750000 107.25000000  -999.250000 69.437500000
 1574.0924000  -999.250000  -999.250000 1.5527340174 1.3935550451 -85.81250000 105.50000000  -999.250000 68.562500000
 1574.2448000  -999.250000  -999.250000 1.4726560116 1.4160159826 -85.81250000 106.75000000  -999.250000 72.375000000
 1574.3972000  -999.250000  -999.250000 1.4511719942 1.4375000000 -85.31250000 108.00000000  -999.250000 75.500000000
 1574.5496000  -999.250000  -999.250000 1.4599610567 1.3818360567 -84.93750000 110.25000000  -999.250000 74.750000000
 1574.7020000  -999.250000  -999.250000 1.4687500000 1.3632810116 -84.93750000 110.25000000  -999.250000 72.500000000
 1574.8544000  -999.250000  -999.250000 1.3857419491 1.3613280058 -84.43750000 111.25000000  -999.250000 71.750000000
 1575.0068000  -999.250000  -999.250000 1.3710939884 1.3037110567 -84.68750000 111.75000000  -999.250000 73.000000000
 1575.1592000  -999.250000  -999.250000 1.3847659826 1.3574219942 -84.31250000 111.75000000  -999.250000 70.437500000
 1575.3116000  -999.250000  -999.250000 1.4267580509 1.3320310116 -84.81250000 112.00000000  -999.250000 70.562500000
 1575.4640000  -999.250000  -999.250000 1.3886719942 1.3574219942 -85.06250000 111.50000000  -999.250000 70.062500000
 1575.6164000  -999.250000  -999.250000 1.5253909826 1.3730469942 -84.81250000 111.25000000  -999.250000 72.750000000
 1575.7688000  -999.250000  -999.250000 1.3808590174 1.3613280058 -85.25000000 109.75000000  -999.250000 71.250000000
 1575.9212000  -999.250000  -999.250000 1.4511719942 1.3427729607 -85.12500000 110.00000000  -999.250000 70.687500000
 1576.0736000  -999.250000  -999.250000 1.5351560116 1.3183590174 -85.25000000 112.25000000  -999.250000 70.937500000
 1576.2260000  -999.250000  -999.250000 1.5097659826 1.3281250000 -85.00000000 113.50000000  -999.250000 70.625000000
 1576.3784000  -999.250000  -999.250000 1.4267580509 1.3378909826 -84.75000000 113.25000000  -999.250000 69.312500000
 1576.5308000  -999.250000  -999.250000 1.4609379768 1.3193360567 -85.37500000 116.25000000  -999.250000 69.562500000
 1576.6832000  -999.250000  -999.250000 1.5078129768 1.3652340174 -85.25000000 113.75000000  -999.250000 67.500000000
 1576.8356000  -999.250000  -999.250000 1.4609379768 1.2685550451 -85.25000000 112.75000000  -999.250000 73.250000000
 1576.9880000  -999.250000  -999.250000 1.4804689884 1.3193360567 -85.00000000 113.00000000  -999.250000 72.437500000
 1577.1404000  -999.250000  -999.250000 1.5166020393 1.3544919491 -85.62500000 112.00000000  -999.250000 69.562500000
 1577.2928000  -999.250000  -999.250000 1.5185550451 1.3085939884 -85.81250000 112.00000000  -999.250000 64.750000000
 1577.4452000  -999.250000  -999.250000 1.4609379768 1.2578129768 -85.68750000 113.00000000  -999.250000 64.062500000
 1577.5976000  -999.250000  -999.250000 1.4687500000 1.2646479607 -86.43750000 113.00000000  -999.250000 68.562500000
 1577.7500000  -999.250000  -999.250000 1.4218750000 1.2929689884 -86.06250000 114.50000000  -999.250000 66.562500000
 1577.9024000  -999.250000  -999.250000 1.4726560116 1.2626949549 -86.31250000 111.75000000  -999.250000 65.562500000
 1578.0548000  -999.250000  -999.250000 1.4726560116 1.3007810116 -85.68750000 112.00000000  -999.250000 67.000000000
 1578.2072000  -999.250000  -999.250000 1.4550780058 1.3222659826 -85.56250000 113.50000000  -999.250000 65.562500000
 1578.3596000  -999.250000  -999.250000 1.5488280058 1.2998050451 -85.56250000 113.50000000  -999.250000 63.906250000
 1578.5120000  -999.250000  -999.250000 1.4863280058 1.2646479607 -84.93750000 113.50000000  -999.250000 58.031250000
 1578.6644000  -999.250000  -999.250000 1.4667969942 1.2910159826 -84.81250000 113.75000000  -999.250000 59.031250000
 1578.8168000  -999.250000  -999.250000 1.4482419491 1.2695310116 -84.68750000 111.50000000  -999.250000 64.500000000
 1578.9692000  -999.250000  -999.250000 1.5332030058 1.2773439884 -85.00000000 111.50000000  -999.250000 66.500000000
