# LAS format log file from PETREL
# Project units are specified as depth units
#==================================================================
~Version information
VERS.   2.0:
WRAP.   NO:
#==================================================================
~Well
STRT.m   149.0000                                  :START DEPTH    
STOP.m   4238.0445                                 :STOP DEPTH     
STEP.m   0.1524                                    :STEP           
NULL.    -999.25                                   :NULL VALUE     
COMP.                                              :COMPANY        
WELL.    Witiora-1                                 :WELL           
FLD .                                              :FIELD          
LOC .    LAT -39.1115760  LON 173.4752001          :LOCATION       
LATI.    -39.1115760                               :SURF. LATITUDE 
LONG.    173.4752001                               :SURF. LONGITUDE
EKB .m   26.000                                    :KB ELEVATION   
EGL .m   -128.000                                  :GROUND LEVEL   
CTRY.                                              :COUNTRY        
SRVC.                                              :SERVICE COMPANY
DATE.    --                                        :LOG DATE       
UWI .    GEO656                                    :UNIQUE WELL ID 
#==================================================================
~Curve
DEPT .m                   : DEPTH
CNL .m3/m3                : CNL
DRH .g/cm3                : DRH
ILD .ohm.m                : ILD
ILM .ohm.m                : ILM
SP .mV                    : SP
BHC .us/ft                : BHC
FDC .g/cm3                : FDC
GRI .API                  : GRI
~Parameter
#==================================================================
~Ascii
# ...
 1838.2016000  -999.250000  -999.250000 1.6328129768 1.4794919491 -55.93750000 105.50000000  -999.250000 74.687500000
 1838.3540000  -999.250000  -999.250000 1.5839840174 1.5781250000 -56.28125000 106.25000000  -999.250000 74.500000000
 1838.5064000  -999.250000  -999.250000 1.5712889433 1.5712889433 -56.78125000 110.50000000  -999.250000 76.187500000
 1838.6588000  -999.250000  -999.250000 1.5820310116 1.5722659826 -56.75000000 110.75000000  -999.250000 82.312500000
 1838.8112000  -999.250000  -999.250000 1.5341800451 1.5292969942 -57.12500000 110.50000000  -999.250000 85.562500000
 1838.9636000  -999.250000  -999.250000 1.5605469942 1.5205080509 -56.37500000 110.25000000  -999.250000 87.687500000
 1839.1160000  -999.250000  -999.250000 1.6054689884 1.5078129768 -56.37500000 107.75000000  -999.250000 82.375000000
 1839.2684000  -999.250000  -999.250000 1.5263669491 1.4775389433 -55.37500000 106.62500000  -999.250000 77.250000000
 1839.4208000  -999.250000  -999.250000 1.6298830509 1.4794919491 -54.75000000 109.25000000  -999.250000 72.187500000
 1839.5732000  -999.250000  -999.250000 1.6748050451 1.4931639433 -55.37500000 104.75000000  -999.250000 71.125000000
 1839.7256000  -999.250000  -999.250000 1.6806639433 1.5839840174 -56.09375000 109.87500000  -999.250000 72.875000000
 1839.8780000  -999.250000  -999.250000 1.6416020393 1.5712889433 -56.87500000 107.75000000  -999.250000 76.562500000
 1840.0304000  -999.250000  -999.250000 1.6748050451 1.6240229607 -56.21875000 107.87500000  -999.250000 80.625000000
 1840.1828000  -999.250000  -999.250000 1.7109379768 1.7089840174 -56.12500000 104.75000000  -999.250000 80.187500000
 1840.3352000  -999.250000  -999.250000 1.7587889433 1.7246090174 -55.21875000 101.87500000  -999.250000 78.500000000
 1840.4876000  -999.250000  -999.250000 1.6845699549 1.6005860567 -53.46875000 104.00000000  -999.250000 72.562500000
 1840.6400000  -999.250000  -999.250000 1.7333979607 1.5419919491 -53.00000000 105.62500000  -999.250000 73.750000000
 1840.7924000  -999.250000  -999.250000 1.6835939884 1.5751949549 -53.37500000 104.87500000  -999.250000 74.937500000
 1840.9448000  -999.250000  -999.250000 1.7226560116 1.5820310116 -54.12500000 107.25000000  -999.250000 76.500000000
 1841.0972000  -999.250000  -999.250000 1.6855469942 1.5810550451 -53.87500000 102.25000000  -999.250000 80.500000000
 1841.2496000  -999.250000  -999.250000 1.6669919491 1.4931639433 -53.53125000 108.75000000  -999.250000 76.500000000
 1841.4020000  -999.250000  -999.250000 1.6718750000 1.5419919491 -53.37500000 105.50000000  -999.250000 81.312500000
 1841.5544000  -999.250000  -999.250000 1.6044919491 1.4873050451 -53.84375000 106.62500000  -999.250000 76.187500000
 1841.7068000  -999.250000  -999.250000 1.5117189884 1.5537110567 -54.37500000 108.50000000  -999.250000 77.937500000
 1841.8592000  -999.250000  -999.250000 1.6259770393 1.4970699549 -54.00000000 106.00000000  -999.250000 77.437500000
 1842.0116000  -999.250000  -999.250000 1.5263669491 1.4443360567 -53.15625000 108.75000000  -999.250000 76.937500000
 1842.1640000  -999.250000  -999.250000 1.5869139433 1.4804689884 -53.43750000 107.37500000  -999.250000 76.500000000
 1842.3164000  -999.250000  -999.250000 1.5732419491 1.4873050451 -54.78125000 108.25000000  -999.250000 74.625000000
 1842.4688000  -999.250000  -999.250000 1.6162110567 1.5019530058 -54.90625000 108.37500000  -999.250000 75.000000000
 1842.6212000  -999.250000  -999.250000 1.6503909826 1.5283199549 -53.78125000 109.62500000  -999.250000 73.937500000
 1842.7736000  -999.250000  -999.250000 1.6386719942 1.5283199549 -54.06250000 106.00000000  -999.250000 74.312500000
 1842.9260000  -999.250000  -999.250000 1.6406250000 1.6347659826 -53.43750000 109.00000000  -999.250000 78.937500000
 1843.0784000  -999.250000  -999.250000 1.6005860567 1.4970699549 -54.46875000 103.50000000  -999.250000 76.062500000
 1843.2308000  -999.250000  -999.250000 1.5615229607 1.4638669491 -56.06250000 104.50000000  -999.250000 72.250000000
 1843.3832000  -999.250000  -999.250000 1.6298830509 1.3867189884 -56.18750000 106.62500000  -999.250000 69.812500000
 1843.5356000  -999.250000  -999.250000 1.5458979607 1.3828129768 -53.56250000 105.37500000  -999.250000 72.187500000
 1843.6880000  -999.250000  -999.250000 1.7333979607 1.3486330509 -52.15625000 105.87500000  -999.250000 75.500000000
 1843.8404000  -999.250000  -999.250000 1.7636719942 1.4277340174 -52.78125000 107.50000000  -999.250000 75.312500000
 1843.9928000  -999.250000  -999.250000 1.6884770393 1.5634770393 -53.00000000 105.50000000  -999.250000 74.937500000
 1844.1452000  -999.250000  -999.250000 1.6757810116 1.5742189884 -54.87500000 103.75000000  -999.250000 72.250000000
 1844.2976000  -999.250000  -999.250000 1.7001949549 1.5244139433 -54.87500000 103.25000000  -999.250000 68.625000000
 1844.4500000  -999.250000  -999.250000 1.6650389433 1.4951169491 -55.03125000 102.37500000  -999.250000 68.812500000
 1844.6024000  -999.250000  -999.250000 1.7519530058 1.3867189884 -55.40625000 104.25000000  -999.250000 71.625000000
 1844.7548000  -999.250000  -999.250000 1.6806639433 1.4560550451 -55.28125000 105.50000000  -999.250000 70.250000000
 1844.9072000  -999.250000  -999.250000 1.7021479607 1.4667969942 -55.75000000 105.50000000  -999.250000 69.187500000
 1845.0596000  -999.250000  -999.250000 1.6171879768 1.4482419491 -55.59375000 107.00000000  -999.250000 69.437500000
 1845.2120000  -999.250000  -999.250000 1.6816409826 1.3994139433 -57.00000000 107.25000000  -999.250000 74.250000000
 1845.3644000  -999.250000  -999.250000 1.6093750000 1.4150389433 -58.62500000 105.37500000  -999.250000 75.687500000
 1845.5168000  -999.250000  -999.250000 1.6289060116 1.4326169491 -58.53125000 104.00000000  -999.250000 74.500000000
 1845.6692000  -999.250000  -999.250000 1.5546879768 1.4560550451 -58.50000000 104.75000000  -999.250000 71.250000000
 1845.8216000  -999.250000  -999.250000 1.6240229607 1.4199219942 -57.65625000 103.50000000  -999.250000 72.062500000
 1845.9740000  -999.250000  -999.250000 1.6503909826 1.4375000000 -57.53125000 103.50000000  -999.250000 70.125000000
 1846.1264000  -999.250000  -999.250000 1.5693360567 1.3964840174 -57.03125000 103.37500000  -999.250000 71.750000000
 1846.2788000  -999.250000  -999.250000 1.5566409826 1.4199219942 -57.15625000 103.00000000  -999.250000 67.687500000
 1846.4312000  -999.250000  -999.250000 1.6044919491 1.3828129768 -57.12500000 103.25000000  -999.250000 69.125000000
 1846.5836000  -999.250000  -999.250000 1.5839840174 1.3496090174 -56.87500000 103.50000000  -999.250000 66.625000000
 1846.7360000  -999.250000  -999.250000 1.5791020393 1.3359379768 -57.25000000 103.00000000  -999.250000 71.562500000
 1846.8884000  -999.250000  -999.250000 1.5263669491 1.3427729607 -56.87500000 103.25000000  -999.250000 70.687500000
 1847.0408000  -999.250000  -999.250000 1.5312500000 1.3378909826 -57.53125000 103.50000000  -999.250000 72.375000000
 1847.1932000  -999.250000  -999.250000 1.5126949549 1.2939449549 -57.43750000 103.25000000  -999.250000 70.562500000
 1847.3456000  -999.250000  -999.250000 1.5341800451 1.3125000000 -57.65625000 103.75000000  -999.250000 70.937500000
 1847.4980000  -999.250000  -999.250000 1.5654300451 1.3222659826 -57.28125000 103.25000000  -999.250000 70.750000000
 1847.6504000  -999.250000  -999.250000 1.5888669491 1.2910159826 -57.15625000 103.25000000  -999.250000 67.500000000
 1847.8028000  -999.250000  -999.250000 1.5000000000 1.3056639433 -57.28125000 102.50000000  -999.250000 65.500000000
 1847.9552000  -999.250000  -999.250000 1.5947270393 1.2871090174 -56.93750000 102.75000000  -999.250000 66.250000000
 1848.1076000  -999.250000  -999.250000 1.5820310116 1.3291020393 -57.65625000 103.00000000  -999.250000 67.562500000
 1848.2600000  -999.250000  -999.250000 1.6406250000 1.3417969942 -57.40625000 103.00000000  -999.250000 68.500000000
 1848.4124000  -999.250000  -999.250000 1.6210939884 1.3867189884 -57.65625000 103.00000000  -999.250000 67.125000000
