# LAS format log file from PETREL
# Project units are specified as depth units
#==================================================================
~Version information
VERS.   2.0:
WRAP.   NO:
#==================================================================
~Well
STRT.m   149.0000                                  :START DEPTH    
STOP.m   4238.0445                                 :STOP DEPTH     
STEP.m   0.1524                                    :STEP           
NULL.    -999.25                                   :NULL VALUE     
COMP.                                              :COMPANY        
WELL.    Witiora-1                                 :WELL           
FLD .                                              :FIELD          
LOC .    LAT -39.1115760  LON 173.4752001          :LOCATION       
LATI.    -39.1115760                               :SURF. LATITUDE 
LONG.    173.4752001                               :SURF. LONGITUDE
EKB .m   26.000                                    :KB ELEVATION   
EGL .m   -128.000                                  :GROUND LEVEL   
CTRY.                                              :COUNTRY        
SRVC.                                              :SERVICE COMPANY
DATE.    --                                        :LOG DATE       
UWI .    GEO656                                    :UNIQUE WELL ID 
#==================================================================
~Curve
DEPT .m                   : DEPTH
CNL .m3/m3                : CNL
DRH .g/cm3                : DRH
ILD .ohm.m                : ILD
ILM .ohm.m                : ILM
SP .mV                    : SP
BHC .us/ft                : BHC
FDC .g/cm3                : FDC
GRI .API                  : GRI
~Parameter
#==================================================================
~Ascii
# ...
 511.71200000  -999.250000  -999.250000  -999.250000 2000.0000000 -162.7500000 57.125000000  -999.250000 27.890630722
 511.86440000  -999.250000  -999.250000  -999.250000 2000.0000000 -163.0000000 56.875000000  -999.250000 25.203130722
 512.01680000  -999.250000  -999.250000  -999.250000 2000.0000000 -163.8750000 56.750000000  -999.250000 25.984380722
 512.16920000  -999.250000  -999.250000  -999.250000 2000.0000000 -164.3750000 56.750000000  -999.250000 26.578130722
 512.32160000  -999.250000  -999.250000  -999.250000 2000.0000000 -164.3750000 57.250000000  -999.250000 31.000000000
 512.47400000  -999.250000  -999.250000  -999.250000 2000.0000000 -164.3750000 57.000000000  -999.250000 31.671880722
 512.62640000  -999.250000  -999.250000  -999.250000 2000.0000000 -162.8750000 57.125000000  -999.250000 32.625000000
 512.77880000  -999.250000  -999.250000  -999.250000 2000.0000000 -161.8750000 56.625000000  -999.250000 31.140630722
 512.93120000  -999.250000  -999.250000  -999.250000 2000.0000000 -160.3750000 56.500000000  -999.250000 32.781250000
 513.08360000  -999.250000  -999.250000  -999.250000 2000.0000000 -159.1250000 57.000000000  -999.250000 31.296880722
 513.23600000  -999.250000  -999.250000  -999.250000 2000.0000000 -158.5000000 57.125000000  -999.250000 30.218750000
 513.38840000  -999.250000  -999.250000  -999.250000 2000.0000000 -157.0000000 56.875000000  -999.250000 26.421880722
 513.54080000  -999.250000  -999.250000  -999.250000 2000.0000000 -156.1250000 57.000000000  -999.250000 26.031250000
 513.69320000  -999.250000  -999.250000  -999.250000 2000.0000000 -156.0000000 56.500000000  -999.250000 27.093750000
 513.84560000  -999.250000  -999.250000  -999.250000 2000.0000000 -154.7500000 56.625000000  -999.250000 27.421880722
 513.99800000  -999.250000  -999.250000  -999.250000 2000.0000000 -153.8750000 57.500000000  -999.250000 29.812500000
 514.15040000  -999.250000  -999.250000  -999.250000 2000.0000000 -152.6250000 57.500000000  -999.250000 27.093750000
 514.30280000  -999.250000  -999.250000  -999.250000 2000.0000000 -151.7500000 52.375000000  -999.250000 28.296880722
 514.45520000  -999.250000  -999.250000  -999.250000 2000.0000000 -151.0000000 59.250000000  -999.250000 27.453130722
 514.60760000  -999.250000  -999.250000  -999.250000 2000.0000000 -149.1250000 57.500000000  -999.250000 30.781250000
 514.76000000  -999.250000  -999.250000  -999.250000 2000.0000000 -148.0000000 50.875000000  -999.250000 30.515630722
 514.91240000  -999.250000  -999.250000  -999.250000 2000.0000000 -147.0000000 57.250000000  -999.250000 27.781250000
 515.06480000  -999.250000  -999.250000  -999.250000 2000.0000000 -146.0000000 54.500000000  -999.250000 25.093750000
 515.21720000  -999.250000  -999.250000  -999.250000 2000.0000000 -145.0000000 58.750000000  -999.250000 25.437500000
 515.36960000  -999.250000  -999.250000  -999.250000 2000.0000000 -143.2500000 76.625000000  -999.250000 27.843750000
 515.52200000  -999.250000  -999.250000  -999.250000 2000.0000000 -142.0000000 58.250000000  -999.250000 29.921880722
 515.67440000  -999.250000  -999.250000  -999.250000 2000.0000000 -140.0000000 57.250000000  -999.250000 31.703130722
 515.82680000  -999.250000  -999.250000  -999.250000 2000.0000000 -138.0000000 56.250000000  -999.250000 31.703130722
 515.97920000  -999.250000  -999.250000  -999.250000 2000.0000000 -135.7500000 57.000000000  -999.250000 30.781250000
 516.13160000  -999.250000  -999.250000  -999.250000 2000.0000000 -131.5000000 121.62500000  -999.250000 28.984380722
 516.28400000  -999.250000  -999.250000  -999.250000 2000.0000000 -128.8750000 92.000000000  -999.250000 28.093750000
 516.43640000  -999.250000  -999.250000  -999.250000 2000.0000000 -125.4999924 121.75000000  -999.250000 29.687500000
 516.58880000  -999.250000  -999.250000  -999.250000 2000.0000000 -122.5625000 136.25000000  -999.250000 30.984380722
 516.74120000  -999.250000  -999.250000  -999.250000 2000.0000000 -121.3750000 155.12500000  -999.250000 33.781250000
 516.89360000  -999.250000  -999.250000  -999.250000 2000.0000000 -119.3750000 162.50000000  -999.250000 36.625000000
 517.04600000  -999.250000  -999.250000  -999.250000 2000.0000000 -118.7500000 170.87500000  -999.250000 39.468750000
 517.19840000  -999.250000  -999.250000  -999.250000 2000.0000000 -118.1875000 175.00000000  -999.250000 40.812500000
 517.35080000  -999.250000  -999.250000  -999.250000 1.2060550451 -116.9375000 184.50000000  -999.250000 42.000000000
 517.50320000  -999.250000  -999.250000 0.8100585938 0.6318358779 -116.6875000 181.75000000  -999.250000 44.468750000
 517.65560000  -999.250000  -999.250000 0.6323242188 0.6201171875 -115.8750000 180.25000000  -999.250000 44.750000000
 517.80800000  -999.250000  -999.250000 0.6049805284 0.6127930284 -115.8125000 200.00000000  -999.250000 47.281250000
 517.96040000  -999.250000  -999.250000 0.6933593750 0.6210938096 -116.0625000 179.75000000  -999.250000 49.125000000
 518.11280000  -999.250000  -999.250000 0.8544921875 0.6650391221 -117.2500000 178.50000000  -999.250000 50.375000000
 518.26520000  -999.250000  -999.250000 0.8330078125 0.7211914063 -121.3750000 204.75000000  -999.250000 48.625000000
 518.41760000  -999.250000  -999.250000 0.9096680284 0.7856444716 -122.9375000 183.50000000  -999.250000 45.031250000
 518.57000000  -999.250000  -999.250000 0.9687500000 0.8276367188 -123.8750000 166.75000000  -999.250000 45.437500000
 518.72240000  -999.250000  -999.250000 0.9990233779 0.8447266221 -124.0625000 181.75000000  -999.250000 46.656250000
 518.87480000  -999.250000  -999.250000 0.9252930284 0.8027343750 -123.6250000 178.00000000  -999.250000 49.937500000
 519.02720000  -999.250000  -999.250000 0.8242188096 0.7724608779 -123.8750000 193.50000000  -999.250000 48.906250000
 519.17960000  -999.250000  -999.250000 0.7910156250 0.5932617188 -122.7500000 177.50000000  -999.250000 44.906250000
 519.33200000  -999.250000  -999.250000 0.7011718750 0.5424805284 -121.6250000 186.50000000  -999.250000 39.750000000
 519.48440000  -999.250000  -999.250000 0.6596680284 0.4804688096 -120.6875000 185.00000000  -999.250000 39.468750000
 519.63680000  -999.250000  -999.250000 0.6391602159 0.4155273139 -119.7500000 188.00000000  -999.250000 39.281250000
 519.78920000  -999.250000  -999.250000 0.5795897841 0.3999023139 -120.6250000 188.50000000  -999.250000 41.406250000
 519.94160000  -999.250000  -999.250000 0.5791016221 0.3891601861 -121.0625000 186.75000000  -999.250000 38.468750000
 520.09400000  -999.250000  -999.250000 0.6333007813 0.4018554986 -121.5000000 184.25000000  -999.250000 35.812500000
 520.24640000  -999.250000  -999.250000 0.6586914063 0.4492188096 -122.0625000 154.50000000  -999.250000 33.687500000
 520.39880000  -999.250000  -999.250000 0.6923828125 0.6391602159 -122.1875000 125.25000000  -999.250000 36.375000000
 520.55120000  -999.250000  -999.250000 0.7255858779 0.6625977159 -122.5625000 122.75000000  -999.250000 39.187500000
 520.70360000  -999.250000  -999.250000 0.7573242188 0.6474608779 -122.8125000 139.50000000  -999.250000 43.000000000
 520.85600000  -999.250000  -999.250000 0.9067382813 0.6518555284 -122.4375000 154.50000000  -999.250000 42.031250000
 521.00840000  -999.250000  -999.250000 0.9731444716 0.6918944716 -122.8125000 172.00000000  -999.250000 45.312500000
 521.16080000  -999.250000  -999.250000 1.1708979607 0.7167968750 -121.3125000 172.25000000  -999.250000 45.062500000
 521.31320000  -999.250000  -999.250000 1.0937500000 0.7177733779 -120.5625000 172.75000000  -999.250000 46.656250000
 521.46560000  -999.250000  -999.250000 0.9672852159 0.6948242188 -119.7500000 172.75000000  -999.250000 48.531250000
 521.61800000  -999.250000  -999.250000 0.8564453125 0.7045897841 -119.6250000 172.50000000  -999.250000 48.656250000
 521.77040000  -999.250000  -999.250000 0.8173828125 0.6909180284 -120.8750000 170.75000000  -999.250000 50.093750000
 521.92280000  -999.250000  -999.250000 0.7919921875 0.6738281250 -120.1875000 169.00000000  -999.250000 46.593750000
