# LAS format log file from PETREL
# Project units are specified as depth units
#==================================================================
~Version information
VERS.   2.0:
WRAP.   NO:
#==================================================================
~Well
STRT.m   149.0000                                  :START DEPTH    
STOP.m   4238.0445                                 :STOP DEPTH     
STEP.m   0.1524                                    :STEP           
NULL.    -999.25                                   :NULL VALUE     
COMP.                                              :COMPANY        
WELL.    Witiora-1                                 :WELL           
FLD .                                              :FIELD          
LOC .    LAT -39.1115760  LON 173.4752001          :LOCATION       
LATI.    -39.1115760                               :SURF. LATITUDE 
LONG.    173.4752001                               :SURF. LONGITUDE
EKB .m   26.000                                    :KB ELEVATION   
EGL .m   -128.000                                  :GROUND LEVEL   
CTRY.                                              :COUNTRY        
SRVC.                                              :SERVICE COMPANY
DATE.    --                                        :LOG DATE       
UWI .    GEO656                                    :UNIQUE WELL ID 
#==================================================================
~Curve
DEPT .m                   : DEPTH
CNL .m3/m3                : CNL
DRH .g/cm3                : DRH
ILD .ohm.m                : ILD
ILM .ohm.m                : ILM
SP .mV                    : SP
BHC .us/ft                : BHC
FDC .g/cm3                : FDC
GRI .API                  : GRI
~Parameter
#==================================================================
~Ascii
# ...
 770.79200000  -999.250000  -999.250000 0.9409180284 0.9370117188 -108.3125000 141.50000000  -999.250000 61.781250000
 770.94440000  -999.250000  -999.250000 0.9775391221 0.9169921875 -108.7500000 142.75000000  -999.250000 63.875000000
 771.09680000  -999.250000  -999.250000 0.9316406250 0.9189453125 -108.2500000 143.50000000  -999.250000 59.500000000
 771.24920000  -999.250000  -999.250000 0.9267578125 0.9306641221 -108.0625000 143.00000000  -999.250000 64.375000000
 771.40160000  -999.250000  -999.250000 0.9516602159 0.9487305284 -108.1250000 142.50000000  -999.250000 66.562500000
 771.55400000  -999.250000  -999.250000 0.9326171875 0.9721680284 -107.3750000 142.00000000  -999.250000 66.500000000
 771.70640000  -999.250000  -999.250000 0.9257813096 0.9833983779 -107.9375000 141.25000000  -999.250000 65.875000000
 771.85880000  -999.250000  -999.250000 0.9394531250 0.9736328125 -107.2500000 140.00000000  -999.250000 65.312500000
 772.01120000  -999.250000  -999.250000 0.9399414063 0.9975585938 -106.8750000 139.00000000  -999.250000 70.187500000
 772.16360000  -999.250000  -999.250000 0.9760742188 0.9750977159 -107.7500000 138.00000000  -999.250000 69.937500000
 772.31600000  -999.250000  -999.250000 0.9736328125 0.9770507813 -107.0000000 137.50000000  -999.250000 68.875000000
 772.46840000  -999.250000  -999.250000 1.0039060116 0.9965819716 -107.6250000 137.50000000  -999.250000 69.875000000
 772.62080000  -999.250000  -999.250000 1.0341800451 0.9916992188 -107.3750000 137.75000000  -999.250000 69.625000000
 772.77320000  -999.250000  -999.250000 0.9975585938 0.9824218750 -107.8750000 138.00000000  -999.250000 65.937500000
 772.92560000  -999.250000  -999.250000 0.9946289063 0.9741210938 -108.4375000 138.75000000  -999.250000 63.437500000
 773.07800000  -999.250000  -999.250000 0.9882813096 0.9526367188 -108.4375000 139.50000000  -999.250000 65.687500000
 773.23040000  -999.250000  -999.250000 0.9389647841 0.9472656250 -108.5000000 139.00000000  -999.250000 72.125000000
 773.38280000  -999.250000  -999.250000 0.9565430284 0.8881835938 -108.3750000 139.00000000  -999.250000 71.125000000
 773.53520000  -999.250000  -999.250000 0.9389647841 0.8920897841 -108.1250000 139.50000000  -999.250000 69.187500000
 773.68760000  -999.250000  -999.250000 0.9541016221 0.9125977159 -109.2500000 139.50000000  -999.250000 64.125000000
 773.84000000  -999.250000  -999.250000 0.9008789063 0.8940430284 -108.2500000 139.75000000  -999.250000 63.156250000
 773.99240000  -999.250000  -999.250000 0.9467772841 0.8813477159 -108.1875000 140.75000000  -999.250000 62.250000000
 774.14480000  -999.250000  -999.250000 0.8896483779 0.8857421875 -108.0000000 140.50000000  -999.250000 61.656250000
 774.29720000  -999.250000  -999.250000 0.9125977159 0.8696289063 -107.4375000 140.75000000  -999.250000 61.125000000
 774.44960000  -999.250000  -999.250000 0.8847656250 0.8540039063 -108.0000000 140.00000000  -999.250000 61.156250000
 774.60200000  -999.250000  -999.250000 0.8754882813 0.8378906250 -107.8125000 139.75000000  -999.250000 60.906250000
 774.75440000  -999.250000  -999.250000 0.9052733779 0.8515625000 -108.2500000 139.75000000  -999.250000 61.312500000
 774.90680000  -999.250000  -999.250000 0.9082031250 0.8491210938 -108.0625000 140.25000000  -999.250000 59.906250000
 775.05920000  -999.250000  -999.250000 0.9018555284 0.8999022841 -107.0625000 139.75000000  -999.250000 64.750000000
 775.21160000  -999.250000  -999.250000 0.9433593750 0.8764647841 -107.0000000 139.25000000  -999.250000 63.062500000
 775.36400000  -999.250000  -999.250000 0.8940430284 0.8999022841 -106.8125000 139.00000000  -999.250000 64.250000000
 775.51640000  -999.250000  -999.250000 0.9194335938 0.8881835938 -107.5000000 138.75000000  -999.250000 61.000000000
 775.66880000  -999.250000  -999.250000 0.9477539063 0.9042968750 -107.0625000 138.25000000  -999.250000 61.500000000
 775.82120000  -999.250000  -999.250000 0.9433593750 0.9208983779 -106.5000000 139.00000000  -999.250000 61.843750000
 775.97360000  -999.250000  -999.250000 0.9345703125 0.9189453125 -107.0000000 138.50000000  -999.250000 62.437500000
 776.12600000  -999.250000  -999.250000 0.9838867188 0.9223632813 -106.7500000 138.00000000  -999.250000 63.937500000
 776.27840000  -999.250000  -999.250000 0.9467772841 0.9541016221 -107.0625000 136.50000000  -999.250000 65.812500000
 776.43080000  -999.250000  -999.250000 0.9379882813 0.9282227159 -107.5625000 135.25000000  -999.250000 65.437500000
 776.58320000  -999.250000  -999.250000 0.9653319716 0.9282227159 -107.0625000 137.00000000  -999.250000 65.062500000
 776.73560000  -999.250000  -999.250000 0.9526367188 0.9174805284 -107.5625000 138.25000000  -999.250000 63.875000000
 776.88800000  -999.250000  -999.250000 0.9516602159 0.8710938096 -107.3750000 141.25000000  -999.250000 64.937500000
 777.04040000  -999.250000  -999.250000 0.9301757813 0.8652343750 -107.5625000 141.50000000  -999.250000 62.406250000
 777.19280000  -999.250000  -999.250000 0.9335938096 0.9028319716 -107.9375000 142.75000000  -999.250000 58.375000000
 777.34520000  -999.250000  -999.250000 0.9165039063 0.8999022841 -107.1250000 142.75000000  -999.250000 59.500000000
 777.49760000  -999.250000  -999.250000 0.9375000000 0.8969727159 -107.6250000 144.00000000  -999.250000 65.375000000
 777.65000000  -999.250000  -999.250000 0.8945313096 0.9111328125 -107.3125000 142.50000000  -999.250000 67.375000000
 777.80240000  -999.250000  -999.250000 0.9150391221 0.9140625000 -106.5625000 142.00000000  -999.250000 66.562500000
 777.95480000  -999.250000  -999.250000 0.8872069716 0.9101563096 -106.3750000 141.50000000  -999.250000 63.781250000
 778.10720000  -999.250000  -999.250000 0.8818358779 0.8847656250 -105.8125000 138.75000000  -999.250000 64.375000000
 778.25960000  -999.250000  -999.250000 0.9013671875 0.8847656250 -105.3125000 138.75000000  -999.250000 62.843750000
 778.41200000  -999.250000  -999.250000 0.9301757813 0.8784180284 -104.9375000 122.25000000  -999.250000 62.593750000
 778.56440000  -999.250000  -999.250000 0.9165039063 0.9150391221 -104.8750000 111.00000000  -999.250000 63.062500000
 778.71680000  -999.250000  -999.250000 0.9462891221 0.9423828125 -105.7500000 102.25000000  -999.250000 64.500000000
 778.86920000  -999.250000  -999.250000 0.9638671875 1.0000000000 -105.0000000 74.250000000  -999.250000 61.625000000
 779.02160000  -999.250000  -999.250000 0.9477539063 0.9926757813 -105.4375000 62.250000000  -999.250000 58.750000000
 779.17400000  -999.250000  -999.250000 0.9111328125 0.9697266221 -105.8750000 81.750000000  -999.250000 56.125000000
 779.32640000  -999.250000  -999.250000 0.9301757813 0.8994141221 -105.1250000 94.250000000  -999.250000 58.531250000
 779.47880000  -999.250000  -999.250000 0.9584960938 0.8969727159 -105.1875000 125.25000000  -999.250000 61.562500000
 779.63120000  -999.250000  -999.250000 0.9570313096 0.8720703125 -104.3750000 135.75000000  -999.250000 64.875000000
 779.78360000  -999.250000  -999.250000 0.9306641221 0.8740233779 -104.1250000 145.75000000  -999.250000 62.312500000
 779.93600000  -999.250000  -999.250000 0.9140625000 0.8652343750 -104.0625000 145.50000000  -999.250000 60.687500000
 780.08840000  -999.250000  -999.250000 0.8793944716 0.8364257813 -103.6875000 142.75000000  -999.250000 59.875000000
 780.24080000  -999.250000  -999.250000 0.8647460938 0.8017578125 -104.3750000 144.75000000  -999.250000 60.750000000
 780.39320000  -999.250000  -999.250000 0.8242188096 0.7919921875 -104.0625000 149.25000000  -999.250000 59.093750000
 780.54560000  -999.250000  -999.250000 0.8476563096 0.8149414063 -104.3750000 152.50000000  -999.250000 58.656250000
 780.69800000  -999.250000  -999.250000 0.8579102159 0.8564453125 -104.6875000 151.75000000  -999.250000 58.000000000
 780.85040000  -999.250000  -999.250000 0.8706055284 0.8666992188 -104.2500000 147.00000000  -999.250000 60.937500000
 781.00280000  -999.250000  -999.250000 0.8720703125 0.9042968750 -105.0000000 138.00000000  -999.250000 61.187500000
